name,contact_first_name,contact_last_name,contact_name,email,contact_email,fax,mailing_address_line_1,mailing_address_line_2,mailing_city,mailing_contact_first_name,mailing_contact_last_name,mailing_contact_name,mailing_country,mailing_county,mailing_postalcode,mailing_province,provider_name,primary_phone,secondary_phone,twitter,website,source,contact_occupation,dsgne_first_name,dsgne_last_name,admin_name,co_address_line_1,co_address_line_2,co_company,co_city,co_postalcode,co_province,ombudsman_phone,typeofcare,typeofcare2,low_high_rate,low_rate,high_rate,address_line_1,address_line_2,address_directions,city,municipality,region,province,state_id,postal_code,country,latitude,longitude,neighborhood,addr_valid
LIBERTY VILLAGE OF ADAMS,,,CANDICE JOHNSON,,,,,,,,,,,,,,,(608) 339-9444,,,,,,,,,,,,,,,,CBRF,Residential Care,"3,850/5,850",,,550 W LIBERTY STREET,,,ADAMS, ADAMS,,WI,,53910,USA,43.96146,-89.823419,,True
BIRCH HAVEN SENIOR LIVING BEARS HOLLOW,,,DALE KELM,,,,,,,,,,,,,,,(715) 682-2534,,,,,,,,,,,,,,,,CBRF,Residential Care,"3,390/5,828",,,1019 15TH AVE W,,,ASHLAND, ASHLAND,,WI,,54806,USA,46.57631199999999,-90.89458499999999,,True
BIRCH HAVEN SENIOR LIVING EAGLES RIDGE,,,DALE KELM,,,,,,,,,,,,,,,(715) 682-1069,,,,,,,,,,,,,,,,CBRF,Residential Care,"3,390/5,828",,,224 22ND AVE W,,,ASHLAND, ASHLAND,,WI,,54806,USA,46.580649,-90.90872399999999,,True
BIRCH HAVEN SENIOR LIVING FALCONS CREST,,,DALE KELM,,,,,,,,,,,,,,,(715) 682-2775,,,,,,,,,,,,,,,,CBRF,Residential Care,"3,390/5,828",,,218 22ND AVE W,,,ASHLAND, ASHLAND,,WI,,54806,USA,46.58101019999999,-90.90893109999999,,True
BIRCH HAVEN SENIOR LIVING TIMBERS EDGE,,,DALE KELM,,,,,,,,,,,,,,,(715) 682-2506,,,,,,,,,,,,,,,,CBRF,Residential Care,"3,390/5,828",,,1500 10TH ST W,,,ASHLAND, ASHLAND,,WI,,54806,USA,46.576674,-90.89442000000001,,True
HANSENS GROUP HOME,,,SUSAN & CARL HANSEN,,,,,,,,,,,,,,,(715) 537-5331,,,,,,,,,,,,,,,,CBRF,Residential Care,"1,500/4,000",,,1190 17TH ST,,,BARRON, BARRON,,WI,,54812,USA,45.378246,-91.806581,,True
HUNTER HOME SERVICES INC,,,ELIZABETH HUNTER,,,,,,,,,,,,,,,(715) 537-1608,,,,,,,,,,,,,,,,CBRF,Residential Care,"1,940/3,954",,,1222 - 13-1/2 AVENUE,,,BARRON, BARRON,,WI,,54812,USA,45.40101,-91.8412838,,True
MONROE MANOR,,,JULIE MALONE,,,,,,,,,,,,,,,(715) 537-5700,,,,,,,,,,,,,,,,CBRF,Residential Care,"2,850/3,700",,,508 E MONROE AVE,,,BARRON, BARRON,,WI,,54812,USA,45.3984854,-91.85047399999999,,True
LSS BARRON AREA RESIDENTIAL TREATMENT,,,SHELLEY HAMMES,,,,,,,,,,,,,,,(715) 214-9062,,,,,,,,,,,,,,,,CBRF,Residential Care,,,,806 29 1/2 AVE,,,BARRONETT, BARRON,,WI,,54813,USA,45.6336501,-91.9896943,,True
INTEGRICARE CAMERON,,,SUE HANSON,,,,,,,,,,,,,,,(715) 859-6309,,,,,,,,,,,,,,,,CBRF,Residential Care,"2,700/4,200",,,1372-24-3/8 ST,,,CAMERON, BARRON,,WI,,54822,USA,45.404775,-91.757485,,True
CHETEK RIVERS EDGE,,,SUE HANSON,,,,,,,,,,,,,,,(715) 924-2964,,,,,,,,,,,,,,,,CBRF,Residential Care,"2,900/5,000",,,251 WOODWARD ST,,,CHETEK, BARRON,,WI,,54728,USA,ERROR,ERROR,ERROR,True
AURORA RES ALTERNATIVES INC 049,,,JILL MATTSON,,,,,P O BOX 68,,,,,,,,,,(715) 822-2245,,,,,,,,,,,,,,,,CBRF,Residential Care,"5,019/5,019",,,1849 HWY 63,,,COMSTOCK, BARRON,,WI,,54826,USA,45.5438194,-92.01787329999999,,False
BRENTWOOD SENIOR LIVING MEMORY CARE,,,RUTH ROTHSTEIN,,,,,PO BOX 155,,,,,,,,,,(715) 736-7400,,,,,,,,,,,,,,,,CBRF,Residential Care,"4,000/6,000",,,633 CAMERON RD,,,RICE LAKE, BARRON,,WI,,54868,USA,45.4923958,-91.75161,,True
CARE PARTNERS RICE LAKE II,,,DEBE SEVERSON,,,,,PO BOX 3006,,,,,,,,,,(715) 719-0415,,,,,,,,,,,,,,,,CBRF,Residential Care,"4,700/5,600",,,1639 KERN AVENUE,,,RICE LAKE, BARRON,,WI,,54868,USA,45.4835569,-91.7242704,,True
CHRISMARK HOME LLC,,,KELLY BANT,,,,,,,,,,,,,,,(715) 736-1112,,,,,,,,,,,,,,,,CBRF,Residential Care,"2,800/4,000",,,1627 KERN AVE,,,RICE LAKE, BARRON,,WI,,54868,USA,45.484037,-91.724762,,True
COUNTRY TERRACE OF WISCONSIN INC,,,DEB SEVERSON,,,,,PO BOX 3006,,,,,,,,,,(715) 234-2012,,,,,,,,,,,,,,,,CBRF,Residential Care,"2,652/3,702",,,1631 KERN AVENUE,,,RICE LAKE, BARRON,,WI,,54868,USA,45.48399999999999,-91.723477,,True
INTEGRICARE RICE LAKE,,,SUE HANSON,,,,,,,,,,,,,,,(715) 719-0024,,,,,,,,,,,,,,,,CBRF,Residential Care,"2,900/5,500",,,315 E SAINT PATRICK STREET,,,RICE LAKE, BARRON,,WI,,54868,USA,45.4858254,-91.7281472,,True
MAGNA HOUSE OF BARRON COUNTY LLC,,,KAREN RUSCH,,,,,,,,,,,,,,,(715) 736-6334,,,,,,,,,,,,,,,,CBRF,Residential Care,"2,280/3,900",,,615 E SAWYER ST,,,RICE LAKE, BARRON,,WI,,54868,USA,45.49305200000001,-91.72388199999999,,True
NEW BEGINNINGS OF BARRON COUNTY INC,,,RENEE ANDERSON,,,,,,,,,,,,,,,(715) 736-1311,,,,,,,,,,,,,,,,CBRF,Residential Care,"3,300/6,000",,,4 CORNELL AVENUE,,,RICE LAKE, BARRON,,WI,,54868,USA,45.501831,-91.741478,,True
NORTHWOOD GABLES,,,NANCY FREDERICKSON,,,,,,,,,,,,,,,(715) 234-9415,,,,,,,,,,,,,,,,CBRF,Residential Care,"2,235/4,813",,,1464-21ST AVENUE,,,RICE LAKE, BARRON,,WI,,54868,USA,45.51046,-91.85279799999999,,True
RICE LAKE ASSISTED CARE,,,KAYLA HANSON,,,,,,,,,,,,,,,(715) 236-7211,,,,,,,,,,,,,,,,CBRF,Residential Care,"3,350/3,720",,,415 E SOUTH ST,,,RICE LAKE, BARRON,,WI,,54868,USA,45.4803421,-91.72671369999999,,True
RICE LAKE MEMORY CARE,,,LISA ROBINSON,,,,,,,,,,,,,,,(715) 736-0347,,,,,,,,,,,,,,,,CBRF,Residential Care,"3,900/3,900",,,413 E SOUTH ST,,,RICE LAKE, BARRON,,WI,,54868,USA,45.4803345,-91.72721330000002,,True
WOODSTONE SENIOR LIVING CBRF,,,JACOB WORK,,,,,PO BOX 172,,,,,,,,,,(715) 736-6060,,,,,,,,,,,,,,,,CBRF,Residential Care,"4,887/6,887",,,950 BEAR PAW AVENUE,,,RICE LAKE, BARRON,,WI,,54868,USA,45.5110311,-91.75944129999999,,True
WILLOW MANOR,,,SHARON HOGFELDT,,,,,,,,,,,,,,,(715) 372-5005,,,,,,,,,,,,,,,,CBRF,Residential Care,"3,000/4,000",,,68290 N DISTRICT ST,,,IRON RIVER, BAYFIELD,,WI,,54847,USA,46.5670231,-91.40475169999999,,True
OAKS AT NORTHERN LIGHTS (THE),,,JENNIFER AUGUSTINE,,,,,,,,,,,,,,,(715) 373-5621,,,,,,,,,,,,,,,,CBRF,Residential Care,"3,500/3,900",,,702 BRATLEY DR,,,WASHBURN, BAYFIELD,,WI,,54891,USA,46.6803788,-90.8840927,,True
ANGELS ON ARCADIAN 1,,,DAVID FRY,,,,,,,,,,,,,,,(920) 339-0601,,,,,,,,,,,,,,,,CBRF,Residential Care,"2,600/4,500",,,1550 ARCADIAN LN,,,DE PERE, BROWN,,WI,,54115,USA,44.4266184,-88.0489396,,True
ANGELS ON ARCADIAN 2,,,DAVID FRY,,,,,,,,,,,,,,,(920) 339-0601,,,,,,,,,,,,,,,,CBRF,Residential Care,"2,600/4,500",,,1500 ARCADIAN LN,,,DE PERE, BROWN,,WI,,54115,USA,44.4271632,-88.0493859,,True
ANGELS ON ARCADIAN 3,,,DAVID FRY,,,,,,,,,,,,,,,(920) 339-0601,,,,,,,,,,,,,,,,CBRF,Residential Care,"2,600/4,500",,,1525 ARCADIAN LN,,,DE PERE, BROWN,,WI,,54115,USA,44.426735,-88.0491842,,True
ANGELS TOUCH ASSISTED LIVING,,,SHEILA STEINFELDT,,,,,,,,,,,,,,,(920) 336-9137,,,,,,,,,,,,,,,,CBRF,Residential Care,"4,000/5,000",,,1350 ANGELS PATH,,,DE PERE, BROWN,,WI,,54115,USA,44.431238,-88.009962,,True
ANGELS TOUCH ASSISTED LIVING LLC,,,SHEILA STEINFELDT,,,,,,,,,,,,,,,(920) 336-9137,,,,,,,,,,,,,,,,CBRF,Residential Care,"4,600/5,500",,,394 ANGELS TOUCH CT,,,DE PERE, BROWN,,WI,,54115,USA,44.4310467,-88.0086839,,True
ANGELS TOUCH ASST LVG LLC 5,,,SHEILA STEINFELDT,,,,,,,,,,,,,,,(920) 336-9137,,,,,,,,,,,,,,,,CBRF,Residential Care,"4,600/5,500",,,400 ANGELS TOUCH CT,,,DE PERE, BROWN,,WI,,54115,USA,44.43041419999999,-88.0089708,,True
ARTISAN DE PERE (THE),,,TARA LAPACEK,,,,,,,,,,,,,,,(920) 338-3407,,,,,,,,,,,,,,,,CBRF,Residential Care,"2,900/3,800",,,1880 SCHEURING RD,,,DE PERE, BROWN,,WI,,54115,USA,44.4308533,-88.1226812,,True
BIRCH CREEK BY HILLCREST,,,ANN STRAH,,,,,,,,,,,,,,,(920) 964-3737,,,,,,,,,,,,,,,,CBRF,Residential Care,"1,900/5,000",,,525 N 10TH ST,,,DE PERE, BROWN,,WI,,54115,USA,44.45527269999999,-88.08386569999999,,True
OAKS FAM CARE CTR GRANT ST,,,CYNDI GARBISCH,,,,,,,,,,,,,,,(920) 336-3155,,,,,,,,,,,,,,,,CBRF,Residential Care,"3,105/4,489",,,1527 GRANT ST,,,DE PERE, BROWN,,WI,,54115,USA,44.444463,-88.10557299999999,,True
SCANDINAVIAN COURT ASSISTED LIVING,,,CHRISTINA MESEBERG,,,,,,,,,,,,,,,(920) 863-5362,,,,,,,,,,,,,,,,CBRF,Residential Care,"2,474/3,015",,,346 SCANDINAVIAN CT,,,DENMARK, BROWN,,WI,,54208,USA,44.35189219999999,-87.8284704,,True
HIL FOX RUN,,,PENNI OLSON,,,,,,,,,,,,,,,(920) 983-9592,,,,,,,,,,,,,,,,CBRF,Residential Care,"5,279/6,023",,,1744 BURGOYNE CT,,,DEPERE, BROWN,,WI,,54115,USA,44.406149,-88.12333749999999,,True
ACS GREEN BAY,,,KATRINA NELSON,,,,,PO BOX 1685,,,,,,,,,,(920) 469-2569,,,,,,,,,,,,,,,,CBRF,Residential Care,"2,374/2,629",,,2670 UNIVERSITY AVE,,,GREEN BAY, BROWN,,WI,,54311,USA,44.5153257,-87.94849649999999,,True
ALLOUEZ PARKSIDE  VILLAGE 2,,,ANN STRAH,,,,,,,,,,,,,,,(920) 432-3322,,,,,,,,,,,,,,,,CBRF,Residential Care,"4,900/5,500",,,1901 LIBAL STREET,,,GREEN BAY, BROWN,,WI,,54301,USA,44.4834458,-88.0102572,,True
ALLOUEZ PARKSIDE VILLAGE,,,ANN STRAH,,,,,,,,,,,,,,,(920) 430-8500,,,,,,,,,,,,,,,,CBRF,Residential Care,"3,500/4,800",,,1901 LIBAL ST,,,GREEN BAY, BROWN,,WI,,54301,USA,44.4834458,-88.0102572,,True
ALPHA SENIOR CONCEPTS,,,REBECCA MARKS,,,,,,,,,,,,,,,(920) 393-4531,,,,,,,,,,,,,,,,CBRF,Residential Care,"4,300/5,900",,,2723 LINEVILLE RD,,,GREEN BAY, BROWN,,WI,,54313,USA,44.59038,-88.0900599,,True
ANGELS ON HUMBOLDT BUILDING 1,,,DAVID FRY,,,,,,,,,,,,,,,(920) 406-7600,,,,,,,,,,,,,,,,CBRF,Residential Care,"2,500/4,000",,,655 WOODSIDE RD,,,GREEN BAY, BROWN,,WI,,54311,USA,44.512375,-87.912903,,True
ANGELS ON HUMBOLDT BUILDING 2,,,DAVID FRY,,,,,,,,,,,,,,,(920) 406-7600,,,,,,,,,,,,,,,,CBRF,Residential Care,"2,500/4,000",,,653 WOODSIDE RD,,,GREEN BAY, BROWN,,WI,,54311,USA,44.5127514,-87.91279469999999,,True
AUTUMNS PROMISE ASSISTED LIVING LLC,,,NICOLE SILTA,,,,,,,,,,,,,,,(920) 465-1181,,,,,,,,,,,,,,,,CBRF,Residential Care,"4,100/4,750",,,1700 SPARTAN RD,,,GREEN BAY, BROWN,,WI,,54311,USA,44.5224316,-87.90195,,True
BISHOPS COURT,,,ANN STRAH,,,,,,,,,,,,,,,(920) 435-2729,,,,,,,,,,,,,,,,CBRF,Residential Care,"3,200/4,500",,,289 E ST JOSEPH,,,GREEN BAY, BROWN,,WI,,54301,USA,44.48476269999999,-88.0184913,,True
BORNEMANN CBRF NORTH,,,KATIE HAGERSTROM,,,,,,,,,,,,,,,(920) 406-9850,,,,,,,,,,,,,,,,CBRF,Residential Care,"4,198/4,715",,,1866 BROOK ST,,,GREEN BAY, BROWN,,WI,,54302,USA,44.5057237,-87.9757968,,True
BORNEMANN CBRF SOUTH,,,KATIE HAGERSTROM,,,,,,,,,,,,,,,(920) 468-3110,,,,,,,,,,,,,,,,CBRF,Residential Care,"3,893/4,167",,,1853 MILLS ST,,,GREEN BAY, BROWN,,WI,,54302,USA,44.5041506,-87.9762159,,True
BROWN CO COMMUNITY TREATMENT CENTER BAY HAVE,,,LUCAS J. SCHUBERT,,,,,,,,,,,,,,,(920) 391-4701,,,,,,,,,,,,,,,,CBRF,Residential Care,,,,3150 GERSHWIN DR,,,GREEN BAY, BROWN,,WI,,54311,USA,44.52270349999999,-87.92502259999999,,True
BUFFLEHEAD LANE,,,SHAWN COLLARD,,,,,,,,,,,,,,,(920) 465-9410,,,,,,,,,,,,,,,,CBRF,Residential Care,"6,492/7,035",,,2084 BUFFLEHEAD LN,,,GREEN BAY, BROWN,,WI,,54311,USA,44.475975,-87.9780218,,True
CARDINAL RIDGE RESIDENTIAL CARE,,,KAREN BAIN,,,,,PO BOX 11966,,,,,,,,,,(920) 434-9600,,,,,,,,,,,,,,,,CBRF,Residential Care,"3,550/4,825",,,713 CARDINAL LANE,,,GREEN BAY, BROWN,,WI,,54313,USA,44.56046509999999,-88.0853454,,True
CARRINGTON ASSISTED LIVING,,,APRIL MULLEN,,,,,,,,,,,,,,,(920) 469-2606,,,,,,,,,,,,,,,,CBRF,Residential Care,"3,500/5,000",,,2626 FINGER RD,,,GREEN BAY, BROWN,,WI,,54302,USA,44.4878168,-87.95164079999999,,True
CENTURY RIDGE OF GREEN BAY I,,,JENNIFER CRAWFORD,,,,,,,,,,,,,,,(920) 468-2520,,,,,,,,,,,,,,,,CBRF,Residential Care,"2,400/3,200",,,2498 BLUESTONE PL,,,GREEN BAY, BROWN,,WI,,54311,USA,44.4639672,-87.9578975,,True
CENTURY RIDGE OF GREEN BAY II,,,JENNIFER CRAWFORD,,,,,,,,,,,,,,,(920) 468-2520,,,,,,,,,,,,,,,,CBRF,Residential Care,"2,400/3,200",,,2510 BLUESTONE PL,,,GREEN BAY, BROWN,,WI,,54311,USA,44.46403499999999,-87.9579521,,True
CFAA INC,,,RACHEL CHVALA,,,,,,,,,,,,,,,(920) 432-8119,,,,,,,,,,,,,,,,CBRF,Residential Care,"2,700/2,900",,,1308 S NORWOOD AVE,,,GREEN BAY, BROWN,,WI,,54304,USA,44.5044959,-88.0383889,,True
CLARITY CARE BERNARD ON HOFFMAN,,,RAYNE NELSON,,,,,,,,,,,,,,,(920) 338-1569,,,,,,,,,,,,,,,,CBRF,Residential Care,"5,709/5,735",,,898 E HOFFMAN RD,,,GREEN BAY, BROWN,,WI,,54301,USA,44.456666,-88.019492,,True
CLARITY CARE SHAWANO AVENUE APARTMENTS,,,RAYNE NELSON,,,,,,,,,,,,,,,(920) 490-4581,,,,,,,,,,,,,,,,CBRF,Residential Care,"3,396/5,336",,,1297 SHAWANO AVE,,,GREEN BAY, BROWN,,WI,,54303,USA,44.5255878,-88.048322,,True
COTTONWOOD MANOR ASSISTED LIVING,,,KRISTINE RITZENHEIN,,,,,,,,,,,,,,,(920) 499-8838,,,,,,,,,,,,,,,,CBRF,Residential Care,"2,136/4,027",,,1450 S MILITARY AVE,,,GREEN BAY, BROWN,,WI,,54304,USA,44.5131153,-88.0712958,,True
DURHAM,,,RAYNE NELSON,,,,,,,,,,,,,,,(920) 884-3160,,,,,,,,,,,,,,,,CBRF,Residential Care,"5,481/5,879",,,2671-2673 DURHAM RD,,,GREEN BAY, BROWN,,WI,,54311,USA,44.54143819999999,-87.9112906,,True
GARDENS AT MARLA VISTA (THE),,,JENNIFER OWENS,,,,,,,,,,,,,,,(920) 499-1119,,,,,,,,,,,,,,,,CBRF,Residential Care,"4,000/4,500",,,1016 N MILITARY AVE,,,GREEN BAY, BROWN,,WI,,54303,USA,44.5406584,-88.0514003,,True
GRANCARE GARDENS,,,BRENDA LEE CARPENTER,,,,,,,,,,,,,,,(920) 494-3050,,,,,,,,,,,,,,,,CBRF,Residential Care,"3,275/3,850",,,1551 DOUSMAN ST,,,GREEN BAY, BROWN,,WI,,54303,USA,44.531523,-88.0572849,,True
HAMPTON MANOR,,,JANE NEWLUN,,,,,,,,,,,,,,,(920) 434-9666,,,,,,,,,,,,,,,,CBRF,Residential Care,"2,235/2,900",,,1265 ROCKWELL RD,,,GREEN BAY, BROWN,,WI,,54313,USA,44.575181,-88.089973,,True
HIL BITTERWOOD,,,PENNI OLSON,,,,,,,,,,,,,,,(920) 983-0014,,,,,,,,,,,,,,,,CBRF,Residential Care,"7,066/7,066",,,3279 BITTERS CT,,,GREEN BAY, BROWN,,WI,,54301,USA,44.46138000000001,-88.0300029,,True
HIL COOPERS RUN,,,KELLY ZIPPERER,,,,,,,,,,,,,,,(920) 857-3750,,,,,,,,,,,,,,,,CBRF,Residential Care,"6,092/6,092",,,2460 FORESTVILLE DR,,,GREEN BAY, BROWN,,WI,,54304,USA,44.514439,-88.09252649999999,,True
HIL ORIOLE,,,STEVEN BURTON,,,,,,,,,,,,,,,(920) 857-9718,,,,,,,,,,,,,,,,CBRF,Residential Care,"6,548/6,548",,,503 PLATTEN ST,,,GREEN BAY, BROWN,,WI,,54303,USA,44.5326166,-88.04709539999999,,True
HIL ROCKWOOD HEIGHTS,,,DAWN ZIEMENDORF,,,,,,,,,,,,,,,(920) 662-1203,,,,,,,,,,,,,,,,CBRF,Residential Care,"6,157/6,157",,,2744 ROCKWOOD HEIGHTS,,,GREEN BAY, BROWN,,WI,,54313,USA,44.552438,-88.090203,,True
HIL WESTPLAIN,,,DAVID HOFFMANN,,,,,,,,,,,,,,,(920) 857-3734,,,,,,,,,,,,,,,,CBRF,Residential Care,"9,894/9,894",,,335-339 WESTPLAIN DR,,,GREEN BAY, BROWN,,WI,,54303,USA,44.5379549,-88.06909499999999,,True
INNOVATIVE SERVICES INC DIVERSION FACILITY,,,SHAWN COLLARD,,,,,,,,,,,,,,,(920) 435-3750,,,,,,,,,,,,,,,,CBRF,Residential Care,"3,330/3,330",,,1311 N DANZ AVE,,,GREEN BAY, BROWN,,WI,,54302,USA,44.5190821,-87.96852849999999,,True
LAFRANK CBRF,,,KEVIN LAPOINTE,,,,,,,,,,,,,,,(920) 405-0712,,,,,,,,,,,,,,,,CBRF,Residential Care,"5,300/5,850",,,1713 FRANK ST,,,GREEN BAY, BROWN,,WI,,54304,USA,44.50626649999999,-88.05996669999999,,True
LIBAL STREET HOME,,,SHAWN COLLARD,,,,,,,,,,,,,,,(920) 347-4624,,,,,,,,,,,,,,,,CBRF,Residential Care,"5,963/6,436",,,3500 LIBAL ST,,,GREEN BAY, BROWN,,WI,,54301,USA,44.45815099999999,-88.030216,,True
LSS NORTH VIEW HOUSE,,,LISA SEVERSON,,,,,,,,,,,,,,,(920) 494-5454,,,,,,,,,,,,,,,,CBRF,Residential Care,"7,776/7,776",,,2517-19 N VIEW CT,,,GREEN BAY, BROWN,,WI,,54303,USA,44.501909,-87.8974079,,True
LSS PREBLE HOUSE,,,LISA SEVERSON,,,,,,,,,,,,,,,(920) 465-9977,,,,,,,,,,,,,,,,CBRF,Residential Care,"4,966/4,966",,,830-832 EDGEWOOD DR,,,GREEN BAY, BROWN,,WI,,54311,USA,44.485582,-87.95818489999999,,True
MARLA VISTA ASSISTED LIVING,,,JENNIFER OWENS,,,,,,,,,,,,,,,(920) 499-1119,,,,,,,,,,,,,,,,CBRF,Residential Care,"3,400/5,200",,,1006 N MILITARY AVE,,,GREEN BAY, BROWN,,WI,,54303,USA,44.5402328,-88.0515729,,True
MC CORMICK MEMORIAL HOME,,,JAMES GENRICH,,,,,,,,,,,,,,,(920) 437-0883,,,,,,,,,,,,,,,,CBRF,Residential Care,"3,300/4,100",,,212 IROQUOIS AVE,,,GREEN BAY, BROWN,,WI,,54301,USA,44.476921,-88.03025,,True
OAK PARK PLACE OF GREEN BAY,,,JOHN CORPUS,,,,,,,,,,,,,,,(920) 461-2533,,,,,,,,,,,,,,,,CBRF,Residential Care,"4,650/5,850",,,421 ERIE RD,,,GREEN BAY, BROWN,,WI,,54311,USA,44.49253629999999,-87.9069275,,True
OAKS FAM CARE CTR CARI HOUSE,,,LISA WANEK,,,,,,,,,,,,,,,(920) 497-2477,,,,,,,,,,,,,,,,CBRF,Residential Care,"3,020/3,020",,,1485 PLYMOUTH LN,,,GREEN BAY, BROWN,,WI,,54303,USA,44.52615580000001,-88.0577015,,True
OAKS FAM CARE CTR CHRISTIANA,,,DAVID WICKMAN,,,,,,,,,,,,,,,(920) 499-8641,,,,,,,,,,,,,,,,CBRF,Residential Care,"3,245/3,245",,,1643 CHRISTIANA ST,,,GREEN BAY, BROWN,,WI,,54303,USA,44.5300818,-88.06358499999999,,True
OAKS FAM CARE CTR DAMIAN HOUSE,,,LISA WANEK,,,,,,,,,,,,,,,(920) 494-3804,,,,,,,,,,,,,,,,CBRF,Residential Care,"3,387/3,387",,,1481 PLYMOUTH LANE,,,GREEN BAY, BROWN,,WI,,54303,USA,44.526184,-88.057512,,True
OAKS FAM CARE CTR OAKLAND HOUSE,,,CYNDI GARBISCH,,,,,,,,,,,,,,,(920) 432-1555,,,,,,,,,,,,,,,,CBRF,Residential Care,"3,291/3,695",,,126 N OAKLAND AVE,,,GREEN BAY, BROWN,,WI,,54303,USA,44.5185767,-88.0259313,,True
OUR PLACE,,,TANA KOSS,,,,,,,,,,,,,,,(920) 438-7146,,,,,,,,,,,,,,,,CBRF,Residential Care,"2,896/3,195",,,1501 N IRWIN ST,,,GREEN BAY, BROWN,,WI,,54302,USA,44.5219092,-87.98832259999999,,True
PATIENT PINES ASSISTED LIVING INC 1715,,,ZAMBON BARB KUSTKA NANCY,,,,,,,,,,,,,,,(920) 884-2273,,,,,,,,,,,,,,,,CBRF,Residential Care,"2,900/5,900",,,1715 WESTMINSTER DR,,,GREEN BAY, BROWN,,WI,,54302,USA,44.4822595,-87.9978254,,True
PATIENT PINES ASSISTED LIVING INC 1721,,,ZAMBON BARB KUSTKA NANCY,,,,,,,,,,,,,,,(920) 884-3263,,,,,,,,,,,,,,,,CBRF,Residential Care,"2,900/5,900",,,1721 WESTMINSTER DR,,,GREEN BAY, BROWN,,WI,,54302,USA,44.48214170000001,-87.9974759,,True
RIDGE POINTE CBRF,,,KEVIN LAPOINTE,,,,,,,,,,,,,,,(920) 884-3192,,,,,,,,,,,,,,,,CBRF,Residential Care,"5,400/6,000",,,204 S ONEIDA ST,,,GREEN BAY, BROWN,,WI,,54303,USA,44.5221767,-88.0432799,,True
SCHUMACHER HOUSE,,,SHAWN COLLARD,,,,,,,,,,,,,,,(920) 497-9110,,,,,,,,,,,,,,,,CBRF,Residential Care,"6,414/6,414",,,2831 FERNDALE DRIVE,,,GREEN BAY, BROWN,,WI,,54313,USA,44.51739329999999,-88.1112237,,True
SERVAIS POINTE CBRF,,,KEVIN LAPOINTE,,,,,,,,,,,,,,,(920) 884-2366,,,,,,,,,,,,,,,,CBRF,Residential Care,"4,700/5,400",,,1398 SERVAIS ST,,,GREEN BAY, BROWN,,WI,,54304,USA,44.5098812,-88.0640686,,True
SHERWOOD PLACE,,,JENNY MAYVILLE,,,,,,,,,,,,,,,(920) 863-3665,,,,,,,,,,,,,,,,CBRF,Residential Care,"5,845/5,845",,,4893 FINGER RD,,,GREEN BAY, BROWN,,WI,,54311,USA,44.488435,-87.836872,,True
TENDER HEARTS ASSISTED LIVING LLC BLG NO 1,,,RACHEL GOFFARD,,,,,,,,,,,,,,,(920) 366-8500,,,,,,,,,,,,,,,,CBRF,Residential Care,"4,100/4,700",,,300 CARDINAL LN,,,GREEN BAY, BROWN,,WI,,54313,USA,44.5492346,-88.084226,,True
TENDER HEARTS ASSISTED LIVING LLC BLG NO 2,,,RACHEL GOFFARD,,,,,,,,,,,,,,,(920) 366-8500,,,,,,,,,,,,,,,,CBRF,Residential Care,"4,400/4,700",,,320 CARDINAL LN,,,GREEN BAY, BROWN,,WI,,54313,USA,44.5498361,-88.0848528,,True
VERLIN ROAD,,,SHAWN COLLARD,,,,,,,,,,,,,,,(920) 465-4779,,,,,,,,,,,,,,,,CBRF,Residential Care,"5,983/6,544",,,2149 VERLIN RD,,,GREEN BAY, BROWN,,WI,,54311,USA,44.4714424,-87.9767646,,True
WOODSIDE MANOR I II III IV,,,JESSICA ATKINSON,,,,,,,,,,,,,,,(920) 499-7560,,,,,,,,,,,,,,,,CBRF,Residential Care,"2,695/5,290",,,1060 PILGRIM WAY,,,GREEN BAY, BROWN,,WI,,54304,USA,44.48566949999999,-88.0770608,,True
WYNDEMERE ASPEN HOUSE,,,EILEEN ENGLISH,,,,,,,,,,,,,,,(920) 337-9434,,,,,,,,,,,,,,,,CBRF,Residential Care,"4,212/4,600",,,3001 RIVERSIDE DR,,,GREEN BAY, BROWN,,WI,,54301,USA,44.4701442,-88.0416158,,True
WYNDEMERE BIRCH HOUSE,,,CARRIE GALLAHAN,,,,,,,,,,,,,,,(920) 337-9434,,,,,,,,,,,,,,,,CBRF,Residential Care,"4,305/4,600",,,2999 RIVERSIDE DR,,,GREEN BAY, BROWN,,WI,,54301,USA,44.4708756,-88.0417018,,True
WYNDEMERE CEDAR HOUSE,,,CARRIE GALLAHAN,,,,,,,,,,,,,,,(920) 337-9434,,,,,,,,,,,,,,,,CBRF,Residential Care,"6,109/6,109",,,2995 RIVERSIDE DR,,,GREEN BAY, BROWN,,WI,,54301,USA,44.4705233,-88.0414387,,True
NEW PERSPECTIVE-HOWARD,,,STACIE HACKL,,,,,,,,,,,,,,,(920) 489-8600,,,,,,,,,,,,,,,,CBRF,Residential Care,"336/3,800",,,2790 ELM TREE HILL,,,HOWARD, BROWN,,WI,,54313,USA,44.63371069999999,-88.1241565,,True
ANNAS HEALTHCARE INC 1,,,KIMBERLY HUJET,,,,,,,,,,,,,,,(920) 866-2903,,,,,,,,,,,,,,,,CBRF,Residential Care,"2,241/5,000",,,5449 CTH K,,,NEW FRANKEN, BROWN,,WI,,54229,USA,44.5745024,-87.8067964,,True
ANNAS HEALTHCARE INC 2,,,KIMBERLY HUJET,,,,,,,,,,,,,,,(920) 866-2903,,,,,,,,,,,,,,,,CBRF,Residential Care,"2,100/4,800",,,5449 CTY K,,,NEW FRANKEN, BROWN,,WI,,54229,USA,44.5745024,-87.8067964,,True
ANNAS HEALTHCARE INC 3,,,KIMBERLY HUJET,,,,,,,,,,,,,,,(920) 866-2338,,,,,,,,,,,,,,,,CBRF,Residential Care,"2,000/3,500",,,5453 CTY K,,,NEW FRANKEN, BROWN,,WI,,54229,USA,44.57449999999999,-87.80659109999999,,True
HIL MEADOW RIDGE,,,LISA SCHWENDEMAN,,,,,,,,,,,,,,,,,,,,,,,,,,,,,,,CBRF,Residential Care,"4,562/13,080",,,2657 SANDRA ROSE LANE,,,NEW FRANKEN, BROWN,,WI,,54229,USA,44.53984949999999,-87.8942896,,True
COUNTRY VILLA ASSISTED LIVING PULASKI,,,TINA VOSTERS,,,,,,,,,,,,,,,(920) 422-4629,,,,,,,,,,,,,,,,CBRF,Residential Care,"3,000/7,000",,,830 CREST DR,,,PULASKI, BROWN,,WI,,54162,USA,44.65711009999999,-88.2702,,True
HIL MAPLE CREST,,,PENNI OLSON,,,,,,,,,,,,,,,(920) 822-1571,,,,,,,,,,,,,,,,CBRF,Residential Care,"6,066/6,066",,,825 GOLDEN EAGLE CT,,,PULASKI, BROWN,,WI,,54162,USA,44.6632244,-88.2297033,,True
SUN VALLEY HOMES II THE PINES,,,SHANNON SCHILAWSKI,,,,,P O BOX 1662,,,,,,,,,,(920) 822-1300,,,,,,,,,,,,,,,,CBRF,Residential Care,"2,400/4,500",,,260 N ST AUGUSTINE,,,PULASKI, BROWN,,WI,,54162,USA,44.6763283,-88.2418308,,True
ALPHA SENIOR CONCEPTS SUAMICO,,,REBECCA MARKS,,,,,,,,,,,,,,,(920) 770-4601,,,,,,,,,,,,,,,,CBRF,Residential Care,"4,200/6,500",,,13320 VELP AVE,,,SUAMICO, BROWN,,WI,,54313,USA,44.6333499,-88.0528111,,True
BAY HARBOR ASSISTED LIVING SUAMICO I,,,DELORES MOYER,,,,,,,,,,,,,,,(920) 434-8650,,,,,,,,,,,,,,,,CBRF,Residential Care,"1,850/5,000",,,3136 LONGVIEW LN,,,SUAMICO, BROWN,,WI,,54173,USA,44.62818499999999,-88.02835499999999,,True
BAY HARBOR ASSISTED LIVING SUAMICO II,,,DELORES MOYER,,,,,PO BOX 190,,,,,,,,,,(920) 662-0470,,,,,,,,,,,,,,,,CBRF,Residential Care,"2,050/4,200",,,3136 LONGVIEW LN,BLDG B,,SUAMICO, BROWN,,WI,,54173,USA,44.62818499999999,-88.02835499999999,,True
MATTHEWS OF WRIGHTSTOWN,,,JENNIFER MARTELL,,,,,,,,,,,,,,,(920) 532-0375,,,,,,,,,,,,,,,,CBRF,Residential Care,"3,000/6,000",,,510 MEADOW LN,,,WRIGHTSTOWN, BROWN,,WI,,54180,USA,44.318771,-88.152827,,True
ST MICHAELS ASSISTED LIVING,,,TIFFANY OLSON,,,,,,,,,,,,,,,(608) 687-7721,,,,,,,,,,,,,,,,CBRF,Residential Care,"4,042/4,585",,,270 NORTH STREET,,,FOUNTAIN CITY, BUFFALO,,WI,,54629,USA,44.13161969999999,-91.7188303,,True
HILLVIEW SENIOR LIVING,,,KENNETH KING,,,,,,,,,,,,,,,(715) 926-4962,,,,,,,,,,,,,,,,CBRF,Residential Care,"2,563/3,500",,,210 MEMORIAL DRIVE,,,MONDOVI, BUFFALO,,WI,,54755,USA,44.56826,-91.6615489,,True
SHADY KNOLL HOME,,,GREGORY PEER,,,,,P O BOX 468,,,,,,,,,,(715) 463-5425,,,,,,,,,,,,,,,,CBRF,Residential Care,"2,025/2,609",,,240 W BROADWAY AVE,,,GRANTSBURG, BURNETT,,WI,,54840,USA,45.7777492,-92.686326,,True
COUNTRYSIDE ACRES ASSISTED LIVING LLC,,,THERESA ROSSOW,,,,,,,,,,,,,,,(715) 866-4411,,,,,,,,,,,,,,,,CBRF,Residential Care,"1,500/8,000",,,5788 COUNTY ROAD C,,,WEBSTER, BURNETT,,WI,,54893,USA,45.9524249,-92.2833447,,True
ACS CLINICAL SERVICES LLC APPLETON,,,PREGNANT WOMEN/COUNSELLING,,,,,,,,,,,,,,,(920) 364-9335,,,,,,,,,,,,,,,,CBRF,Residential Care,"3,500/3,500",,,2 BRIGHTON CIRCLE,,,APPLETON, CALUMET,,WI,,54915,USA,44.2435672,-88.36568299999999,,True
DARBOY ASSISTED LIVING,,,BRIGHT AMUDOAGHAN,,,,,,,,,,,,,,,(920) 832-9290,,,,,,,,,,,,,,,,CBRF,Residential Care,"4,000/5,000",,,N9520 SILVER CT,,,APPLETON, CALUMET,,WI,,54915,USA,44.2364845,-88.3284142,,False
BRILLION WEST HAVEN,,,ANN STRAH,,,,,,,,,,,,,,,(920) 756-9100,,,,,,,,,,,,,,,,CBRF,Residential Care,"3,150/4,635",,,220 ACHIEVEMENT DR,,,BRILLION, CALUMET,,WI,,54110,USA,44.188374,-88.08836699999999,,True
GARROW VILLA,,,APRIL SCHRUBBE,,,,,,,,,,,,,,,(920) 756-3389,,,,,,,,,,,,,,,,CBRF,Residential Care,"3,079/4,994",,,210 S DR,,,BRILLION, CALUMET,,WI,,54110,USA,44.1760242,-88.05854719999999,,True
ROADS TO FREEDOM BRILLION,,,GREG LOGEMANN,,,,,PO BOX 189,,,,,,,,,,(920) 756-2703,,,,,,,,,,,,,,,,CBRF,Residential Care,"4,503/4,503",,,610 S MAIN ST,,,BRILLION, CALUMET,,WI,,54110,USA,44.16812160000001,-88.06384419999999,,True
CENTURY RIDGE CHILTON INC,,,DONNA KLOEHN,,,,,,,,,,,,,,,(920) 849-8529,,,,,,,,,,,,,,,,CBRF,Residential Care,"3,150/3,500",,,531 E CALUMET ST,,,CHILTON, CALUMET,,WI,,53014,USA,44.02156,-88.148484,,True
CENTURY RIDGE INC,,,MARJORIE HARDRATH,,,,,,,,,,,,,,,(920) 849-2640,,,,,,,,,,,,,,,,CBRF,Residential Care,"3,250/3,450",,,535 E CALUMET ST,,,CHILTON, CALUMET,,WI,,53014,USA,44.0217559,-88.14840889999999,,True
CENTURY RIDGE INC,,,KIM SCHNELL,,,,,,,,,,,,,,,(920) 849-2640,,,,,,,,,,,,,,,,CBRF,Residential Care,"2,267/3,350",,,533 E CALUMET ST,,,CHILTON, CALUMET,,WI,,53014,USA,44.0217557,-88.1484474,,True
FIELDLANE,,,HEIDI HIETPAS,,,,,,,,,,,,,,,,,,,,,,,,,,,,,,,CBRF,Residential Care,,,,335 FIELDLANE,,,CHILTON, CALUMET,,WI,,53014,USA,44.0320229,-88.14326890000001,,True
LIBBYS HOUSE OF CHILTON,,,STEPHANY GRENZER,,,,,,,,,,,,,,,(920) 849-4657,,,,,,,,,,,,,,,,CBRF,Residential Care,"4,500/7,000",,,323 FIELD LN,,,CHILTON, CALUMET,,WI,,53014,USA,44.0320229,-88.14326890000001,,True
OAK CREEK ASSISTED LIVING - KIEL,,,PAM ROSSANO,,,,,,,,,,,,,,,(920) 894-3222,,,,,,,,,,,,,,,,CBRF,Residential Care,"3,200/4,400",,,1237 TEKLA PL,,,KIEL, CALUMET,,WI,,53042,USA,43.9240125,-88.0501283,,True
GARDENS OF FOUNTAIN WAY (THE),,,KRIS GEHRT,,,,,,,,,,,,,,,(920) 993-9980,,,,,,,,,,,,,,,,CBRF,Residential Care,"2,700/4,300",,,1050 FOUNTAIN WAY,,,MENASHA, CALUMET,,WI,,54952,USA,44.2125454,-88.366823,,True
OAK PARK PLACE OF MENASHA,,,KARA LUDLUM,,,,,,,,,,,,,,,(920) 702-0000,,,,,,,,,,,,,,,,CBRF,Residential Care,"4,475/6,725",,,2205 MIDWAY ROAD,,,MENASHA, CALUMET,,WI,,54952,USA,44.2259199,-88.39287589999999,,True
CARING HANDS ASSISTED LIVING,,,JEANNE KLEIN,,,,,,,,,,,,,,,(920) 827-2525,,,,,,,,,,,,,,,,CBRF,Residential Care,"3,500/4,800",,,2514 WISCONSIN AVE,,,NEW HOLSTEIN, CALUMET,,WI,,53061,USA,43.9497192,-88.10401829999999,,True
WILLOWPARK PLACE,,,CASSANDRA LIPINSKI,,,,,,,,,,,,,,,(920) 898-5553,,,,,,,,,,,,,,,,CBRF,Residential Care,"2,523/5,851",,,1706 HOOVER ST,,,NEW HOLSTEIN, CALUMET,,WI,,53061,USA,43.9443011,-88.0807415,,True
AGGIES COUNTRY LIVING LLC,,,SHEENA FRANSWAY,,,,,,,,,,,,,,,(715) 559-3625,,,,,,,,,,,,,,,,CBRF,Residential Care,"3,800/6,700",,,14135 150TH AVENUE,,,BLOOMER, CHIPPEWA,,WI,,54724,USA,45.059979,-91.386218,,True
ATRIUM SENIOR LIVING OF BLOOMER CBRF,,,CRYSTAL A FRAZER,,,,,,,,,,,,,,,(715) 568-2503,,,,,,,,,,,,,,,,CBRF,Residential Care,"2,970/4,470",,,1900 PRIDDY ST,,,BLOOMER, CHIPPEWA,,WI,,54724,USA,45.09677799999999,-91.49277599999999,,True
CARE PARTNERS ASSISTED LIVING BLOOMER II,,,TRACY MARQUARDT,,,,,P O BOX 3006,,,,,,,,,,(715) 568-4009,,,,,,,,,,,,,,,,CBRF,Residential Care,"3,200/4,000",,,406 B PRIDDY STREET,,,BLOOMER, CHIPPEWA,,WI,,54724,USA,45.111275,-91.492864,,True
COUNTRY TERRACE - BLOOMER,,,TRACY MARQUARDT,,,,,P O BOX 3006,,,,,,,,,,(715) 568-4009,,,,,,,,,,,,,,,,CBRF,Residential Care,"2,702/3,952",,,406 PRIDDY ST,,,BLOOMER, CHIPPEWA,,WI,,54724,USA,45.111275,-91.492864,,True
BROTOLOC NORTH NEW HOPE II,,,LINDSAY FARRELL GOVEK,,,,,,,,,,,,,,,(715) 720-1551,,,,,,,,,,,,,,,,CBRF,Residential Care,"5,130/5,301",,,133 W ELM STREET,,,CHIPPEWA FALLS, CHIPPEWA,,WI,,54729,USA,44.940342,-91.40033550000001,,True
CHIPPEWA FALLS ASSISTED CARE,,,AMANDA HANSON,,,,,,,,,,,,,,,(715) 723-6840,,,,,,,,,,,,,,,,CBRF,Residential Care,"3,475/3,575",,,115 MARRS ST,,,CHIPPEWA FALLS, CHIPPEWA,,WI,,54729,USA,44.942198,-91.37646199999999,,True
CHIPPEWA FALLS MEMORY CARE,,,KARRI WOLD,,,,,,,,,,,,,,,(715) 723-6037,,,,,,,,,,,,,,,,CBRF,Residential Care,"3,905/4,005",,,105 MARRS ST,,,CHIPPEWA FALLS, CHIPPEWA,,WI,,54729,USA,44.9417541,-91.3766938,,True
CHIPPEWA VALLEY GROUP HOME,,,HAILEY SLOWIAK,,,,,,,,,,,,,,,(715) 726-1820,,,,,,,,,,,,,,,,CBRF,Residential Care,53/122,,,1022 1ST AVE,,,CHIPPEWA FALLS, CHIPPEWA,,WI,,54729,USA,44.952011,-91.38268400000001,,True
LAKE HALLIE MEMORY CARE,,,BRIAN GOEMAN,,,,,,,,,,,,,,,(715) 738-0011,,,,,,,,,,,,,,,,CBRF,Residential Care,"4,400/13,500",,,4407 124TH STREET,,,CHIPPEWA FALLS, CHIPPEWA,,WI,,54729,USA,44.93889129999999,-91.4215809,,True
LINDEN HOUSE,,,KELLY HAYES,,,,,,,,,,,,,,,(715) 861-3516,,,,,,,,,,,,,,,,CBRF,Residential Care,,,,603 BAY STREET,,,CHIPPEWA FALLS, CHIPPEWA,,WI,,54729,USA,44.9385692,-91.39696959999999,,True
NEW HOPE HALLIE INC,,,KAREN BLACK,,,,,,,,,,,,,,,(715) 720-7360,,,,,,,,,,,,,,,,CBRF,Residential Care,"3,900/3,900",,,10875 40TH AVENUE,,,CHIPPEWA FALLS, CHIPPEWA,,WI,,54729,USA,44.900351,-91.45142799999999,,True
ROTH HOME SUITE HOME,,,STEVE ROTH,,,,,,,,,,,,,,,(715) 726-1113,,,,,,,,,,,,,,,,CBRF,Residential Care,"2,500/4,200",,,13362 - 98TH AVE,,,CHIPPEWA FALLS, CHIPPEWA,,WI,,54729,USA,44.98492629999999,-91.4012197,,True
RUTLEDGE HOME,,,ASHLEY LEICK,,,,,,,,,,,,,,,(715) 723-5566,,,,,,,,,,,,,,,,CBRF,Residential Care,"3,000/4,750",,,300 BRIDGEWATER AVE,,,CHIPPEWA FALLS, CHIPPEWA,,WI,,54729,USA,44.9456676,-91.404922,,True
SERVING HANDS INC AT EVERGREEN,,,PATRICK WESTERHAM,,,,,PO BOX 2089,,,,,,,,,,(715) 720-7927,,,,,,,,,,,,,,,,CBRF,Residential Care,"4,500/9,900",,,1126/1128 EVERGREEN LANE,,,CHIPPEWA FALLS, CHIPPEWA,,WI,,54729,USA,44.954078,-91.381547,,True
SERVING HANDS SELAH,,,PATRICK WESTERHAM,,,,,PO BOX 2089,,,,,,,,,,(715) 861-7772,,,,,,,,,,,,,,,,CBRF,Residential Care,"3,000/10,000",,,421 FRENETTE DRIVE,,,CHIPPEWA FALLS, CHIPPEWA,,WI,,54729,USA,44.9133633,-91.3966524,,True
BURPO CBRF,,,RITA BURPO,,,,,,,,,,,,,,,(715) 595-4644,,,,,,,,,,,,,,,,CBRF,Residential Care,"1,402/1,402",,,26101 275TH ST,,,HOLCOMBE, CHIPPEWA,,WI,,54745,USA,45.22192099999999,-91.1172799,,True
COUNTRY TERRACE STANLEY,,,AMY ZASTROW,,,,,P O BOX 3006,,,,,,,,,,(715) 644-3444,,,,,,,,,,,,,,,,CBRF,Residential Care,"3,400/4,200",,,804 PINE ST,,,STANLEY, CHIPPEWA,,WI,,54768,USA,44.9552904,-90.9239776,,True
HAVEN OF STANLEY (THE),,,JUDY HULS,,,,,,,,,,,,,,,(715) 644-2136,,,,,,,,,,,,,,,,CBRF,Residential Care,"4,550/4,700",,,225 E 4TH AVE,,,STANLEY, CHIPPEWA,,WI,,54768,USA,44.9624384,-90.9348605,,True
COUNTRY TERRACE ABBOTSFORD,,,SHELLY BENDER,,,,,P O BOX 3006,,,,,,,,,,(715) 223-2182,,,,,,,,,,,,,,,,CBRF,Residential Care,"3,000/4,500",,,100 S 4TH AVE,,,ABBOTSFORD, CLARK,,WI,,54405,USA,44.9456785,-90.316173,,True
HOMEPLACE OF DORCHESTER LLC CBRF,,,WILLIAM RURUP,,,,,,,,,,,,,,,(715) 654-6009,,,,,,,,,,,,,,,,CBRF,Residential Care,"3,850/4,550",,,155 N 3RD ST,,,DORCHESTER, CLARK,,WI,,54425,USA,45.003685,-90.33408730000001,,True
AURORA RES ALT CENTURY HOUSE  051,,,SUE HERTZ,,,,,P O BOX 68,,,,,,,,,,(715) 267-6607,,,,,,,,,,,,,,,,CBRF,Residential Care,"3,683/8,699",,,W5574 CENTURY ROAD,,,GREENWOOD, CLARK,,WI,,54437,USA,44.7850583,-90.6556087,,False
PABICHS RESIDENTIAL FACILITY INC,,,ROBERTA PABICH,,,,,,,,,,,,,,,(715) 267-7410,,,,,,,,,,,,,,,,CBRF,Residential Care,"2,267/8,000",,,311 W HUNT ST,,,GREENWOOD, CLARK,,WI,,54437,USA,44.7715517,-90.6015737,,True
MEMORIAL MEDICAL CENTER SUNSET GARDENS,,,RYAN NEVILLE,,,,,,,,,,,,,,,(715) 743-3101,,,,,,,,,,,,,,,,CBRF,Residential Care,"2,250/3,000",,,216 SUNSET PLACE,,,NEILLSVILLE, CLARK,,WI,,54456,USA,44.5573869,-90.607114,,True
RIVERSIDE ASSISTED LIVING,,,KATI CHADWICK,,,,,,,,,,,,,,,(715) 743-2828,,,,,,,,,,,,,,,,CBRF,Residential Care,"3,000/9,000",,,1214 W 4TH ST,,,NEILLSVILLE, CLARK,,WI,,54456,USA,44.5589745,-90.609934,,True
WOODLAND CARE CBRF,,,JANE SCHMITZ,,,,,,,,,,,,,,,(715) 229-2172,,,,,,,,,,,,,,,,CBRF,Residential Care,"6,200/9,300",,,W4266 COUNTY HIGHWAY X,,,OWEN, CLARK,,WI,,54460,USA,44.945083,-90.52421799999999,,False
MILLER ALTERNATIVE CARE OF THORP LLC,,,KATHY MILLER,,,,,,,,,,,,,,,(715) 669-7670,,,,,,,,,,,,,,,,CBRF,Residential Care,"3,500/4,650",,,104 SODERBERG DR,,,THORP, CLARK,,WI,,54771,USA,44.9605366,-90.8121408,,True
AT HOME AGAIN COLUMBUS LLC,,,MELISSA OCONNOR,,,,,,,,,,,,,,,(920) 623-9833,,,,,,,,,,,,,,,,CBRF,Residential Care,"2,700/6,000",,,110 STUART ST,,,COLUMBUS, COLUMBIA,,WI,,53925,USA,43.3294378,-89.0262365,,True
AT HOME AGAIN COLUMBUS MEMORY CARE,,,MELISSA OCONNOR,,,,,,,,,,,,,,,(920) 623-9833,,,,,,,,,,,,,,,,CBRF,Residential Care,,,,110 STUART STREET,,,COLUMBUS, COLUMBIA,,WI,,53590,USA,43.3294378,-89.0262365,,True
LARSON HOUSE,,,TINA JONES,,,,,,,,,,,,,,,(920) 623-5810,,,,,,,,,,,,,,,,CBRF,Residential Care,"3,000/4,450",,,550 RIVER RD,,,COLUMBUS, COLUMBIA,,WI,,53925,USA,43.3281208,-89.0101629,,True
MEADOWS OF FALL RIVER CBRF (THE),,,MARILYN GREEN,,,,,,,,,,,,,,,(920) 484-6171,,,,,,,,,,,,,,,,CBRF,Residential Care,"3,000/5,500",,,101 HOMETOWN AVE,,,FALL RIVER, COLUMBIA,,WI,,53932,USA,43.3952079,-89.0331316,,True
HAVEN HILLS,,,MAGGIE ROBERTS,,,,,,,,,,,,,,,(608) 592-0394,,,,,,,,,,,,,,,,CBRF,Residential Care,"3,500/7,000",,,215 DALE DRIVE,,,LODI, COLUMBIA,,WI,,53555,USA,43.3105783,-89.54682129999999,,True
LODI ASSISTED CARE,,,JAN KLEIST,,,,,,,,,,,,,,,(608) 592-7433,,,,,,,,,,,,,,,,CBRF,Residential Care,"2,975/3,225",,,121 SECOND STREET,,,LODI, COLUMBIA,,WI,,53555,USA,43.3149336,-89.5282026,,True
CBL INC DBA THE REMINGTON HOUSE,,,JEAN KOCH,,,,,,,,,,,,,,,(608) 429-4443,,,,,,,,,,,,,,,,CBRF,Residential Care,"3,080/3,410",,,113 INDUSTRIAL DR,,,PARDEEVILLE, COLUMBIA,,WI,,53954,USA,43.527129,-89.30644989999999,,True
AMERICANWAY OF PORTAGE DEMENTIA SPECIALTY I,,,JOE MONROE,,,,,,,,,,,,,,,(608) 566-1505,,,,,,,,,,,,,,,,CBRF,Residential Care,"3,500/4,500",,,611 E ALBERT ST,,,PORTAGE, COLUMBIA,,WI,,53901,USA,43.5494879,-89.45397899999999,,True
AMERICANWAY OF PORTAGE DEMENTIA SPECIALTY II,,,STEPHANIE COOK,,,,,,,,,,,,,,,(608) 566-1500,,,,,,,,,,,,,,,,CBRF,Residential Care,"3,500/4,500",,,613 EAST ALBERT ST,,,PORTAGE, COLUMBIA,,WI,,53901,USA,43.54908,-89.4539305,,True
AMERICANWAY OF PORTAGE I,,,JANIS DEETS NOWAK,,,,,,,,,,,,,,,(608) 742-0366,,,,,,,,,,,,,,,,CBRF,Residential Care,"2,900/3,750",,,601 LATTON LANE,,,PORTAGE, COLUMBIA,,WI,,53901,USA,43.5591866,-89.479129,,True
AMERICANWAY OF PORTAGE II,,,JANIS DEETS NOWAK,,,,,,,,,,,,,,,(608) 742-0366,,,,,,,,,,,,,,,,CBRF,Residential Care,"2,600/3,700",,,621 LATTON LA,,,PORTAGE, COLUMBIA,,WI,,53901,USA,43.55948259999999,-89.4795647,,True
HAMILTON PARK PLACE,,,GRETCHEN LAMBERT,,,,,,,,,,,,,,,(608) 742-7888,,,,,,,,,,,,,,,,CBRF,Residential Care,"3,495/5,300",,,2525 HAMILTON STREET,,,PORTAGE, COLUMBIA,,WI,,53901,USA,43.5602025,-89.454631,,True
LAKE PLACE GROUP HOME,,,JULIE BRIGGS,,,,,,,,,,,,,,,(608) 742-4746,,,,,,,,,,,,,,,,CBRF,Residential Care,"2,112/2,112",,,105 LAKE RD,,,PORTAGE, COLUMBIA,,WI,,53901,USA,43.5543175,-89.47960470000001,,True
PORTAGE ASSISTED CARE,,,DAWN KOEPPEL,,,,,,,,,,,,,,,(608) 742-4626,,,,,,,,,,,,,,,,CBRF,Residential Care,"3,350/3,850",,,2876 VILLAGE RD,,,PORTAGE, COLUMBIA,,WI,,53901,USA,43.5673073,-89.4731262,,True
TIVOLI AT DIVINE SAVIOR HEALTHCARE,,,JENNIFER BIENO,,,,,,,,,,,,,,,(608) 742-4131,,,,,,,,,,,,,,,,CBRF,Residential Care,"3,950/5,300",,,2805 HUNTERS TRAIL,,,PORTAGE, COLUMBIA,,WI,,53901,USA,43.5674004,-89.4637094,,True
OHANA HOUSE (THE),,,ANTOINETTE KENDRICKS,,,,,,,,,,,,,,,(608) 635-4183,,,,,,,,,,,,,,,,CBRF,Residential Care,,,,208 W NORTH STREET,,,POYNETTE, COLUMBIA,,WI,,53955,USA,43.3952273,-89.4044285,,True
ROWAN TRAIL,,,JULIE BRIGGS,,,,,,,,,,,,,,,(608) 635-2887,,,,,,,,,,,,,,,,CBRF,Residential Care,"3,371/7,000",,,237 W SEWARD STREET,,,POYNETTE, COLUMBIA,,WI,,53955,USA,43.39129729999999,-89.405397,,True
AT HOME AGAIN RIO,,,ALEXANDRA HASSELBERGER,,,,,,,,,,,,,,,(920) 992-6430,,,,,,,,,,,,,,,,CBRF,Residential Care,"2,700/4,500",,,405 LOWVILLE RD,,,RIO, COLUMBIA,,WI,,53960,USA,43.4455733,-89.2447534,,True
WISCONSIN DELLS ASSISTED CARE,,,LEAH MISKE,,,,,,,,,,,,,,,(608) 253-3404,,,,,,,,,,,,,,,,CBRF,Residential Care,"3,200/3,250",,,1954 STATE RD,23,,WISCONSIN DELLS, COLUMBIA,,WI,,53965,USA,43.6323015,-89.74249999999999,,True
WISCONSIN DELLS MEMORY CARE,,,LEAH MISKE,,,,,,,,,,,,,,,(608) 253-7901,,,,,,,,,,,,,,,,CBRF,Residential Care,"3,400/3,450",,,1950 STATE ROAD,23,,WISCONSIN DELLS, COLUMBIA,,WI,,53965,USA,43.631117,-89.7440603,,True
BLUFF HAVEN ASSISTED LIVING,,,ALESHA ERDENBERGER,,,,,,,,,,,,,,,(608) 326-8472,,,,,,,,,,,,,,,,CBRF,Residential Care,"3,080/4,215",,,720 S FREMONT ST,,,PRAIRIE DU CHIEN, CRAWFORD,,WI,,53821,USA,43.0446366,-91.13107509999999,,True
CROSSING RIVERS HEALTH ASSISTED LIVING,,,AMANDA SCHULTZ,,,,,,,,,,,,,,,(608) 357-2170,,,,,,,,,,,,,,,,CBRF,Residential Care,"2,680/3,495",,,424 N BEAUMONT RD,,,PRAIRIE DU CHIEN, CRAWFORD,,WI,,53821,USA,43.0574401,-91.1462573,Northside,True
KNAPP HOME CASS STREET,,,DAMON FREI,,,,,,,,,,,,,,,(608) 326-2843,,,,,,,,,,,,,,,,CBRF,Residential Care,"3,320/5,906",,,216 W CASS ST,,,PRAIRIE DU CHIEN, CRAWFORD,,WI,,53821,USA,43.0474285,-91.1486434,,True
HOMETOWN ASSISTED LIVING INC,,,LISA KLEIN,,,,,,,,,,,,,,,(608) 424-0174,,,,,,,,,,,,,,,,CBRF,Residential Care,"3,350/4,400",,,2 HERITAGE LANE,,,BELLEVILLE, DANE,,WI,,53508,USA,42.87389059999999,-89.5338069,,True
CAMBRIDGE ASSISTED CARE,,,EMILY MILLER,,,,,,,,,,,,,,,(608) 423-9961,,,,,,,,,,,,,,,,CBRF,Residential Care,"3,260/3,360",,,201 W MADISON ST,,,CAMBRIDGE, DANE,,WI,,53523,USA,43.00395410000001,-89.0262647,,True
HOME AGAIN ASSISTED LIVING INC,,,MELISSA OCONNOR,,,,,,,,,,,,,,,(608) 423-9333,,,,,,,,,,,,,,,,CBRF,Residential Care,"2,500/6,000",,,308 ENGLAND STREET,,,CAMBRIDGE, DANE,,WI,,53523,USA,43.0059602,-89.01986629999999,,True
ASTER MEMORY CARE OF COTTAGE GROVE,,,AMANDA VERHAGE,,,,,,,,,,,,,,,(608) 839-4254,,,,,,,,,,,,,,,,CBRF,Residential Care,"4,980/6,930",,,111 E REYNOLDS ST,,,COTTAGE GROVE, DANE,,WI,,53527,USA,43.07516040000001,-89.19769959999999,,True
KINDREDHEARTS OF COTTAGE GROVE,,,MICHELLE LEWIS,,,,,,,,,,,,,,,(608) 839-1555,,,,,,,,,,,,,,,,CBRF,Residential Care,"3,828/5,759",,,325 W COTTAGE GROVE RD,,,COTTAGE GROVE, DANE,,WI,,53527,USA,43.086917,-89.207038,,True
KINDREDHEARTS OF COTTAGE GROVE,,,MICHELLE LEWIS,,,,,,,,,,,,,,,(608) 839-5343,,,,,,,,,,,,,,,,CBRF,Residential Care,"3,482/3,750",,,505 W LAWN DR,,,COTTAGE GROVE, DANE,,WI,,53527,USA,43.0869831,-89.2063759,,True
GIRLIES MANOR III,,,LANCE / DOUG STEIN / GREGORY,,,,,,,,,,,,,,,(608) 798-1086,,,,,,,,,,,,,,,,CBRF,Residential Care,"3,900/5,500",,,2620 MILITARY RD,,,CROSS PLAINS, DANE,,WI,,53528,USA,43.1127517,-89.638699,,True
MILESTONE SENIOR LIVING,,,JULIE HEIL,,,,,,,,,,,,,,,(608) 413-0453,,,,,,,,,,,,,,,,CBRF,Residential Care,"4,500/5,000",,,1870 MARKET STREET,,,CROSS PLAINS, DANE,,WI,,53528,USA,43.1125206,-89.6602382,,True
DEERFIELD PLACE ASSISTED LIVING,,,NIKOL GEROU,,,,,,,,,,,,,,,(608) 764-3142,,,,,,,,,,,,,,,,CBRF,Residential Care,"3,500/4,200",,,15 STATE STREET,,,DEERFIELD, DANE,,WI,,53531,USA,43.0503582,-89.0778618,,True
ARTISAN DEFOREST (THE),,,KIMBERLY KRUEGER,,,,,,,,,,,,,,,(608) 846-6999,,,,,,,,,,,,,,,,CBRF,Residential Care,"2,900/4,600",,,206 N MAIN ST,,,DEFOREST, DANE,,WI,,53532,USA,43.2484833,-89.34437419999999,DeForest,True
KEYES HOUSE,,,RUTH POLACEK,,,,,PO BOX 46010,,,,,,,,,,(608) 347-0366,,,,,,,,,,,,,,,,CBRF,Residential Care,"3,800/10,000",,,4141 SAVANNAH DRIVE,,,DEFOREST, DANE,,WI,,53532,USA,43.1919847,-89.3201062,DeForest,True
RAYMOND HOUSE (THE),,,RUTH POLACEK,,,,,PO BOX 46010,,,,,,,,,,(608) 842-0406,,,,,,,,,,,,,,,,CBRF,Residential Care,"3,800/6,500",,,825 SOUTHBOUND DR,,,DEFOREST, DANE,,WI,,53532,USA,43.23644669999999,-89.3376705,DeForest,True
SERENITY HOMES I,,,TINA SPAHN,,,,,,,,,,,,,,,(608) 846-8610,,,,,,,,,,,,,,,,CBRF,Residential Care,"3,200/4,900",,,504 BASSETT ST,,,DEFOREST, DANE,,WI,,53532,USA,43.2528386,-89.3362964,DeForest,True
SERENITY HOMES II,,,TINA SPAHN,,,,,,,,,,,,,,,(608) 846-8610,,,,,,,,,,,,,,,,CBRF,Residential Care,"3,200/4,900",,,506 BASSETT ST,,,DEFOREST, DANE,,WI,,53532,USA,43.2528449,-89.3362964,DeForest,True
TENDER REFLECTIONS OF DEFOREST,,,DEANN NEITZEL,,,,,,,,,,,,,,,(608) 842-2693,,,,,,,,,,,,,,,,CBRF,Residential Care,"3,100/7,500",,,4897 INNOVATION DR,,,DEFOREST, DANE,,WI,,53532,USA,43.2224775,-89.355939,DeForest,True
YOUNG HOUSE,,,RUTH POLACEK,,,,,PO BOX 46010,,,,,,,,,,(608) 347-0366,,,,,,,,,,,,,,,,CBRF,Residential Care,"3,800/10,000",,,4141 SAVANNAH DRIVE,,,DEFOREST, DANE,,WI,,53532,USA,43.1919847,-89.3201062,DeForest,True
SYLVAN CROSSINGS AT CHAPEL VALLEY,,,SUMANDEEP THIND,,,,,,,,,,,,,,,(608) 277-7586,,,,,,,,,,,,,,,,CBRF,Residential Care,"3,980/5,000",,,5765 CHAPEL VALLEY RD,,,FITCHBURG, DANE,,WI,,53711,USA,43.01453089999999,-89.43374100000001,,True
SYLVAN CROSSINGS OF FITCHBURG,,,CASSI WIESER,,,,,,,,,,,,,,,(608) 274-1113,,,,,,,,,,,,,,,,CBRF,Residential Care,"5,360/6,230",,,5784 CHAPEL VALLEY RD,,,FITCHBURG, DANE,,WI,,53711,USA,43.0136311,-89.4362029,,True
ALL SAINTS ASSISTED LIVING AND MEMORY CARE,,,JESSICA SAALSAA,,,,,,,,,,,,,,,(608) 827-2990,,,,,,,,,,,,,,,,CBRF,Residential Care,"6,150/6,450",,,8210 HIGHVIEW DRIVE,,,MADISON, DANE,,WI,,53719,USA,43.053887,-89.5249164,,True
ALL SAINTS ASSISTED LIVING CENTER INC,,,HEIDI STRINGHAM,,,,,,,,,,,,,,,(608) 827-2990,,,,,,,,,,,,,,,,CBRF,Residential Care,"5,460/6,060",,,519 COMMERCE DR,,,MADISON, DANE,,WI,,53719,USA,43.0541416,-89.52173560000001,,True
ARC DAYTON ST,,,JAN BATTLE,,,,,,,,,,,,,,,(608) 241-7616,,,,,,,,,,,,,,,,CBRF,Residential Care,"2,626/3,776",,,2009 E DAYTON ST,,,MADISON, DANE,,WI,,53704,USA,43.0951197,-89.3589865,Emerson East,True
ARC HOUSE,,,CELESTA  J MILLER,,,,,,,,,,,,,,,(608) 283-6430,,,,,,,,,,,,,,,,CBRF,Residential Care,"3,193/3,193",,,202 N PATERSON ST,,,MADISON, DANE,,WI,,53703,USA,43.0838255,-89.3757249,Tenney-Lapham,True
ARC MATERNAL & INFANT PROGRAM,,,LINDA VAN TOL,,,,,,,,,,,,,,,(608) 223-9033,,,,,,,,,,,,,,,,CBRF,Residential Care,"3,650/4,856",,,4202 MONONA DR,,,MADISON, DANE,,WI,,53716,USA,43.075353,-89.325271,,True
ASHWABAY HOUSE (THE),,,RUTH POLACEK,,,,,PO BOX 46010,,,,,,,,,,(608) 276-5883,,,,,,,,,,,,,,,,CBRF,Residential Care,"3,500/10,000",,,7310 ASHWABAY LANE,,,MADISON, DANE,,WI,,53719,USA,43.046038,-89.510121,,True
ATTIC CORRECTIONAL TREATMENT CENTER,,,VICKI TREBIAN,,,,,PO BOX 7370,,,,,,,,,,(608) 244-1891,,,,,,,,,,,,,,,,CBRF,Residential Care,"2,280/2,280",,,4117 DWIGHT DR,,,MADISON, DANE,,WI,,53704,USA,43.12567980000001,-89.31378889999999,Norman Acres,True
AVALON ASSISTED LIVING COMMUNITY 500,,,CHERI RIDDLE,,,,,,,,,,,,,,,(608) 270-6095,,,,,,,,,,,,,,,,CBRF,Residential Care,"2,795/4,495",,,2879 FISH HATCHERY RD,,,MADISON, DANE,,WI,,53713,USA,43.029047,-89.41055899999999,,True
AVALON ASSISTED LIVING COMMUNITY 600,,,CHERI RIDDLE,,,,,,,,,,,,,,,(608) 270-6091,,,,,,,,,,,,,,,,CBRF,Residential Care,"2,595/4,495",,,2879 FISH HATCHERY RD,,,MADISON, DANE,,WI,,53713,USA,43.029047,-89.41055899999999,,True
AVALON ASSISTED LIVING COMMUNITY 700,,,CHERI RIDDLE,,,,,,,,,,,,,,,(608) 274-4350,,,,,,,,,,,,,,,,CBRF,Residential Care,"2,595/4,495",,,2879 FISH HATCHERY RD,,,MADISON, DANE,,WI,,53713,USA,43.029047,-89.41055899999999,,True
BAYSIDE CARE CENTER,,,HANNAH FLANAGAN,,,,,,,,,,,,,,,(608) 280-2700,,,,,,,,,,,,,,,,CBRF,Residential Care,"9,240/13,500",,,702 W MAIN ST,,,MADISON, DANE,,WI,,53703,USA,43.06619800000001,-89.394277,,True
BRIGHTER LIFE LIVING,,,JASON STANDISH,,,,,,,,,,,,,,,(608) 712-4962,,,,,,,,,,,,,,,,CBRF,Residential Care,"2,800/5,000",,,901 PFLAUM RD,,,MADISON, DANE,,WI,,53716,USA,43.0619412,-89.3160839,,True
BRIGHTSTAR SENIOR LIVING,,,BONNIE BANKER,,,,,,,,,,,,,,,(608) 620-7900,,,,,,,,,,,,,,,,CBRF,Residential Care,"4,900/9,750",,,6550 SCHROEDER RD,,,MADISON, DANE,,WI,,53711,USA,43.046648,-89.496004,,True
BROOKDALE MADISON NORTH,,,SIRA NSIBIRWA,,,,,,,,,,,,,,,(608) 249-5558,,,,,,,,,,,,,,,,CBRF,Residential Care,"1,995/3,295",,,1601 WHEELER RD,,,MADISON, DANE,,WI,,53704,USA,43.1468979,-89.36737529999999,Sherman Village,True
BROOKDALE MADISON WEST AL,,,RYAN WALSH,,,,,,,,,,,,,,,(608) 227-1010,,,,,,,,,,,,,,,,CBRF,Residential Care,"3,660/5,050",,,429 S YELLOWSTONE DR,,,MADISON, DANE,,WI,,53719,USA,43.058732,-89.49103099999999,,True
BROOKDALE MADISON WEST AL/MC,,,RYAN WALSH,,,,,,,,,,,,,,,(608) 277-1010,,,,,,,,,,,,,,,,CBRF,Residential Care,"5,190/6,896",,,413 S YELLOWSTONE DR,,,MADISON, DANE,,WI,,53719,USA,43.0593871,-89.4908131,,True
CAPITOL LAKES TERRACES,,,PATRICK SENZIG,,,,,,,,,,,,,,,(608) 283-2083,,,,,,,,,,,,,,,,CBRF,Residential Care,"6,255/7,736",,,345 W MAIN ST,,,MADISON, DANE,,WI,,53703,USA,43.07035629999999,-89.3869734,,True
CHAMOMILE ASSISTED LIVING LTD,,,JEFF SHIELDS,,,,,,,,,,,,,,,(608) 241-3431,,,,,,,,,,,,,,,,CBRF,Residential Care,"2,700/3,801",,,22 MILO LANE,,,MADISON, DANE,,WI,,53714,USA,43.0999775,-89.3053874,,True
CHAMOMILE ASSISTED LIVING LTD II,,,JEFF SHIELDS,,,,,,,,,,,,,,,(608) 819-0221,,,,,,,,,,,,,,,,CBRF,Residential Care,"3,000/3,800",,,842 JUPITER DR,,,MADISON, DANE,,WI,,53718,USA,43.0850824,-89.2810745,,True
COVENANT OAKS,,,KIMBERLY BLUM,,,,,,,,,,,,,,,(608) 230-4311,,,,,,,,,,,,,,,,CBRF,Residential Care,"7,530/8,040",,,6165 MINERAL POINT RD,,,MADISON, DANE,,WI,,53705,USA,43.0607565,-89.4861294,,True
FOSTER COMMUNITY CORRECTIONS CENTER,,,VICKI TREBIAN,,,,,PO BOX 7370,,,,,,,,,,(608) 273-3055,,,,,,,,,,,,,,,,CBRF,Residential Care,"2,160/2,160",,,5706 ODANA RD,,,MADISON, DANE,,WI,,53719,USA,43.052209,-89.47934110000001,,True
GOODWILL JAMESTOWN GROUP HOME,,,ELENA GOLDEN,,,,,,,,,,,,,,,(608) 271-1036,,,,,,,,,,,,,,,,CBRF,Residential Care,"3,621/3,621",,,5815 WILLIAMSBURG WAY,,,MADISON, DANE,,WI,,53719,USA,43.0235006,-89.48360029999999,,True
HAMMERSLEY HOUSE,,,RUTH POLACEK,,,,,PO BOX 46010,,,,,,,,,,(608) 274-4642,,,,,,,,,,,,,,,,CBRF,Residential Care,"3,500/10,000",,,5222 HAMMERSLEY RD,,,MADISON, DANE,,WI,,53711,USA,43.0394792,-89.46967719999999,Orchard Ridge,True
HANNAHS HOUSE EAST,,,VANESSA GOTTSCHALK,,,,,,,,,,,,,,,(702) 249-4844,,,,,,,,,,,,,,,,CBRF,Residential Care,"3,200/6,000",,,4702 MILWAUKEE ST,,,MADISON, DANE,,WI,,53714,USA,43.09904459999999,-89.30121160000002,,True
HANNAHS HOUSE WEST,,,MARK SHAFFAR,,,,,,,,,,,,,,,(608) 833-8679,,,,,,,,,,,,,,,,CBRF,Residential Care,"3,200/5,000",,,510 N GAMMON,,,MADISON, DANE,,WI,,53717,USA,43.07386409999999,-89.502826,,True
MADISON HEIGHTS SENIOR COMMUNITY A,,,TINA PAVLAT,,,,,,,,,,,,,,,(608) 249-5776,,,,,,,,,,,,,,,,CBRF,Residential Care,"3,500/6,400",,,5555 BURKE RD,,,MADISON, DANE,,WI,,53718,USA,43.1352355,-89.2834039,,True
MADISON HEIGHTS SENIOR COMMUNITY B,,,TINA PAVLAT,,,,,,,,,,,,,,,(608) 249-5776,,,,,,,,,,,,,,,,CBRF,Residential Care,"3,500/6,400",,,5575 BURKE RD,,,MADISON, DANE,,WI,,53718,USA,43.1353871,-89.28317249999999,,True
MADISON HEIGHTS SENIOR COMMUNITY C,,,TINA PAVLAT,,,,,,,,,,,,,,,(608) 249-5776,,,,,,,,,,,,,,,,CBRF,Residential Care,"3,500/6,400",,,5565 BURKE RD,,,MADISON, DANE,,WI,,53718,USA,43.1352354,-89.2834879,,True
MADISON POINTE SENIOR LIVING,,,ROXY STAHNKE,,,,,,,,,,,,,,,(608) 244-8863,,,,,,,,,,,,,,,,CBRF,Residential Care,"2,549/4,139",,,705 ZIEGLER RD,,,MADISON, DANE,,WI,,53714,USA,43.107101,-89.30545699999999,Burke Heights,True
MAHER HOME (THE),,,JASON STANDISH,,,,,,,,,,,,,,,(608) 712-4962,,,,,,,,,,,,,,,,CBRF,Residential Care,"2,800/5,000",,,5225 MAHER AVE,,,MADISON, DANE,,WI,,53716,USA,43.06242700000001,-89.31329099999999,,True
MILESTONE SENIOR LIVING MESTA LANE,,,JOE MONROE,,,,,,,,,,,,,,,(608) 246-0409,,,,,,,,,,,,,,,,CBRF,Residential Care,"4,100/4,200",,,734 MESTA LN,,,MADISON, DANE,,WI,,53704,USA,43.10924199999999,-89.296734,,True
NORTH BAY LODGE,,,SANDRA HENDRICKS,,,,,,,,,,,,,,,(608) 249-2600,,,,,,,,,,,,,,,,CBRF,Residential Care,"3,337/5,425",,,3602 MEMORIAL DR,,,MADISON, DANE,,WI,,53704,USA,43.1311776,-89.40376959999999,,True
NORTHPORT GROUP HOME,,,ELENA GOLDEN,,,,,,,,,,,,,,,(608) 663-4552,,,,,,,,,,,,,,,,CBRF,Residential Care,"3,695/3,695",,,1602 NORTHPORT DR,,,MADISON, DANE,,WI,,53704,USA,43.1330266,-89.3678477,,True
OAK PARK PLACE AUTUMN LANE,,,TONI CARRUTHERS,,,,,,,,,,,,,,,(608) 663-8600,,,,,,,,,,,,,,,,CBRF,Residential Care,"5,408/6,891",,,702 JUPITER DR,,,MADISON, DANE,,WI,,53718,USA,43.088066,-89.283006,,True
OAK PARK PLACE AUTUMN LANE II,,,WILLIAM ARMSTRONG,,,,,,,,,,,,,,,(608) 729-2900,,,,,,,,,,,,,,,,CBRF,Residential Care,"5,303/7,087",,,719 JUPITER DR,,,MADISON, DANE,,WI,,53718,USA,43.0871669,-89.2819256,,True
OAK RIDGE LIVING MADISON WEST,,,COURTNEY ODOM,,,,,,,,,,,,,,,(608) 833-4813,,,,,,,,,,,,,,,,CBRF,Residential Care,"3,800/6,000",,,8410 BLACKWOLF DR,,,MADISON, DANE,,WI,,53517,USA,43.0710507,-89.527823,,True
OAKWOOD KNOLL,,,BRYAN BEE,,,,,,,,,,,,,,,(608) 230-4538,,,,,,,,,,,,,,,,CBRF,Residential Care,"6,420/7,380",,,5565 TANCHO DR,,,MADISON, DANE,,WI,,53718,USA,43.1562902,-89.28338219999999,,True
OAKWOOD MEADOWS,,,BRYAN BEE,,,,,,,,,,,,,,,(608) 230-4538,,,,,,,,,,,,,,,,CBRF,Residential Care,"7,980/8,160",,,5565 TANCHO DR,,,MADISON, DANE,,WI,,53718,USA,43.1562902,-89.28338219999999,,True
OAKWOOD SEASONS,,,BRYAN BEE,,,,,,,,,,,,,,,(608) 230-4538,,,,,,,,,,,,,,,,CBRF,Residential Care,"5,970/6,090",,,5565 TANCHO DR,,,MADISON, DANE,,WI,,53718,USA,43.1562902,-89.28338219999999,,True
OAKWOOD VILLAGE TABOR OAKS,,,KIMBERLY BLUM,,,,,,,,,,,,,,,(608) 230-4699,,,,,,,,,,,,,,,,CBRF,Residential Care,"6,360/6,360",,,6175 MINERAL POINT RD,,,MADISON, DANE,,WI,,53705,USA,43.059393,-89.48729639999999,,True
OFFSHORE GROUP HOME,,,ELENA GOLDEN,,,,,,,,,,,,,,,(608) 238-9064,,,,,,,,,,,,,,,,CBRF,Residential Care,"3,363/3,363",,,6418 OFFSHORE DR,,,MADISON, DANE,,WI,,53705,USA,43.063557,-89.491851,,True
PORCHLIGHT,,,ALLY SCHWARTZ,,,,,,,,,,,,,,,(608) 242-6288,,,,,,,,,,,,,,,,CBRF,Residential Care,1/500,,,902 NORTHPORT DR,,,MADISON, DANE,,WI,,53704,USA,43.13832489999999,-89.3827786,Lakeview Hills,True
REBOS CHRIS FARLEY HOUSE,,,SANDRA HENDRICKS,,,,,,,,,,,,,,,(608) 249-2600,,,,,,,,,,,,,,,,CBRF,Residential Care,"3,208/3,875",,,810 W OLIN AVE,,,MADISON, DANE,,WI,,53715,USA,43.0542542,-89.39582419999999,Bay Creek,True
SCHWERT AODA TREATMENT CENTER,,,VICKI TREBIAN,,,,,,,,,,,,,,,(608) 249-6226,,,,,,,,,,,,,,,,CBRF,Residential Care,"37,194/38,994",,,3501 KIPLING DR,,,MADISON, DANE,,WI,,53704,USA,43.1320626,-89.35631579999999,Berkeley Oaks,True
SEBRING ASSISTED CARE RESIDENCE,,,MARIAH RUHLAND,,,,,,,,,,,,,,,(608) 662-7622,,,,,,,,,,,,,,,,CBRF,Residential Care,"5,146/7,471",,,7710 SOUTH BROOKLINE DRIVE,,,MADISON, DANE,,WI,,53719,USA,43.04850279999999,-89.51943849999999,,True
SEGOE GARDENS ASSISTED LIVING,,,JOYCE BEHREND,,,,,,,,,,,,,,,(608) 204-0904,,,,,,,,,,,,,,,,CBRF,Residential Care,"3,450/4,250",,,606 NORTH SEGOE RD,,,MADISON, DANE,,WI,,53705,USA,43.0724514,-89.4565056,Hill Farms - University,True
TELLURIAN ACEWOOD HOUSE,,,,,,,,,,,,,,,,,,(608) 244-1359,,,,,,,,,,,,,,,,CBRF,Residential Care,"3,597/3,597",,,221 ACEWOOD BLVD,,,MADISON, DANE,,WI,,53714,USA,43.0944291,-89.3019327,,True
TELLURIAN CRAWFORD HOUSE,,,,,,,,,,,,,,,,,,(608) 277-8768,,,,,,,,,,,,,,,,CBRF,Residential Care,"4,208/4,208",,,4326 CRAWFORD DR,,,MADISON, DANE,,WI,,53711,USA,43.0324618,-89.4504814,Dunn's Marsh,True
TELLURIAN TRANSITIONAL HOUSING,,,EMILY BUTKUS,,,,,,,,,,,,,,,(608) 663-2121,,,,,,,,,,,,,,,,CBRF,Residential Care,"0/2,973",,,300 FEMRITE DR,,,MADISON, DANE,,WI,,53716,USA,43.0559996,-89.3212314,,True
WHITNEY LODGE II (THE),,,EUMIJAH MILLER-WILLIAMS,,,,,,,,,,,,,,,(608) 819-0475,,,,,,,,,,,,,,,,CBRF,Residential Care,"3,000/10,000",,,209 N WHITNEY WAY,,,MADISON, DANE,,WI,,53705,USA,43.0705582,-89.46800089999999,Hill Farms - University,True
WOMEN IN TRANSITION,,,KATHLEEN LEMKE,,,,,,,,,,,,,,,(608) 244-2046,,,,,,,,,,,,,,,,CBRF,Residential Care,"3,117/3,117",,,2842 MOLAND ST,,,MADISON, DANE,,WI,,53704,USA,43.1078269,-89.34334690000001,Eken Park,True
SIENNA CREST MARSHALL,,,SUSAN WHITE,,,,,,,,,,,,,,,(608) 655-3507,,,,,,,,,,,,,,,,CBRF,Residential Care,"3,605/5,105",,,604 LEWELLEN STREET,,,MARSHALL, DANE,,WI,,53559,USA,43.17452,-89.05764599999999,,True
SO CLOSE TO HOME,,,NIKOL GEROU,,,,,,,,,,,,,,,(608) 655-8008,,,,,,,,,,,,,,,,CBRF,Residential Care,"3,500/4,200",,,202 LAKEWOOD TERRACE,,,MARSHALL, DANE,,WI,,53559,USA,43.178622,-89.064325,,True
MARIANNES ELDER HOUSE INC,,,MARI LYNN STASSI,,,,,,,,,,,,,,,(608) 838-9524,,,,,,,,,,,,,,,,CBRF,Residential Care,"2,400/5,000",,,6229 RENEE CT,,,MCFARLAND, DANE,,WI,,53558,USA,43.0081847,-89.2937079,,True
MCFARLAND VILLA ASSISTED LIVING,,,KEVIN SARTO,,,,,,,,,,,,,,,(608) 838-2231,,,,,,,,,,,,,,,,CBRF,Residential Care,"1,999/4,305",,,5206 PAULSON CT,,,MCFARLAND, DANE,,WI,,53558,USA,43.02327289999999,-89.29845569999999,,True
ARTISAN MIDDLETON I (THE),,,LATASHA ROBINSON,,,,,,,,,,,,,,,(608) 828-9600,,,,,,,,,,,,,,,,CBRF,Residential Care,"3,200/4,615",,,5340 CENTURY AVE,,,MIDDLETON, DANE,,WI,,53562,USA,43.11152669999999,-89.4736938,Orchid Heights,True
ARTISAN MIDDLETON II (THE),,,LATASHA ROBINSON,,,,,,,,,,,,,,,(608) 828-9600,,,,,,,,,,,,,,,,CBRF,Residential Care,"4,888/7,000",,,5330 CENTURY AVE,,,MIDDLETON, DANE,,WI,,53562,USA,43.1118734,-89.4729081,Orchid Heights,True
ATTIC ANGEL PLACE HAVEN,,,JENNIFER MCLAUGHLIN,,,,,,,,,,,,,,,(608) 662-8842,,,,,,,,,,,,,,,,CBRF,Residential Care,"6,820/6,820",,,8301 OLD SAUK RD,,,MIDDLETON, DANE,,WI,,53562,USA,43.07357280000001,-89.5289102,,True
BROOKDALE MIDDLETON CENTURY AVE,,,PATTY HENNEMAN,,,,,,,,,,,,,,,(608) 827-8777,,,,,,,,,,,,,,,,CBRF,Residential Care,"3,265/4,732",,,6916 CENTURY AVE,,,MIDDLETON, DANE,,WI,,53562,USA,43.10844530000001,-89.5000384,Middleton Hills,True
BROOKDALE MIDDLETON STONEFIELD,,,JACQUELINE DAVIDSON,,,,,,,,,,,,,,,(608) 831-2707,,,,,,,,,,,,,,,,CBRF,Residential Care,"4,300/7,140",,,6701 STONEFIELD RD,,,MIDDLETON, DANE,,WI,,53562,USA,43.08284899999999,-89.5001949,,True
HERITAGE COURT MIDDLETON,,,JESSICA LAUER,,,,,,,,,,,,,,,(608) 831-7004,,,,,,,,,,,,,,,,CBRF,Residential Care,"4,750/5,800",,,6234 MAYWOOD AVE,,,MIDDLETON, DANE,,WI,,53562,USA,43.10109480000001,-89.4870611,Amherst,True
HERITAGE MONONA CBRF,,,ADRIANE STUPAR,,,,,,,,,,,,,,,(608) 441-9990,,,,,,,,,,,,,,,,CBRF,Residential Care,"4,400/7,400",,,111 OWEN RD,,,MONONA, DANE,,WI,,53716,USA,43.0577313,-89.3275582,,True
HERITAGE OF MONONA FE HERITAGE 10 LLC,,,ADRIANE STUPAR,,,,,,,,,,,,,,,(608) 441-9990,,,,,,,,,,,,,,,,CBRF,Residential Care,"3,600/4,800",,,111 OWEN RD,,,MONONA, DANE,,WI,,53716,USA,43.0577313,-89.3275582,,True
HERITAGE OF MONONA MC HERITAGE 10 LLC,,,ADRIANE STUPAR,,,,,,,,,,,,,,,(608) 441-9990,,,,,,,,,,,,,,,,CBRF,Residential Care,"4,300/5,300",,,111 OWEN RD,,,MONONA, DANE,,WI,,53716,USA,43.0577313,-89.3275582,,True
REYNOLDS ASSISTED LIVING,,,TATE A REYNOLDS,,,,,,,,,,,,,,,(608) 222-7557,,,,,,,,,,,,,,,,CBRF,Residential Care,"3,250/8,000",,,5318 SCHLUTER RD,,,MONONA, DANE,,WI,,53716,USA,43.06170889999999,-89.3406552,,True
TELLURIAN ADULT RESIDENTIAL SERVICES,,,ANN GILE,,,,,,,,,,,,,,,(608) 222-7311,,,,,,,,,,,,,,,,CBRF,Residential Care,"25/5,670",,,300 FEMRITE DR,,,MONONA, DANE,,WI,,53716,USA,43.0559996,-89.3212314,,True
GIRLIES MANOR,,,LANCE STEIN,,,,,,,,,,,,,,,(608) 437-2778,,,,,,,,,,,,,,,,CBRF,Residential Care,"3,900/5,000",,,104 LINCOLN CRT,,,MOUNT HOREB, DANE,,WI,,53572,USA,43.00814089999999,-89.72777909999999,,True
INGLEHAVEN,,,PAMELA BLABAUM,,,,,,,,,,,,,,,(608) 437-9648,,,,,,,,,,,,,,,,CBRF,Residential Care,"4,000/4,600",,,512 ALAN DRIVE,,,MOUNT HOREB, DANE,,WI,,53572,USA,43.0157393,-89.7259806,,True
BEEHIVE HOMES OF OREGON,,,GINA FINE,,,,,,,,,,,,,,,(608) 291-0892,,,,,,,,,,,,,,,,CBRF,Residential Care,"4,500/6,500",,,101 N BERGAMONT BLVD,,,OREGON, DANE,,WI,,53575,USA,42.929895,-89.407707,,True
MAIN STREET QUARTERS,,,TOM GRAVES,,,,,,,,,,,,,,,(608) 835-3535,,,,,,,,,,,,,,,,CBRF,Residential Care,"3,709/3,759",,,354 N MAIN ST,,,OREGON, DANE,,WI,,53575,USA,42.93142999999999,-89.38297209999999,,True
SIENNA CREST OREGON,,,SUE WHITE,,,,,,,,,,,,,,,(608) 835-7781,,,,,,,,,,,,,,,,CBRF,Residential Care,"3,505/5,005",,,981 PARK STREET,,,OREGON, DANE,,WI,,53575,USA,42.91860579999999,-89.3702742,,True
SIENNA MEADOWS OF OREGON,,,SUSAN WHITE,,,,,,,,,,,,,,,(608) 835-0000,,,,,,,,,,,,,,,,CBRF,Residential Care,"4,150/6,150",,,989 PARK ST,,,OREGON, DANE,,WI,,53575,USA,42.918177,-89.37017399999999,,True
AZURA MEMORY CARE OF STOUGHTON,,,TRACY MCWILLIAM,,,,,,,,,,,,,,,(608) 873-8333,,,,,,,,,,,,,,,,CBRF,Residential Care,"3,500/6,900",,,1221 E MAIN ST,,,STOUGHTON, DANE,,WI,,53589,USA,42.91748070000001,-89.2061431,,True
HERITAGE CENTER,,,KRISTIAN KRENTZ,,,,,,,,,,,,,,,(608) 873-5651,,,,,,,,,,,,,,,,CBRF,Residential Care,"4,355/5,425",,,400 NORTH MORRIS ST,,,STOUGHTON, DANE,,WI,,53589,USA,42.9209277,-89.2081353,,True
MAGNOLIA GARDENS,,,KRIS KRENTZ,,,,,,,,,,,,,,,(608) 873-5651,,,,,,,,,,,,,,,,CBRF,Residential Care,"4,900/5,600",,,400 N MORRIS STREET,,,STOUGHTON, DANE,,WI,,53589,USA,42.9209277,-89.2081353,,True
MILESTONE SENIOR LIVING SUITES,,,LISA FORD,,,,,,,,,,,,,,,(608) 819-2220,,,,,,,,,,,,,,,,CBRF,Residential Care,"4,550/4,750",,,2220 LINCOLN AVE,,,STOUGHTON, DANE,,WI,,53589,USA,42.93904860000001,-89.236173,,True
STOUGHTON MEADOWS SENIOR LIVING,,,ASHLEY WILLIAMS,,,,,,,,,,,,,,,(608) 205-6479,,,,,,,,,,,,,,,,CBRF,Residential Care,"2,366/4,332",,,2321 JACKSON ST,,,STOUGHTON, DANE,,WI,,53589,USA,42.9207957,-89.24841719999999,,True
BROOKDALE SUN PRAIRIE,,,KATHY HUDSON,,,,,,,,,,,,,,,(608) 825-9300,,,,,,,,,,,,,,,,CBRF,Residential Care,"5,200/5,200",,,650 BROADWAY DR,,,SUN PRAIRIE, DANE,,WI,,53590,USA,43.1890473,-89.2421756,,True
FAITH GARDENS,,,ANGELICA WILLIAMS,,,,,,,,,,,,,,,(608) 834-3178,,,,,,,,,,,,,,,,CBRF,Residential Care,"3,475/7,500",,,35 TOWER DRIVE,,,SUN PRAIRIE, DANE,,WI,,53590,USA,43.1979487,-89.21227429999999,,True
FAITH LIVING CENTER,,,ANGELICA WILLIAMS,,,,,,,,,,,,,,,(608) 825-3178,,,,,,,,,,,,,,,,CBRF,Residential Care,"3,375/4,975",,,131 CLARMAR DR,,,SUN PRAIRIE, DANE,,WI,,53590,USA,43.17710489999999,-89.2412832,,True
HYLAND CROSSINGS,,,RYAN WAGNER,,,,,,,,,,,,,,,(262) 289-2770,,,,,,,,,,,,,,,,CBRF,Residential Care,"5,525/7,025",,,1249 SCHOOL ST,,,SUN PRAIRIE, DANE,,WI,,53590,USA,43.1986852,-89.2303407,,True
NEW PERSPECTIVE SUN PRAIRIE,,,SARAH SEARLES,,,,,,,,,,,,,,,(608) 825-1600,,,,,,,,,,,,,,,,CBRF,Residential Care,"4,348/9,788",,,222 S BRISTOL STREET,,,SUN PRAIRIE, DANE,,WI,,53590,USA,43.180483,-89.21466749999999,,True
OAK RIDGE LIVING SUN PRAIRIE,,,COURTNEY ODOM,,,,,,,,,,,,,,,(608) 837-6018,,,,,,,,,,,,,,,,CBRF,Residential Care,"3,800/6,000",,,605 WOOD VIOLET LN,,,SUN PRAIRIE, DANE,,WI,,53590,USA,43.1790208,-89.2062832,,True
PRAIRIE GARDENS,,,JERRY & SUZANNE HARBORT,,,,,,,,,,,,,,,(608) 825-4884,,,,,,,,,,,,,,,,CBRF,Residential Care,"3,600/4,000",,,900 OKEEFFE AVE,,,SUN PRAIRIE, DANE,,WI,,53590,USA,43.1709762,-89.24967219999999,,True
EVERGREEN HOME CARE LLC,,,HAIYAO WANG,,,,,,,,,,,,,,,(608) 848-1368,,,,,,,,,,,,,,,,CBRF,Residential Care,"3,000/3,400",,,1003 TAMARACK WAY,,,VERONA, DANE,,WI,,53593,USA,43.002101,-89.5474289,,True
FOUR WINDS LODGE,,,JESSICA KOERWITZ,,,,,,,,,,,,,,,(608) 845-6154,,,,,,,,,,,,,,,,CBRF,Residential Care,"3,813/4,526",,,309 SCHWEITZER DRIVE,,,VERONA, DANE,,WI,,53593,USA,42.98774720000001,-89.5293737,,True
J & B ASSISTED LIVING INC,,,JAMPA DOLMA,,,,,,,,,,,,,,,(608) 848-9619,,,,,,,,,,,,,,,,CBRF,Residential Care,"3,050/4,000",,,1013 GATEWAY PASS,,,VERONA, DANE,,WI,,53593,USA,43.0019825,-89.5359823,,True
NOEL MANOR SENIOR LIVING COMPLEX,,,KELLEY ROBINSON,,,,,,,,,,,,,,,(608) 620-6010,,,,,,,,,,,,,,,,CBRF,Residential Care,"5,000/6,000",,,471 PRAIRIE WAY BLVD,,,VERONA, DANE,,WI,,53593,USA,43.0042378,-89.5272408,,True
WILLOW POINTE MEMORY CARE,,,MATTHEW HOPKINS,,,,,,,,,,,,,,,(608) 848-5601,,,,,,,,,,,,,,,,CBRF,Residential Care,"4,661/5,124",,,143 PRAIRIE OAKS DRIVE,,,VERONA, DANE,,WI,,53593,USA,43.0041578,-89.5321689,,True
HOMESTEAD LIVING INC,,,REBECCA GEOGHEGAN-SMITH,,,,,,,,,,,,,,,(608) 850-4610,,,,,,,,,,,,,,,,CBRF,Residential Care,"4,490/6,100",,,1040 QUINN DR,,,WAUNAKEE, DANE,,WI,,53597,USA,43.1815417,-89.42721999999999,,True
SIENNA CREST WAUNAKEE,,,SUE WHITE,,,,,,,,,,,,,,,(608) 849-7395,,,,,,,,,,,,,,,,CBRF,Residential Care,"3,600/5,100",,,200 CROSS ST,,,WAUNAKEE, DANE,,WI,,53597,USA,43.1931463,-89.4532516,,True
SYLVAN CROSSINGS IN WESTSHIRE VILLAGE,,,TRICIA STRAIT,,,,,,,,,,,,,,,(608) 241-9872,,,,,,,,,,,,,,,,CBRF,Residential Care,"4,190/4,900",,,5475 WESTSHIRE CIRCLE,,,WAUNAKEE, DANE,,WI,,53597,USA,43.14993039999999,-89.41013240000001,,True
WAUNAKEE MANOR CBRF RETIREMENT WING,,,DAVE KRUCHTEN,,,,,,,,,,,,,,,(608) 849-5016,,,,,,,,,,,,,,,,CBRF,Residential Care,"2,400/3,300",,,801 S KLEIN DR,,,WAUNAKEE, DANE,,WI,,53597,USA,43.1840634,-89.4647973,,True
OAK RIDGE LIVING WINDSOR,,,COURTNEY ODOM,,,,,,,,,,,,,,,(608) 846-9316,,,,,,,,,,,,,,,,CBRF,Residential Care,"3,800/6,000",,,6797 VALIANT DR,,,WINDSOR, DANE,,WI,,53598,USA,43.2193833,-89.3446999,,True
ARCADIA COMMUNITIES,,,JONATHAN MOYER,,,,,,,,,,,,,,,(920) 219-9517,,,,,,,,,,,,,,,,CBRF,Residential Care,"3,500/6,000",,,911 S CENTER ST,,,BEAVER DAM, DODGE,,WI,,53916,USA,43.4433712,-88.8484502,,True
EAGLES WINGS,,,MICHELLE PASBRIG,,,,,,,,,,,,,,,(920) 885-9700,,,,,,,,,,,,,,,,CBRF,Residential Care,"3,710/4,263",,,408 STONE ST,,,BEAVER DAM, DODGE,,WI,,53916,USA,43.44647920000001,-88.82888059999999,,True
LANDMARK AT CHARLESTON HOUSE CBRF,,,LAURI JOHNSON,,,,,,,,,,,,,,,(920) 356-9818,,,,,,,,,,,,,,,,CBRF,Residential Care,"3,695/4,350",,,129 EVERGREEN LANE,,,BEAVER DAM, DODGE,,WI,,53916,USA,43.4463221,-88.8530079,,True
PRAIRIE RIDGE ASSISTED LIVING,,,KIMBERLY LORENZO,,,,,,,,,,,,,,,(920) 356-0032,,,,,,,,,,,,,,,,CBRF,Residential Care,"3,550/4,350",,,212 EAST INDUSTRIAL DR,,,BEAVER DAM, DODGE,,WI,,53916,USA,43.478103,-88.81818,,True
REMEMBRANCE HOME,,,KATHY BATES,,,,,,,,,,,,,,,(920) 356-9015,,,,,,,,,,,,,,,,CBRF,Residential Care,"4,560/4,810",,,1810 N SPRING ST,,,BEAVER DAM, DODGE,,WI,,53916,USA,43.48200399999999,-88.8203634,,True
SYLVAN CROSSINGS AT HUNTER RIDGE,,,ANNALISE WASBERG,,,,,,,,,,,,,,,(920) 885-1790,,,,,,,,,,,,,,,,CBRF,Residential Care,"3,270/4,460",,,626 MONROE ST,,,BEAVER DAM, DODGE,,WI,,53916,USA,43.44870299999999,-88.82059699999999,,True
ANCHOR COMMUNITIES LLC,,,TRACY HOEPPNER,,,,,,,,,,,,,,,(920) 520-0122,,,,,,,,,,,,,,,,CBRF,Residential Care,"3,250/3,975",,,209 FOREST ST,,,FOX LAKE, DODGE,,WI,,53933,USA,43.565016,-88.918821,,True
BETHESDA LUTHERAN COMMUNITIES EGGLESTON,,,RONNI FRIEND,,,,,,,,,,,,,,,(920) 928-2588,,,,,,,,,,,,,,,,CBRF,Residential Care,"5,672/5,672",,,103 EGGLESTON ST,,,FOX LAKE, DODGE,,WI,,53933,USA,43.5598567,-88.9022729,,True
BETHESDA LUTHERAN COMMUNITIES O'CONNELL,,,RONNI FRIEND,,,,,,,,,,,,,,,(920) 928-2252,,,,,,,,,,,,,,,,CBRF,Residential Care,"7,010/7,010",,,205 O'CONNELL ST,,,FOX LAKE, DODGE,,WI,,53933,USA,43.559667,-88.90418299999999,,True
DAYBREAK INC HORICON,,,FRANK WILL,,,,,,,,,,,,,,,(920) 485-4010,,,,,,,,,,,,,,,,CBRF,Residential Care,"4,689/4,689",,,822 E WALNUT ST,,,HORICON, DODGE,,WI,,53032,USA,43.4527468,-88.6251052,,True
MARVINS MANOR II,,,BARBARA HENDRICKS,,,,,,,,,,,,,,,(920) 485-4016,,,,,,,,,,,,,,,,CBRF,Residential Care,"3,050/3,750",,,839 DIVISION ST,,,HORICON, DODGE,,WI,,53032,USA,43.4439906,-88.62223619999999,,True
PINE RIDGE HOUSE,,,PAULA HEYER,,,,,,,,,,,,,,,(920) 474-3142,,,,,,,,,,,,,,,,CBRF,Residential Care,"4,000/6,000",,,N844 CRAWFISH RD,,,IXONIA, DODGE,,WI,,53036,USA,43.223823,-88.56357,,False
EVERGREEN MANOR III INC,,,CINDY WEISENSEL,,,,,PO BOX 900,,,,,,,,,,(920) 386-9012,,,,,,,,,,,,,,,,CBRF,Residential Care,"3,000/3,900",,,239 VICTORY ST,,,JUNEAU, DODGE,,WI,,53039,USA,43.4120824,-88.7060516,,True
NORTHVIEW HEIGHTS,,,JANE HOOPER,,,,,,,,,,,,,,,(920) 386-3409,,,,,,,,,,,,,,,,CBRF,Residential Care,"3,009/6,570",,,199 CTY DF,,,JUNEAU, DODGE,,WI,,53039,USA,43.4168288,-88.6978884,,True
TOUCHSTONE OF MAYVILLE,,,NOELLE GIESEN,,,,,,,,,,,,,,,(920) 644-2195,,,,,,,,,,,,,,,,CBRF,Residential Care,"6,300/10,500",,,1071 HORICON ST,,,MAYVILLE, DODGE,,WI,,53050,USA,43.49337,-88.557502,,True
GOLDEN YEARS OF RANDOLPH I,,,JANIS DEETS NOWAK,,,,,,,,,,,,,,,(920) 326-4663,,,,,,,,,,,,,,,,CBRF,Residential Care,"3,200/4,500",,,131 ELLIS AVE,,,RANDOLPH, DODGE,,WI,,53956,USA,43.544492,-88.998066,,True
GOLDEN YEARS OF RANDOLPH II,,,JANIS DEETS NOWAK,,,,,,,,,,,,,,,(920) 326-4663,,,,,,,,,,,,,,,,CBRF,Residential Care,"3,200/4,500",,,137 ELLIS AVE,,,RANDOLPH, DODGE,,WI,,53956,USA,43.544592,-88.99768399999999,,True
HIGHLAND HOUSE,,,BROOKE FUCHS,,,,,,,,,,,,,,,(920) 262-4823,,,,,,,,,,,,,,,,CBRF,Residential Care,"3,890/5,200",,,125A HOSPITAL DRIVE,,,WATERTOWN, DODGE,,WI,,53098,USA,43.20016800000001,-88.6964498,,True
HIL MEADOWBROOK,,,REBEKAH LOVELL,,,,,,,,,,,,,,,(262) 390-2087,,,,,,,,,,,,,,,,CBRF,Residential Care,"6,967/6,967",,,1405 WEDGEWOOD CRT,,,WATERTOWN, DODGE,,WI,,53098,USA,43.21001219999999,-88.6975906,,True
PARK RIDGE,,,EMILY FEINER,,,,,,,,,,,,,,,(920) 261-5655,,,,,,,,,,,,,,,,CBRF,Residential Care,"4,705/6,060",,,1148 BAYBERRY DR,,,WATERTOWN, DODGE,,WI,,53098,USA,43.2013632,-88.7044485,,True
PARK TERRACE,,,EMILY FEINER,,,,,,,,,,,,,,,(920) 261-0400,,,,,,,,,,,,,,,,CBRF,Residential Care,"5,025/6,325",,,1047 HILL STREET,,,WATERTOWN, DODGE,,WI,,53098,USA,43.2017736,-88.7062627,,True
WATERTOWN LUTHERAN SENIOR HOUSING,,,BARBARA BUTLER,,,,,,,,,,,,,,,(920) 567-2001,,,,,,,,,,,,,,,,CBRF,Residential Care,"4,437/5,402",,,700 WELSH RD,,,WATERTOWN, DODGE,,WI,,53098,USA,43.2056404,-88.7603804,,True
CHRISTIAN HOMESTEAD,,,BARBARA WIRKUS,,,,,,,,,,,,,,,(920) 324-6560,,,,,,,,,,,,,,,,CBRF,Residential Care,"4,640/4,960",,,1001 WEST BROWN ST,,,WAUPUN, DODGE,,WI,,53963,USA,43.63032200000001,-88.7573,,True
DAYBREAK INC WAUPUN,,,FRANK WILL,,,,,,,,,,,,,,,(920) 324-4903,,,,,,,,,,,,,,,,CBRF,Residential Care,"5,225/5,225",,,631 S MADISON ST,,,WAUPUN, DODGE,,WI,,53963,USA,43.624468,-88.729407,,True
PRAIRIE RIDGE ASSISTED LIVING,,,KIMBERLY LORENZO,,,,,,,,,,,,,,,(920) 324-5450,,,,,,,,,,,,,,,,CBRF,Residential Care,"3,450/4,250",,,819 WILCOX ST,,,WAUPUN, DODGE,,WI,,53963,USA,43.629389,-88.72044919999999,,True
HEARTHSIDE,,,MARTHA COVENTRY,,,,,,,,,,,,,,,(920) 854-7225,,,,,,,,,,,,,,,,CBRF,Residential Care,"4,200/5,000",,,10569 FIELDCREST RD,,,SISTER BAY, DOOR,,WI,,54234,USA,45.183813,-87.133168,,True
WOODVIEW OF SCANDIA,,,MICHELE NOTZ,,,,,,,,,,,,,,,(920) 854-2317,,,,,,,,,,,,,,,,CBRF,Residential Care,"3,305/4,570",,,2311 MEADOW WOOD DR,,,SISTER BAY, DOOR,,WI,,54234,USA,45.183882,-87.1203996,,True
ANNAS HEALTHCARE INC,,,CORY A HOCKERS,,,,,,,,,,,,,,,(920) 818-1200,,,,,,,,,,,,,,,,CBRF,Residential Care,"2,350/5,000",,,839 S 18TH AVE,,,STURGEON BAY, DOOR,,WI,,54235,USA,44.8264447,-87.3522522,,True
CARDINAL RIDGE RESIDENTIAL CARE,,,KAREN BAIN,,,,,PO BOX 11966,,,,,,,,,,(920) 743-9289,,,,,,,,,,,,,,,,CBRF,Residential Care,"3,550/4,825",,,817 CIRCLE RIDGE PLACE,,,STURGEON BAY, DOOR,,WI,,54235,USA,44.8184307,-87.3623221,,True
GATHERING OF DOOR COUNTY (THE),,,KATHY HOWLETT DESPOT,,,,,,,,,,,,,,,(920) 746-7550,,,,,,,,,,,,,,,,CBRF,Residential Care,"2,600/3,900",,,204 N DULUTH AVE,,,STURGEON BAY, DOOR,,WI,,54235,USA,44.8308171,-87.3969572,,True
HIL FLORIDA,,,REBECCA WAGNER,,,,,,,,,,,,,,,(920) 746-2975,,,,,,,,,,,,,,,,CBRF,Residential Care,"6,847/6,847",,,1921 FLORIDA ST,,,STURGEON BAY, DOOR,,WI,,54235,USA,44.842483,-87.348298,,True
WHISPERING HEIGHTS,,,DAWN MCCONNELL,,,,,,,,,,,,,,,(920) 746-8998,,,,,,,,,,,,,,,,CBRF,Residential Care,"2,200/3,800",,,1704 GEORGIA ST,,,STURGEON BAY, DOOR,,WI,,54235,USA,44.84216970000001,-87.35390559999999,,True
WHISPERING PINES,,,DAWN MCCONNELL,,,,,,,,,,,,,,,(920) 746-7080,,,,,,,,,,,,,,,,CBRF,Residential Care,"2,200/3,800",,,1610 GEORGIA ST,,,STURGEON BAY, DOOR,,WI,,54235,USA,44.8421753,-87.3557313,,True
NORTHERN RESIDENCE,,,ATHENA DABATO DOTY,,,,,PO BOX 43,,,,,,,,,,(715) 374-3358,,,,,,,,,,,,,,,,CBRF,Residential Care,"3,800/4,500",,,6857 S CTY RD E,,,HAWTHORNE, DOUGLAS,,WI,,54842,USA,46.516459,-91.86036299999999,Hawthorne,True
HARMONY HOUSE II,,,PAMELA CLARK,,,,,,,,,,,,,,,(715) 392-7644,,,,,,,,,,,,,,,,CBRF,Residential Care,"3,975/4,500",,,7613 JOHN AVE,,,SUPERIOR, DOUGLAS,,WI,,54880,USA,46.645705,-92.10260099999999,,True
ENCOMPASS ASSISTED LIVING - FAXON HOUSE,,,MARIA NYHUS,,,,,,,,,,,,,,,(715) 395-3733,,,,,,,,,,,,,,,,CBRF,Residential Care,"2,500/10,000",,,1212 FAXON STREET,,,SUPERIOR, DOUGLAS,,WI,,54880,USA,46.7113667,-92.0956594,,True
HARMONY KC LLC,,,PAMELA CLARK,,,,,,,,,,,,,,,(715) 392-7615,,,,,,,,,,,,,,,,CBRF,Residential Care,"3,975/4,500",,,7615 JOHN AVE,,,SUPERIOR, DOUGLAS,,WI,,54880,USA,46.645325,-92.10259900000001,,True
CYPRESS HOUSE CBRF,,,KATIE BACKLUND,,,,,,,,,,,,,,,(715) 392-8997,,,,,,,,,,,,,,,,CBRF,Residential Care,"3,000/4,620",,,1415 CYPRESS AVE,,,SUPERIOR, DOUGLAS,,WI,,54880,USA,46.7212554,-92.0854102,North End,True
MOUNTAIN VIEW HOME,,,KRISTEN ABRAHAMSON,,,,,,,,,,,,,,,(715) 392-3038,,,,,,,,,,,,,,,,CBRF,Residential Care,"4,047/8,876",,,3319 N 16TH STREET,,,SUPERIOR, DOUGLAS,,WI,,54880,USA,46.7196693,-92.1267155,Billings Park,True
REM WISCONSIN III INC 21ST STREET,,,SHELLEY HANSEN-BLAKE,,,,,,,,,,,,,,,(715) 395-2821,,,,,,,,,,,,,,,,CBRF,Residential Care,"5,214/5,388",,,3901 N 21ST STREET,,,SUPERIOR, DOUGLAS,,WI,,54880,USA,46.71382659999999,-92.1327176,Billings Park,True
REM WISCONSIN III INC BELKNAP,,,SHELLEY HANSEN-BLAKE,,,,,,,,,,,,,,,(715) 395-2815,,,,,,,,,,,,,,,,CBRF,Residential Care,"5,477/5,660",,,3706 BELKNAP ST,,,SUPERIOR, DOUGLAS,,WI,,54880,USA,46.7204459,-92.13146809999999,Billings Park,True
STARDUSK HOUSE,,,SUSAN DATE,,,,,,,,,,,,,,,(715) 394-3553,,,,,,,,,,,,,,,,CBRF,Residential Care,"4,197/4,441",,,7619 JOHN AVE,,,SUPERIOR, DOUGLAS,,WI,,54880,USA,46.644946,-92.102594,,True
DEER HAVEN,,,KELLY JOHNSON,,,,,,,,,,,,,,,(715) 392-5427,,,,,,,,,,,,,,,,CBRF,Residential Care,"2,914/5,146",,,3105 CUMMING AVE,,,SUPERIOR, DOUGLAS,,WI,,54880,USA,46.7022965,-92.09685309999999,,True
CEDAR RIDGE ASSISTED LIVING & MEMORY CARE,,,AMY SKAGGS,,,,,,,,,,,,,,,(715) 392-0610,,,,,,,,,,,,,,,,CBRF,Residential Care,"3,900/4,900",,,4519 E MARQUARDT RD,,,SUPERIOR, DOUGLAS,,WI,,54880,USA,46.56851289999999,-92.07212390000001,,True
ENCOMPASS HEALTHCARE ASSISTED LIVING,,,PATRICIA GLITSOS,,,,,,,,,,,,,,,(715) 392-2780,,,,,,,,,,,,,,,,CBRF,Residential Care,"3,800/10,000",,,1500 N 34TH ST,STE 600,,SUPERIOR, DOUGLAS,,WI,,54880,USA,46.697994,-92.1002031,,True
HARBORVIEW CBRF,,,GEORGE HIRVELA,,,,,,,,,,,,,,,(715) 394-3226,,,,,,,,,,,,,,,,CBRF,Residential Care,"3,096/3,416",,,910 E 5TH ST,,,SUPERIOR, DOUGLAS,,WI,,54880,USA,46.71579899999999,-92.06548649999999,Central Park,True
TRADEWINDS RESIDENCE INC II,,,JOHN KOLAR,,,,,,,,,,,,,,,(715) 394-2077,,,,,,,,,,,,,,,,CBRF,Residential Care,"3,954/4,028",,,1601 N 16TH STREET,,,SUPERIOR, DOUGLAS,,WI,,54880,USA,46.71943599999999,-92.101188,,True
LIGHTHOUSE OF SUPERIOR CBRF BETTYS HARBOR,,,JEFFERY BERGUM,,,,,,,,,,,,,,,(218) 721-2800,,,,,,,,,,,,,,,,CBRF,Residential Care,"4,850/6,066",,,1915 N 34TH ST,,,SUPERIOR, DOUGLAS,,WI,,54880,USA,46.7004592,-92.10781209999999,,True
CEDAR RIDGE ASSISTED LIVING & MEMORY CARE II,,,AMY GLASSMAKER,,,,,,,,,,,,,,,(715) 392-0610,,,,,,,,,,,,,,,,CBRF,Residential Care,"4,000/4,900",,,4527 E MARQUARDT RD,,,SUPERIOR, DOUGLAS,,WI,,54880,USA,46.5696013,-92.0700785,,True
MCKENZIE MANOR,,,KELLY PETERSON,,,,,,,,,,,,,,,(715) 399-0900,,,,,,,,,,,,,,,,CBRF,Residential Care,"4,802/8,265",,,3317 NORTH 21ST STREET,,,SUPERIOR, DOUGLAS,,WI,,54880,USA,46.7137561,-92.1267859,Billings Park,True
ENCOMPASS HEALTHCARE CBRF 500,,,PATRICIA GLITSOS,,,,,,,,,,,,,,,(715) 398-8710,,,,,,,,,,,,,,,,CBRF,Residential Care,"2,500/10,000",,,1500 N 34TH ST,STE 500,,SUPERIOR, DOUGLAS,,WI,,54880,USA,46.697994,-92.1002031,,True
REM WISCONSIN III INC CENTENNIAL,,,SHELLEY HANSEN-BLAKE,,,,,,,,,,,,,,,(715) 718-0455,,,,,,,,,,,,,,,,CBRF,Residential Care,"4,314/4,444",,,5303 CUMMINGS AVENUE,,,SUPERIOR, DOUGLAS,,WI,,54880,USA,46.6757204,-92.0971342,South End,True
TRADEWINDS RESIDENCE INC,,,ROBIN KULASZEWICZ,,,,,,,,,,,,,,,(715) 394-2077,,,,,,,,,,,,,,,,CBRF,Residential Care,"3,954/4,028",,,1601 N 16TH ST,,,SUPERIOR, DOUGLAS,,WI,,54880,USA,46.71943599999999,-92.101188,,True
SAFE HAVEN ADULT ASSISTED LIVING LLC,,,TERRA/DENISE ENGEMAN/JESKE,,,,,,,,,,,,,,,(715) 643-7234,,,,,,,,,,,,,,,,CBRF,Residential Care,"5,000/9,000",,,421 MAIN STREET,,,BOYCEVILLE, DUNN,,WI,,54725,USA,45.04331870000001,-92.0497252,,True
RIDGE CREST MANOR,,,JILL GENGLER,,,,,,,,,,,,,,,(715) 962-3186,,,,,,,,,,,,,,,,CBRF,Residential Care,"3,335/5,980",,,110 PARK DRIVE,,,COLFAX, DUNN,,WI,,54730,USA,44.99152600000001,-91.7263105,,True
TARA PLACE,,,LINDSAY FARRELL-GOVEK,,,,,,,,,,,,,,,(715) 879-5381,,,,,,,,,,,,,,,,CBRF,Residential Care,"5,332/5,332",,,N5160 97OTH STREET,,,ELK MOUND, DUNN,,WI,,54739,USA,ERROR,ERROR,ERROR,False
ARBOR PLACE INC,,,JILL GAMEZ,,,,,,,,,,,,,,,(715) 235-4537,,,,,,,,,,,,,,,,CBRF,Residential Care,"2,910/7,750",,,4076 KOTHLOW AVENUE,,,MENOMONIE, DUNN,,WI,,54751,USA,44.87891879999999,-91.88361019999999,,True
ARC OF DUNN COUNTY INC HOUSE 105,,,AUDUN MIKKELSON,,,,,,,,,,,,,,,(715) 235-7373,,,,,,,,,,,,,,,,CBRF,Residential Care,"2,281/4,988",,,538 WOODRIDGE COURT,,,MENOMONIE, DUNN,,WI,,54751,USA,44.860142,-91.92300399999999,,True
AURORA RES ALTERNATIVES INC 011,,,JUSTIN BOITEAU,,,,,P O BOX 68,,,,,,,,,,(715) 233-1299,,,,,,,,,,,,,,,,CBRF,Residential Care,"2,873/5,976",,,1306 12TH AVENUE SE,,,MENOMONIE, DUNN,,WI,,54751,USA,44.87093399999999,-91.91542969999999,,True
AURORA RESIDENTIAL ALT INC #010,,,JUSTIN BOITEAU,,,,,P O BOX 68,,,,,,,,,,(715) 235-0290,,,,,,,,,,,,,,,,CBRF,Residential Care,"5,824/7,101",,,2412 THIRD ST E,,,MENOMONIE, DUNN,,WI,,54751,USA,44.860823,-91.926723,,True
CARE PARTNERS ASSTD LIVING MENOMONIE,,,DEBORAH ASHLEY,,,,,P O BOX 3006,,,,,,,,,,(715) 235-6333,,,,,,,,,,,,,,,,CBRF,Residential Care,"2,600/4,050",,,1902 TALEN ST,,,MENOMONIE, DUNN,,WI,,54751,USA,44.9046359,-91.9258705,,True
COMFORTS OF HOME MENOMONIE CBRF,,,JESSICA ROSS,,,,,,,,,,,,,,,(715) 231-3020,,,,,,,,,,,,,,,,CBRF,Residential Care,"4,500/6,000",,,2211 WHITE PINE LANE,,,MENOMONIE, DUNN,,WI,,54751,USA,44.908929,-91.922005,,True
COUNTRY TERRACE MENOMONIE,,,DEBORAH ASHLEY,,,,,PO BOX 3006,,,,,,,,,,(715) 235-5112,,,,,,,,,,,,,,,,CBRF,Residential Care,"2,652/3,702",,,1916 TALEN ST,,,MENOMONIE, DUNN,,WI,,54751,USA,44.9049532,-91.92588280000001,,True
MENOMONIE MEMORY CARE,,,ALICIA GRIGGS,,,,,,,,,,,,,,,(715) 232-8181,,,,,,,,,,,,,,,,CBRF,Residential Care,"3,775/3,825",,,820 17TH AVENUE,,,MENOMONIE, DUNN,,WI,,54751,USA,44.8670178,-91.919964,,True
NOREEN FAMILY HOME,,,DEANNA EBERT,,,,,,,,,,,,,,,(715) 235-4657,,,,,,,,,,,,,,,,CBRF,Residential Care,"2,650/2,650",,,2913 INGALLS RD,,,MENOMONIE, DUNN,,WI,,54751,USA,44.8566389,-91.94368689999999,,True
POTTERS COUNTRY HOME,,,RACHEL SELCHOW,,,,,,,,,,,,,,,(715) 235-6789,,,,,,,,,,,,,,,,CBRF,Residential Care,"2,500/4,300",,,N3430 STATE RD,25,,MENOMONIE, DUNN,,WI,,54751,USA,44.8047618,-91.9207375,,False
SERVING HANDS AT RIDGEWOOD,,,MARANDA SULLIVAN,,,,,PO BOX 2089,,,,,,,,,,(715) 309-2487,,,,,,,,,,,,,,,,CBRF,Residential Care,"3,000/10,000",,,2379 RIDGEWOOD STREET,,,MENOMONIE, DUNN,,WI,,54751,USA,44.9114179,-91.9091972,,True
CARE PARTNERS ASSISTED LIVING ALTOONA I,,,KATHLEEN STELZLENI,,,,,PO BOX 3006,,,,,,,,,,(920) 232-1672,,,,,,,,,,,,,,,,CBRF,Residential Care,"4,700/5,600",,,887 BRIAR LANE,,,ALTOONA, EAU CLAIRE,,WI,,54720,USA,44.7968745,-91.42854659999999,,True
CARE PARTNERS ASSISTED LIVING ALTOONA II,,,KATHLEEN STELZLENI,,,,,PO BOX 306,,,,,,,,,,(920) 232-1672,,,,,,,,,,,,,,,,CBRF,Residential Care,"4,700/5,600",,,893 BRIAR LANE,,,ALTOONA, EAU CLAIRE,,WI,,54720,USA,44.7966108,-91.4285689,,True
GRACE EDGEWOOD,,,JAMIE LARSON,,,,,P O BOX 287,,,,,,,,,,(715) 832-5813,,,,,,,,,,,,,,,,CBRF,Residential Care,"2,625/6,025",,,2512 SPOONER AVE,,,ALTOONA, EAU CLAIRE,,WI,,54720,USA,44.8072214,-91.45083509999999,,True
MORNING VIEW II,,,LINDSAY FARRELL-GOVEK,,,,,,,,,,,,,,,(715) 514-2000,,,,,,,,,,,,,,,,CBRF,Residential Care,"8,184/8,184",,,440 SUNDAY DRIVE,,,ALTOONA, EAU CLAIRE,,WI,,54720,USA,44.801036,-91.421351,,True
SILVERLEAF OF AUGUSTA,,,JAHN BRADLEY,,,,,,,,,,,,,,,(715) 286-2266,,,,,,,,,,,,,,,,CBRF,Residential Care,135/175,,,909 BRIDGE CREEK LN,,,AUGUSTA, EAU CLAIRE,,WI,,54722,USA,44.68507959999999,-91.1282509,,True
AFFINITY HOUSE,,,ANITA KUSTER,,,,,,,,,,,,,,,(715) 833-0436,,,,,,,,,,,,,,,,CBRF,Residential Care,"1,598/1,598",,,3042 KILBOURNE AVENUE,,,EAU CLAIRE, EAU CLAIRE,,WI,,54703,USA,44.8520514,-91.475684,,True
APPLE TREE COTTAGE CBRF,,,JENNY WALKER,,,,,,,,,,,,,,,(715) 577-8506,,,,,,,,,,,,,,,,CBRF,Residential Care,"1,980/6,740",,,1306 KEITH ST,,,EAU CLAIRE, EAU CLAIRE,,WI,,54701,USA,44.8042917,-91.4737106,,True
AZURA MEMORY CARE OF EAU CLAIRE,,,JACKIE BORSHEIM,,,,,,,,,,,,,,,(715) 832-6696,,,,,,,,,,,,,,,,CBRF,Residential Care,"3,500/5,500",,,3712 DAMON STREET,,,EAU CLAIRE, EAU CLAIRE,,WI,,54701,USA,44.77806169999999,-91.4499304,,True
CARE PARTNERS ASSISTD LIVING LINDEMANN HOUSE,,,LORNA OLSON,,,,,P O BOX 3006,,,,,,,,,,(715) 858-3423,,,,,,,,,,,,,,,,CBRF,Residential Care,"2,550/4,100",,,2320 FRANK STREET,,,EAU CLAIRE, EAU CLAIRE,,WI,,54703,USA,44.8230956,-91.5420072,,True
CARE PARTNERS ASSISTED LIVING EAU CLAIRE EAST,,,NICOLE WEBER,,,,,PO BOX 3006,,,,,,,,,,(920) 232-1472,,,,,,,,,,,,,,,,CBRF,Residential Care,"4,500/4,900",,,3325 BIRCH STREET,,,EAU CLAIRE, EAU CLAIRE,,WI,,54701,USA,44.8226289,-91.4627053,,True
CARE PARTNERS ASSISTED LIVING LLC,,,LORNA OLSON,,,,,P O BOX 3006,,,,,,,,,,(715) 835-6656,,,,,,,,,,,,,,,,CBRF,Residential Care,"1,945/3,645",,,2306 FRANK STREET,,,EAU CLAIRE, EAU CLAIRE,,WI,,54703,USA,44.8230602,-91.5413913,,True
EAU CLAIRE MEMORY CARE,,,HANNAH OLEJNICZAK,,,,,,,,,,,,,,,(715) 832-3970,,,,,,,,,,,,,,,,CBRF,Residential Care,"4,065/4,715",,,733 W HAMILTON AVE,,,EAU CLAIRE, EAU CLAIRE,,WI,,54701,USA,44.78515039999999,-91.5072229,,True
FAHRMAN CENTER,,,LYNDA OLSON,,,,,,,,,,,,,,,(715) 835-9110,,,,,,,,,,,,,,,,CBRF,Residential Care,"3,545/4,763",,,3136 CRAIG ROAD,,,EAU CLAIRE, EAU CLAIRE,,WI,,54701,USA,44.78650789999999,-91.5193494,,True
FAMILY TREE,,,PAMELA SMITH,,,,,,,,,,,,,,,(715) 832-3663,,,,,,,,,,,,,,,,CBRF,Residential Care,"2,500/4,500",,,2005 AGNES STREET,,,EAU CLAIRE, EAU CLAIRE,,WI,,54701,USA,44.7979496,-91.47563679999999,,True
GRACE WOODLANDS,,,JAMIE LARSON,,,,,P O BOX 287,,,,,,,,,,(715) 831-8100,,,,,,,,,,,,,,,,CBRF,Residential Care,"4,525/5,925",,,3214 GALA ST,,,EAU CLAIRE, EAU CLAIRE,,WI,,54703,USA,44.82458589999999,-91.4642521,,True
HEATHERWOOD CBRF,,,KELLY DEUTSCHER,,,,,,,,,,,,,,,(715) 469-8012,,,,,,,,,,,,,,,,CBRF,Residential Care,"4,394/5,100",,,4510 GATEWAY DR,,,EAU CLAIRE, EAU CLAIRE,,WI,,54701,USA,44.7706994,-91.42352729999999,,True
HERITAGE COURT,,,SABRINA ATWOOD,,,,,,,,,,,,,,,(715) 831-8200,,,,,,,,,,,,,,,,CBRF,Residential Care,"4,150/6,900",,,3515 E HAMILTON AVENUE,,,EAU CLAIRE, EAU CLAIRE,,WI,,54701,USA,44.7848493,-91.45211859999999,,True
LIBERTY VIEW,,,LINDSAY FARRELL-GOVEK,,,,,,,,,,,,,,,(715) 834-4001,,,,,,,,,,,,,,,,CBRF,Residential Care,"5,301/5,301",,,611 MAIN ST,,,EAU CLAIRE, EAU CLAIRE,,WI,,54701,USA,44.8116989,-91.49479079999999,,True
MARSTON GROUP HOME,,,LYNN HOEHN-OLSON,,,,,,,,,,,,,,,(715) 836-8104,,,,,,,,,,,,,,,,CBRF,Residential Care,"3,550/5,670",,,403 MARSTON STREET,,,EAU CLAIRE, EAU CLAIRE,,WI,,54701,USA,44.8052876,-91.492245,,True
MCCORMICK FAMILY CIRCLE,,,ANDREW MCCORMICK,,,,,,,,,,,,,,,(715) 833-9592,,,,,,,,,,,,,,,,CBRF,Residential Care,"1,423/1,620",,,1018 GRAHAM AVE,,,EAU CLAIRE, EAU CLAIRE,,WI,,54701,USA,44.8045734,-91.49492,,True
MILESTONE SENIOR LIVING MEMORY CARE,,,KELLY ROHWEDDER  LPN,,,,,,,,,,,,,,,(715) 874-4232,,,,,,,,,,,,,,,,CBRF,Residential Care,"4,100/4,250",,,5510 RENEE DRIVE,,,EAU CLAIRE, EAU CLAIRE,,WI,,54703,USA,44.8412336,-91.58502709999999,,True
ORCHARD HILLS,,,ASHLEY LEICK,,,,,,,,,,,,,,,(715) 552-1030,,,,,,,,,,,,,,,,CBRF,Residential Care,"3,375/3,375",,,1403 TRUAX BLVD,,,EAU CLAIRE, EAU CLAIRE,,WI,,54703,USA,44.8342591,-91.5294119,,True
PRAIRIE VIEW,,,LINDSAY FARRELL-GOVEK,,,,,,,,,,,,,,,(715) 874-6713,,,,,,,,,,,,,,,,CBRF,Residential Care,"5,859/6,758",,,6808 W CAMERON ST,,,EAU CLAIRE, EAU CLAIRE,,WI,,54703,USA,44.816336,-91.602181,,True
ROSE VIEW,,,KRISTI SMIEJA,,,,,,,,,,,,,,,(715) 874-6622,,,,,,,,,,,,,,,,CBRF,Residential Care,"8,246/8,246",,,2710 NORTH TOWN HALL ROAD,,,EAU CLAIRE, EAU CLAIRE,,WI,,54703,USA,44.82613899999999,-91.59115899999999,,True
TIMBER VIEW,,,LINDSAY FARRELL-GOVEK,,,,,,,,,,,,,,,(715) 878-4699,,,,,,,,,,,,,,,,CBRF,Residential Care,"7,037/7,037",,,S8560 BALSAM ROAD,,,EAU CLAIRE, EAU CLAIRE,,WI,,54701,USA,44.709278,-91.49200929999999,,False
VALLEY VIEW,,,LINDSAY FARRELL-GOVEK,,,,,,,,,,,,,,,(715) 874-6390,,,,,,,,,,,,,,,,CBRF,Residential Care,"5,859/5,859",,,2720 NORTH TOWNHALL RD,,,EAU CLAIRE, EAU CLAIRE,,WI,,54703,USA,44.82791099999999,-91.59115399999999,,True
OAK VIEW II,,,LINDSAY FARRELL-GOVEK,,,,,,,,,,,,,,,(715) 835-6970,,,,,,,,,,,,,,,,CBRF,Residential Care,"6,913/6,913",,,S10580 CO HWY B,PO BOX 115,,ELEVA, EAU CLAIRE,,WI,,54738,USA,44.679462,-91.5460559,,False
BETHESDA LUTHERAN COMMUNITIES - 107 UPLAND,,,BROOKE WIELGOSH,,,,,,,,,,,,,,,(920) 346-2410,,,,,,,,,,,,,,,,CBRF,Residential Care,"5,874/5,874",,,107 UPLAND DR,,,BRANDON, FOND DU LAC,,WI,,53919,USA,43.7304802,-88.7830953,,True
BETHESDA LUTHERAN COMMUNITIES - 109 UPLAND,,,BROOKE WIELGOSH,,,,,,,,,,,,,,,(920) 346-2105,,,,,,,,,,,,,,,,CBRF,Residential Care,"5,830/5,830",,,109 UPLAND DR,,,BRANDON, FOND DU LAC,,WI,,53919,USA,43.7304802,-88.7830953,,True
MARVINS MANOR I,,,BARBARA A HENDRICKS,,,,,,,,,,,,,,,(920) 346-2322,,,,,,,,,,,,,,,,CBRF,Residential Care,"3,050/3,750",,,603 E CLARK ST,,,BRANDON, FOND DU LAC,,WI,,53919,USA,43.72917,-88.772987,,True
IVY MANOR OF CAMPBELLSPORT,,,SUSAN POLSTER,,,,,,,,,,,,,,,(920) 533-4300,,,,,,,,,,,,,,,,CBRF,Residential Care,"3,670/4,200",,,280 N BAUMANN ST,,,CAMPBELLSPORT, FOND DU LAC,,WI,,53010,USA,43.60093729999999,-88.2937089,,True
MAHALAS HOPE,,,SANDRA HARDIE,,,,,,,,,,,,,,,(920) 904-6445,,,,,,,,,,,,,,,,CBRF,Residential Care,"0/4,050",,,N 4590 HWY 45,,,EDEN, FOND DU LAC,,WI,,53019,USA,43.70834800000001,-88.369046,,False
ADELAIDE PLACE,,,MICHELLE MILLER,,,,,PO BOX 580254,,,,,,,,,,(920) 933-6304,,,,,,,,,,,,,,,,CBRF,Residential Care,"3,200/6,000",,,478 W ARNDT ST,,,FOND DU LAC, FOND DU LAC,,WI,,54935,USA,43.78660939999999,-88.46511629999999,,True
ARC FOND DU LAC,,,TANIA RHOADS,,,,,,,,,,,,,,,(920) 907-0460,,,,,,,,,,,,,,,,CBRF,Residential Care,"2,964/2,964",,,27 E THIRD ST,208,,FOND DU LAC, FOND DU LAC,,WI,,54935,USA,43.7746021,-88.4456486,,True
ARC PARK AVE GROUP HOME,,,AMY WILCOX,,,,,,,,,,,,,,,(920) 923-3570,,,,,,,,,,,,,,,,CBRF,Residential Care,"2,559/2,559",,,100 N PARK AVE,,,FOND DU LAC, FOND DU LAC,,WI,,54935,USA,43.7816677,-88.4393817,,True
ARTISAN FOND DU LAC HOUSE (THE),,,LAURA SCHWARTZ,,,,,,,,,,,,,,,(920) 921-3993,,,,,,,,,,,,,,,,CBRF,Residential Care,"2,400/4,000",,,154 S PIONEER PKWY,,,FOND DU LAC, FOND DU LAC,,WI,,54935,USA,43.7744353,-88.4792385,,True
BEACON HOUSE,,,MARY GERLACH,,,,,,,,,,,,,,,(920) 923-3999,,,,,,,,,,,,,,,,CBRF,Residential Care,"4,340/5,022",,,166 S PARK AVE,,,FOND DU LAC, FOND DU LAC,,WI,,54935,USA,43.7740303,-88.43935789999999,,True
BLANDINE HOUSE INC,,,DAVID A ENGEBREGTSEN,,,,,,,,,,,,,,,(920) 922-9487,,,,,,,,,,,,,,,,CBRF,Residential Care,"1,820/2,015",,,25 N PARK AVE,,,FOND DU LAC, FOND DU LAC,,WI,,54935,USA,43.7796808,-88.4386607,,True
DEERVIEW MEADOWS OF FOND DU LAC I,,,ROSE PANGILINAN,,,,,,,,,,,,,,,(920) 921-5115,,,,,,,,,,,,,,,,CBRF,Residential Care,"2,900/3,800",,,496 WISCONSIN CT,,,FOND DU LAC, FOND DU LAC,,WI,,54937,USA,43.792419,-88.469088,,True
FLORIDA,,,CARLA BRUNN-ALFERI,,,,,,,,,,,,,,,(920) 322-0245,,,,,,,,,,,,,,,,CBRF,Residential Care,"5,399/5,399",,,125 GARFIELD ST,,,FOND DU LAC, FOND DU LAC,,WI,,54937,USA,43.8078849,-88.4845426,,True
FRANKLIN HOUSE,,,JEAN KUNTZ,,,,,,,,,,,,,,,(920) 921-7568,,,,,,,,,,,,,,,,CBRF,Residential Care,"1,778/2,489",,,349 W 11TH ST,,,FOND DU LAC, FOND DU LAC,,WI,,54935,USA,43.76670319999999,-88.4595725,,True
LIBERTY HOUSE,,,JUDITH JONES,,,,,PO BOX 580254,,,,,,,,,,(920) 922-5445,,,,,,,,,,,,,,,,CBRF,Residential Care,"3,200/5,000",,,701 S MAIN ST,,,FOND DU LAC, FOND DU LAC,,WI,,54935,USA,43.759677,-88.447013,,True
LINCOLN HOUSE,,,KAREN KELM,,,,,,,,,,,,,,,(920) 922-9554,,,,,,,,,,,,,,,,CBRF,Residential Care,"1,901/2,978",,,342 FOREST AVE,,,FOND DU LAC, FOND DU LAC,,WI,,54935,USA,43.7762024,-88.45947029999999,,True
MAPLE MEADOWS ASSISTED LIVING,,,NATHAN BASCOM,,,,,,,,,,,,,,,(920) 245-3093,,,,,,,,,,,,,,,,CBRF,Residential Care,"2,000/3,800",,,1001 PRIMROSE LANE,,,FOND DU LAC, FOND DU LAC,,WI,,54935,USA,43.7689074,-88.41317250000002,,True
ROBERT E BERRY HOUSE,,,BEVERLEY GUDEX,,,,,,,,,,,,,,,(920) 922-8580,,,,,,,,,,,,,,,,CBRF,Residential Care,"2,324/2,573",,,178 SIXTH ST,,,FOND DU LAC, FOND DU LAC,,WI,,54935,USA,43.7715712,-88.4403024,,True
TARFA TERRACE,,,CARLY CLINE,,,,,,,,,,,,,,,(920) 921-9520,,,,,,,,,,,,,,,,CBRF,Residential Care,"3,452/5,308",,,54 W ARNDT ST,,,FOND DU LAC, FOND DU LAC,,WI,,54935,USA,43.786241,-88.4490096,,True
WOODLANDS OF FOND DU LAC LLC,,,SUE HENDRICKSON,,,,,,,,,,,,,,,(920) 922-8770,,,,,,,,,,,,,,,,CBRF,Residential Care,"3,750/4,100",,,1446 LYNN AVE,,,FOND DU LAC, FOND DU LAC,,WI,,54937,USA,43.7802516,-88.39195,,True
WOODLANDS SENIOR PARK,,,SUZANNE HENDRICKSON,,,,,,,,,,,,,,,(920) 273-0335,,,,,,,,,,,,,,,,CBRF,Residential Care,"3,650/4,000",,,87 WISCONSIN AMERICAN DR,,,FOND DU LAC, FOND DU LAC,,WI,,54935,USA,43.7795303,-88.39516119999999,,True
WOODLANDS SENIOR PARK,,,SUZANNE HENDRICKSON,,,,,,,,,,,,,,,(920) 922-8770,,,,,,,,,,,,,,,,CBRF,Residential Care,"3,650/4,000",,,77 WISCONSIN AMERICAN DR,,,FOND DU LAC, FOND DU LAC,,WI,,54935,USA,43.778887,-88.3939286,,True
TOUCHSTONE LIVING CENTER LLC,,,CYNTHIA KILGAS,,,,,,,,,,,,,,,(920) 922-7242,,,,,,,,,,,,,,,,CBRF,Residential Care,"4,500/5,500",,,300 WINNEBAGO ST,,,N FOND DU LAC, FOND DU LAC,,WI,,54937,USA,43.807103,-88.489662,,True
BARRETT HOUSE OF RIPON,,,BRIDGET VREDEVELD,,,,,,,,,,,,,,,(920) 748-2999,,,,,,,,,,,,,,,,CBRF,Residential Care,"3,600/4,500",,,632 HILLTOP LANE,,,RIPON, FOND DU LAC,,WI,,54971,USA,43.83660750000001,-88.8293496,,True
COPPERLEAF VILLAGE OF RIPON,,,KATHLEEN FOX,,,,,,,,,,,,,,,(920) 896-0440,,,,,,,,,,,,,,,,CBRF,Residential Care,"3,850/5,850",,,1002 EUREKA ST,,,RIPON, FOND DU LAC,,WI,,54971,USA,43.858298,-88.837571,,True
PLEASANT PARK PLACE,,,GRETCHEN LAMBERT,,,,,,,,,,,,,,,(920) 896-0036,,,,,,,,,,,,,,,,CBRF,Residential Care,"3,500/5,000",,,1450 PLEASANT ST,,,RIPON, FOND DU LAC,,WI,,54971,USA,43.8320352,-88.8316746,,True
PRAIRIE PLACE CBRF,,,BOBBI HJELMBERG,,,,,,,,,,,,,,,(920) 748-8903,,,,,,,,,,,,,,,,CBRF,Residential Care,"2,600/4,000",,,745 E OSHKOSH ST,,,RIPON, FOND DU LAC,,WI,,54971,USA,43.85169,-88.82133999999999,,True
WILLOW RIDGE SENIOR LIVING,,,LORRIE RYCZEK,,,,,,,,,,,,,,,(920) 745-2959,,,,,,,,,,,,,,,,CBRF,Residential Care,"3,600/4,800",,,530 N UNION ST,,,RIPON, FOND DU LAC,,WI,,54971,USA,43.8525675,-88.85030019999999,,True
WOLVERTON GLEN ASSISTED LIVING,,,LINZI GAZGA PARISH,,,,,,,,,,,,,,,(920) 748-5638,,,,,,,,,,,,,,,,CBRF,Residential Care,"2,650/3,195",,,50 WOLVERTON AVE,,,RIPON, FOND DU LAC,,WI,,54971,USA,43.85705999999999,-88.83767999999999,,True
TOWER VIEW VILLA CORP,,,BARBARA SULLIVAN,,,,,,,,,,,,,,,(920) 872-2550,,,,,,,,,,,,,,,,CBRF,Residential Care,"3,150/3,700",,,401 N GRANT ST,,,ROSENDALE, FOND DU LAC,,WI,,54974,USA,43.81408499999999,-88.681004,,True
MARVINS MANOR IV,,,BARBARA HENDRICKS,,,,,,,,,,,,,,,(920) 324-9755,,,,,,,,,,,,,,,,CBRF,Residential Care,"3,250/3,750",,,10 PLUIM DR,,,WAUPUN, FOND DU LAC,,WI,,53963,USA,43.6346318,-88.7188224,,True
MAPLEWOOD VILLA LLC CBRF,,,JOEL KOLL,,,,,,,,,,,,,,,(715) 336-2044,,,,,,,,,,,,,,,,CBRF,Residential Care,"2,500/4,600",,,9343 STATE HWY 101,,,ARMSTRONG CREEK, FOREST,,WI,,54103,USA,45.7116354,-88.43286909999999,,False
BOSCOBEL VISTA,,,JESSICA BOBER,,,,,,,,,,,,,,,(608) 987-0003,,,,,,,,,,,,,,,,CBRF,Residential Care,"3,255/5,992",,,111 VISTA PLACE,,,BOSCOBEL, GRANT,,WI,,53805,USA,43.13174739999999,-90.7147324,,True
CLA LANCASTER,,,JOANNE ZUTZ,,,,,,,,,,,,,,,(608) 723-4987,,,,,,,,,,,,,,,,CBRF,Residential Care,"2,648/5,951",,,1330 ARBOR OAKS LANE,,,LANCASTER, GRANT,,WI,,53813,USA,42.83713789999999,-90.7043424,,True
MORNINGSIDE ASSISTED LIVING,,,RENAE CREASEY,,,,,,,,,,,,,,,(608) 723-5232,,,,,,,,,,,,,,,,CBRF,Residential Care,"4,260/4,560",,,850 CITY LIMITS ST,,,LANCASTER, GRANT,,WI,,53813,USA,42.8577869,-90.69915499999999,,True
GRACIOUS WAY ASSISTED LIVING,,,MANDI BROWN,,,,,,,,,,,,,,,(608) 739-3450,,,,,,,,,,,,,,,,CBRF,Residential Care,"3,595/5,842",,,435 W WALNUT ST,,,MUSCODA, GRANT,,WI,,53573,USA,43.1864028,-90.4479491,,True
LYGHTHOUSE LLC,,,ROXANNE LYGHT,,,,,,,,,,,,,,,(608) 348-4944,,,,,,,,,,,,,,,,CBRF,Residential Care,"3,900/6,300",,,1976 OLD LANCASTER RD,,,PLATTEVILLE, GRANT,,WI,,53818,USA,42.7666917,-90.5222951,,True
PARK PLACE ASSISTED LIVING,,,ANGIE PIERCE,,,,,,,,,,,,,,,(608) 243-8800,,,,,,,,,,,,,,,,CBRF,Residential Care,"4,350/4,500",,,1015 N ELM ST,,,PLATTEVILLE, GRANT,,WI,,53818,USA,42.7447269,-90.4789703,,True
PARK PLACE MEMORY CARE,,,ANGIE PIERCE,,,,,,,,,,,,,,,(608) 348-5311,,,,,,,,,,,,,,,,CBRF,Residential Care,"5,130/5,280",,,1155 N ELM ST,,,PLATTEVILLE, GRANT,,WI,,53818,USA,42.744927,-90.47952599999999,,True
PLATTEVILLE ASSISTED CARE,,,DEBRA WILSON,,,,,,,,,,,,,,,(608) 348-6622,,,,,,,,,,,,,,,,CBRF,Residential Care,"3,385/4,175",,,1735 N WATER ST,,,PLATTEVILLE, GRANT,,WI,,53818,USA,42.7543469,-90.4645801,,True
SIENNA CREST PLATTEVILLE,,,SUE WHITE,,,,,,,,,,,,,,,(608) 348-6450,,,,,,,,,,,,,,,,CBRF,Residential Care,"3,380/5,070",,,1480 BEARS CT,,,PLATTEVILLE, GRANT,,WI,,53818,USA,42.7187482,-90.4892371,,True
VALLEY PARK,,,LOUANN HARMEL,,,,,,,,,,,,,,,(608) 862-3447,,,,,,,,,,,,,,,,CBRF,Residential Care,"3,400/4,000",,,750 CAROLAN DR,,,ALBANY, GREEN,,WI,,53502,USA,42.7161088,-89.43055079999999,,True
HEARTSONG ASSISTED LIVING,,,JUDY JENNESS,,,,,,,,,,,,,,,(608) 424-6787,,,,,,,,,,,,,,,,CBRF,Residential Care,"2,450/4,500",,,415 EAST AVE,,,BELLEVILLE, GREEN,,WI,,53508,USA,42.8553716,-89.5290339,,True
CARING HANDS 2 INC,,,STEVE VANDLEN,,,,,,,,,,,,,,,(608) 897-2451,,,,,,,,,,,,,,,,CBRF,Residential Care,"2,800/3,400",,,605 E 4TH AVE,,,BRODHEAD, GREEN,,WI,,53520,USA,42.62391189999999,-89.3735461,,True
MORNING SUN CARE HOME,,,JAY KENNEDY,,,,,,,,,,,,,,,(608) 897-8211,,,,,,,,,,,,,,,,CBRF,Residential Care,"1,700/2,300",,,N4166 COUNTY ROAD E,,,BRODHEAD, GREEN,,WI,,53520,USA,42.6694952,-89.40476269999999,,False
AZURA MEMORY CARE MONROE,,,PAULETTE WILLIAMS,,,,,,,,,,,,,,,(608) 329-6340,,,,,,,,,,,,,,,,CBRF,Residential Care,"4,500/6,100",,,2800 6TH AVE,,,MONROE, GREEN,,WI,,53566,USA,42.5855779,-89.6529712,,True
AZURA MEMORY CARE MONROE 2,,,PAULETTE WILLIAMS,,,,,,,,,,,,,,,(608) 329-6340,,,,,,,,,,,,,,,,CBRF,Residential Care,"4,750/6,400",,,2810 6TH AVE,,,MONROE, GREEN,,WI,,53566,USA,42.5855085,-89.6522483,,True
COMMUNITY LIVING HOME OPTIONS LLC,,,ELIZABETH ANDERSON,,,,,,,,,,,,,,,(608) 329-4991,,,,,,,,,,,,,,,,CBRF,Residential Care,"3,750/5,800",,,215 3RD ST,,,MONROE, GREEN,,WI,,53566,USA,42.6094032,-89.6556875,,True
GRACELAND MANOR II,,,JODY E NEUENSCHWANDER,,,,,,,,,,,,,,,(608) 329-7090,,,,,,,,,,,,,,,,CBRF,Residential Care,"3,000/3,800",,,320 W 17TH ST,,,MONROE, GREEN,,WI,,53566,USA,42.5939434,-89.66127499999999,,True
GRACELAND MANOR III,,,JODY NEUENSCHWANDER,,,,,,,,,,,,,,,(608) 329-7090,,,,,,,,,,,,,,,,CBRF,Residential Care,"3,300/6,000",,,316 WEST 17TH ST,,,MONROE, GREEN,,WI,,53566,USA,42.593961,-89.661113,,True
BERLIN PINES INC,,,CINDY WEISENSEL,,,,,PO BOX 900,,,,,,,,,,(920) 290-3090,,,,,,,,,,,,,,,,CBRF,Residential Care,"4,200/6,100",,,642 BROADWAY ST,,,BERLIN, GREEN LAKE,,WI,,54923,USA,43.9682557,-88.96945679999999,,True
BROWN WILCOX RETIREMENT HOME,,,NICOLE TER BEEST,,,,,PO BOX 150,,,,,,,,,,(920) 361-2552,,,,,,,,,,,,,,,,CBRF,Residential Care,"2,650/3,500",,,347 E HURON ST,,,BERLIN, GREEN LAKE,,WI,,54923,USA,43.96876400000001,-88.936306,,True
MOUND STREET,,,CARLA BRUNN-ALFERI,,,,,,,,,,,,,,,(920) 361-1395,,,,,,,,,,,,,,,,CBRF,Residential Care,"5,519/5,519",,,284 MOUND ST,,,BERLIN, GREEN LAKE,,WI,,54923,USA,43.9627401,-88.9523031,,True
PATRIOT PLACE CBRF,,,BOBBIE DYCH,,,,,,,,,,,,,,,(920) 361-3007,,,,,,,,,,,,,,,,CBRF,Residential Care,"2,600/4,300",,,609 BROADWAY,,,BERLIN, GREEN LAKE,,WI,,54923,USA,43.9713361,-88.96793149999999,,True
KINDREDHEARTS GREEN LAKE,,,KRISTI BEDNAREK,,,,,,,,,,,,,,,(920) 294-1000,,,,,,,,,,,,,,,,CBRF,Residential Care,"3,456/5,169",,,860 SUNNYSIDE RD,,,GREEN LAKE, GREEN LAKE,,WI,,54941,USA,43.8442879,-88.9246691,,True
BARRETT HOUSE OF MARKESAN,,,BRIDGET VREDEVELD,,,,,,,,,,,,,,,(920) 398-2989,,,,,,,,,,,,,,,,CBRF,Residential Care,"3,600/4,500",,,185 W JOHN STREET,,,MARKESAN, GREEN LAKE,,WI,,53946,USA,43.7072293,-88.99091349999999,,True
MARTHAS INC,,,MARIETTA BENTLEY,,,,,,,,,,,,,,,(920) 295-4222,,,,,,,,,,,,,,,,CBRF,Residential Care,"1,960/3,500",,,404 W WATER ST,,,PRINCETON, GREEN LAKE,,WI,,54968,USA,43.8502006,-89.1274352,,True
CORNERSTONE FOUNDATION KENZIE STREET CBRF,,,,,,,,PO BOX 150,,,,,,,,,,(608) 924-2611,,,,,,,,,,,,,,,,CBRF,Residential Care,"3,200/3,800",,,201 N KENZIE ST,,,BARNEVELD, IOWA,,WI,,53507,USA,43.0150555,-89.8975239,,True
CRESTRIDGE ASSISTED LIVING OF DODGEVILLE LLC,,,BRENDA M WELSH,,,,,,,,,,,,,,,(608) 935-0211,,,,,,,,,,,,,,,,CBRF,Residential Care,"4,260/5,340",,,219 EAST GRACE ST,,,DODGEVILLE, IOWA,,WI,,53533,USA,42.9708478,-90.1247159,,True
SIENNA CREST DODGEVILLE,,,SUSAN WHITE,,,,,,,,,,,,,,,(608) 935-9430,,,,,,,,,,,,,,,,CBRF,Residential Care,"3,380/4,880",,,404 EAST MADISON ST,,,DODGEVILLE, IOWA,,WI,,53533,USA,42.9692089,-90.1246605,,True
UPLAND POINT CORPORATION SUNNYSIDE EAST,,,JESSICA BOBER,,,,,,,,,,,,,,,(608) 987-0003,,,,,,,,,,,,,,,,CBRF,Residential Care,"3,650/6,083",,,207 W PARRY ST,,,DODGEVILLE, IOWA,,WI,,53533,USA,42.9549312,-90.13307789999999,Southside,True
UPLAND POINT CORPORATION SUNNYSIDE WEST,,,JESSICA BOBER,,,,,,,,,,,,,,,(608) 987-0003,,,,,,,,,,,,,,,,CBRF,Residential Care,"4,217/6,938",,,209 W PARRY ST,,,DODGEVILLE, IOWA,,WI,,53533,USA,42.95484,-90.133504,Southside,True
SIENNA CREST MINERAL POINT,,,SUE WHITE,,,,,,,,,,,,,,,(608) 987-4565,,,,,,,,,,,,,,,,CBRF,Residential Care,"3,790/5,790",,,210 COPPER ST,,,MINERAL POINT, IOWA,,WI,,53565,USA,42.864667,-90.16789299999999,,True
SPRING HOUSE,,,JESSICA BOBER,,,,,,,,,,,,,,,(608) 987-0003,,,,,,,,,,,,,,,,CBRF,Residential Care,"3,194/6,240",,,404 PINE ST,,,MINERAL POINT, IOWA,,WI,,53565,USA,42.865271,-90.18048309999999,,True
MAPLE LEAF GROUP HOME,,,DONNA REINERIO,,,,,PO BOX 218,,,,,,,,,,(715) 561-4515,,,,,,,,,,,,,,,,CBRF,Residential Care,"2,316/2,316",,,5630 W US HWY 2,,,HURLEY, IRON,,WI,,54534,USA,46.47301169999999,-90.204123,,False
ATRIUM SENIOR LIVING OF BLACK RIVER FALLS,,,LAURIANN GROSSKOPF,,,,,,,,,,,,,,,(715) 284-4396,,,,,,,,,,,,,,,,CBRF,Residential Care,"3,100/3,720",,,109 N 14TH STREET,,,BLACK RIVER FALLS, JACKSON,,WI,,54615,USA,44.2955693,-90.86625959999999,,True
COUNTRY TERRACE BLACK RIVER FALLS,,,ALYSSA HOPFENSPERGER,,,,,PO BOX 3006,,,,,,,,,,(715) 284-2060,,,,,,,,,,,,,,,,CBRF,Residential Care,"2,600/4,100",,,525 E SECOND ST,,,BLACK RIVER FALLS, JACKSON,,WI,,54615,USA,44.2867452,-90.8355083,,True
COUNTRY TERRACE BLACK RIVER FALLS II,,,ALYSSA HOPTENSPERGER,,,,,PO BOX 3006,,,,,,,,,,(715) 284-2060,,,,,,,,,,,,,,,,CBRF,Residential Care,"3,900/4,800",,,642 E 3RD ST,,,BLACK RIVER FALLS, JACKSON,,WI,,54615,USA,44.2844279,-90.83734170000001,,True
WAZEE HOUSE,,,BRITTANY NESSEL,,,,,,,,,,,,,,,(715) 284-4987,,,,,,,,,,,,,,,,CBRF,Residential Care,"2,129/2,129",,,N5488 HWY 54 W,,,BLACK RIVER FALLS, JACKSON,,WI,,54615,USA,44.2685409,-90.8734099,,False
RJS CARE HOME LLC,,,JILL LABAR,,,,,,,,,,,,,,,(715) 284-0094,,,,,,,,,,,,,,,,CBRF,Residential Care,"1,500/2,050",,,N7525 COUNTY RD A,,,HIXTON, JACKSON,,WI,,54635,USA,44.3419197,-90.91922009999999,,False
AUTUMN WINDS LLC,,,LYNN COOPER,,,,,,,,,,,,,,,(608) 423-9300,,,,,,,,,,,,,,,,CBRF,Residential Care,"2,800/3,750",,,N3767 AIRPORT RD,,,CAMBRIDGE, JEFFERSON,,WI,,53523,USA,42.98257299999999,-88.994368,,False
LONDON LODGE I,,,MARGARET PENNEWELL,,,,,,,,,,,,,,,(920) 648-3171,,,,,,,,,,,,,,,,CBRF,Residential Care,"2,495/3,742",,,W9095 LONDON RD,,,CAMBRIDGE, JEFFERSON,,WI,,53523,USA,43.035511,-88.982877,,False
LONDON LODGE II,,,MARGARET PENNEWELL,,,,,,,,,,,,,,,(920) 648-2309,,,,,,,,,,,,,,,,CBRF,Residential Care,"3,500/11,052",,,W9097 LONDON RD,,,CAMBRIDGE, JEFFERSON,,WI,,53523,USA,43.035041,-88.98347,,False
BIRCH TERRACE,,,SIRA SIBIRWA,,,,,PO BOX 84,,,,,,,,,,(920) 568-4509,,,,,,,,,,,,,,,,CBRF,Residential Care,"2,631/4,700",,,1109 CASWELL ST,,,FORT ATKINSON, JEFFERSON,,WI,,53538,USA,42.935973,-88.85154829999999,,True
BLACK HAWK SENIOR RESIDENCE,,,PAUL ANDREW LOGAN,,,,,,,,,,,,,,,(920) 563-1480,,,,,,,,,,,,,,,,CBRF,Residential Care,"2,600/4,800",,,1 MILWAUKEE AVE WEST,,,FORT ATKINSON, JEFFERSON,,WI,,53538,USA,42.926673,-88.837321,,True
CEDAR HILL,,,CHRISTINE KLITZKIE,,,,,PO BOX 84,,,,,,,,,,(920) 563-4869,,,,,,,,,,,,,,,,CBRF,Residential Care,"4,513/9,459",,,N1366 HWY 12,,,FORT ATKINSON, JEFFERSON,,WI,,53538,USA,42.8895248,-88.81309569999999,,False
CRABAPPLE COURT CBRF,,,HILLARY KLITZKIE,,,,,PO BOX 84,,,,,,,,,,(920) 563-8554,,,,,,,,,,,,,,,,CBRF,Residential Care,"3,232/4,486",,,1315 S MAIN ST,,,FORT ATKINSON, JEFFERSON,,WI,,53538,USA,42.909449,-88.83651599999999,,True
FALCONS NEST CBRF,,,CHRISTINE KLITZKIE,,,,,PO BOX 84,,,,,,,,,,(920) 563-8554,,,,,,,,,,,,,,,,CBRF,Residential Care,"2,900/4,800",,,160 W BLACKHAWK DR,,,FORT ATKINSON, JEFFERSON,,WI,,53538,USA,42.9448506,-88.83942909999999,,True
GOLDEN EAGLE CBRF,,,CHRISTINE KLITZKIE,,,,,PO BOX 84,,,,,,,,,,(920) 397-7292,,,,,,,,,,,,,,,,CBRF,Residential Care,"4,687/6,279",,,216 W BLACKHAWK DR,,,FORT ATKINSON, JEFFERSON,,WI,,53538,USA,42.9435764,-88.8406871,,True
HIL APPLE HOUSE,,,SARA FOERSTER,,,,,,,,,,,,,,,(920) 563-5723,,,,,,,,,,,,,,,,CBRF,Residential Care,"4,802/4,802",,,1621 PREMIER PL,,,FORT ATKINSON, JEFFERSON,,WI,,53538,USA,42.93686400000001,-88.8659387,,True
HIL COMMONWEALTH HOME,,,REBECCA TEUBERT,,,,,,,,,,,,,,,(920) 563-3245,,,,,,,,,,,,,,,,CBRF,Residential Care,"5,638/5,638",,,1501 COMMONWEALTH DR,,,FORT ATKINSON, JEFFERSON,,WI,,53538,USA,42.9383765,-88.86006189999999,,True
HIL LINDEN CORNER,,,SARA FOERSTER,,,,,,,,,,,,,,,(920) 563-4783,,,,,,,,,,,,,,,,CBRF,Residential Care,"5,757/5,757",,,325 W BLACKHAWK DR,,,FORT ATKINSON, JEFFERSON,,WI,,53538,USA,42.9433161,-88.8419249,,True
HIL SANDSTONE,,,SARA FOERSTER,,,,,,,,,,,,,,,(920) 563-5134,,,,,,,,,,,,,,,,CBRF,Residential Care,"5,330/5,330",,,1533 S MAIN ST,,,FORT ATKINSON, JEFFERSON,,WI,,53538,USA,42.9041181,-88.8371087,,True
HIL WILLOW COURT,,,REBECCA TEUBERT,,,,,,,,,,,,,,,(920) 568-1519,,,,,,,,,,,,,,,,CBRF,Residential Care,"5,719/5,719",,,575 BLACKHAWK DR,,,FORT ATKINSON, JEFFERSON,,WI,,53538,USA,42.9433139,-88.8440145,,True
MAPLE RUN CBRF,,,CHRISTINE KLITZKIE,,,,,PO BOX 84,,,,,,,,,,(920) 568-0413,,,,,,,,,,,,,,,,CBRF,Residential Care,"4,331/5,653",,,N2489 WENHAM RD,,,FORT ATKINSON, JEFFERSON,,WI,,53538,USA,42.93038300000001,-88.754881,,False
OAK GROVE CBRF,,,CHRISTINE KLITZKIE,,,,,PO BOX 84,,,,,,,,,,(262) 593-5508,,,,,,,,,,,,,,,,CBRF,Residential Care,"4,105/6,316",,,W3343 HOFFMAN RD,,,FORT ATKINSON, JEFFERSON,,WI,,53538,USA,42.91470200000001,-88.70212200000002,,False
REM WISCONSIN II DOMMO DRIVE,,,SHELLEY HANSEN-BLAKE,,,,,,,,,,,,,,,(920) 568-4526,,,,,,,,,,,,,,,,CBRF,Residential Care,"5,567/5,841",,,1501 DOMMO DR,,,FORT ATKINSON, JEFFERSON,,WI,,53538,USA,42.90483990000001,-88.84554659999999,,True
REM WISCONSIN II STACY LANE,,,SHELLEY HANSEN-BLAKE,,,,,,,,,,,,,,,(920) 568-4533,,,,,,,,,,,,,,,,CBRF,Residential Care,"5,163/5,838",,,1403 STACY LN,,,FORT ATKINSON, JEFFERSON,,WI,,53538,USA,42.905509,-88.844788,,True
ROLLING MEADOWS,,,CHRISTOPHER COHEN,,,,,,,,,,,,,,,(920) 563-9075,,,,,,,,,,,,,,,,CBRF,Residential Care,"5,054/5,536",,,N464 POEPPEL RD,,,FORT ATKINSON, JEFFERSON,,WI,,53538,USA,42.8580309,-88.861842,,False
SIENNA CREST FORT ATKINSON,,,SUE WHITE,,,,,,,,,,,,,,,(920) 568-1840,,,,,,,,,,,,,,,,CBRF,Residential Care,"4,475/6,475",,,1531 COMMONWEALTH DR,,,FORT ATKINSON, JEFFERSON,,WI,,53538,USA,42.9385971,-88.8626235,,True
STEPPING STONE CBRF,,,ANDREW SAMSON,,,,,PO BOX 84,,,,,,,,,,(920) 568-8250,,,,,,,,,,,,,,,,CBRF,Residential Care,"3,300/4,700",,,318 N MAIN ST,,,FORT ATKINSON, JEFFERSON,,WI,,53538,USA,42.93213189999999,-88.83675470000001,,True
WELLINGTON MEADOWS,,,JENNIFER WELTZIN,,,,,,,,,,,,,,,(920) 563-2199,,,,,,,,,,,,,,,,CBRF,Residential Care,"3,156/4,156",,,525 MEMORIAL DR,,,FORT ATKINSON, JEFFERSON,,WI,,53538,USA,42.9351977,-88.82475199999999,,True
WELLINGTON PLACE OF FORT ATKINSON,,,JENNIFER WELTZIN,,,,,,,,,,,,,,,(920) 563-6959,,,,,,,,,,,,,,,,CBRF,Residential Care,"3,200/3,982",,,200 S WATER ST WEST,,,FORT ATKINSON, JEFFERSON,,WI,,53538,USA,42.928247,-88.8403697,,True
BETHESDA LUTHERAN COMMUNITIES HYER,,,DEBRA REUTELL,,,,,,,,,,,,,,,(920) 674-3060,,,,,,,,,,,,,,,,CBRF,Residential Care,"6,331/6,331",,,411 HYER DR,,,JEFFERSON, JEFFERSON,,WI,,53549,USA,43.010073,-88.815956,,True
EAGLE VIEW MANOR,,,MARK ROEGNER,,,,,,,,,,,,,,,(920) 674-2260,,,,,,,,,,,,,,,,CBRF,Residential Care,"2,950/5,000",,,881 COLLINS ROAD,,,JEFFERSON, JEFFERSON,,WI,,53549,USA,42.99160499999999,-88.823978,,True
JEFFERSON MEMORY CARE LLC,,,NOELLE WIEBUSCH,,,,,,,,,,,,,,,(715) 450-3391,,,,,,,,,,,,,,,,CBRF,Residential Care,"4,800/10,800",,,414 COUNTY HWY Y,,,JEFFERSON, JEFFERSON,,WI,,53549,USA,43.0019058,-88.8068061,,True
