name,contact_first_name,contact_last_name,contact_name,email,contact_email,fax,mailing_address_line_1,mailing_address_line_2,mailing_city,mailing_contact_first_name,mailing_contact_last_name,mailing_contact_name,mailing_country,mailing_county,mailing_postalcode,mailing_province,provider_name,primary_phone,secondary_phone,twitter,website,source,contact_occupation,dsgne_first_name,dsgne_last_name,admin_name,co_address_line_1,co_address_line_2,co_company,co_city,co_postalcode,co_province,ombudsman_phone,typeofcare,typeofcare2,low_high_rate,low_rate,high_rate,address_line_1,address_line_2,address_directions,city,municipality,region,province,state_id,postal_code,country,latitude,longitude,neighborhood,addr_valid
DOVE HEALTHCARE BARRON ASSISTED LIVING,,,TOMMY DAVIDSON,,,,,,,,,,,,,,,(423) 227-5957,,,,,,,,,,,,,,,,RCAC,Residential Care,"572/1,467",,,1333 MEMORIAL Dr,,,BARRON, BARRON,,WI,,54812,USA,45.397153,-91.838573,,True
ATRIUM SENIOR LIVING OF CHETEK,,,DYLAN FAULKNER,,,,,,,,,,,,,,,(715) 924-4891,,,,,,,,,,,,,,,,RCAC,Residential Care,"1,500/3,600",,,708 TAINTER ST,,,CHETEK, BARRON,,WI,,54728,USA,45.313259,-91.658488,,False
BRENTWOOD SENIOR LIVING INC,,,KEVIN RUNDHAUG,,,,,P O BOX 155,,,,,,,,,,(715) 736-7400,,,,,,,,,,,,,,,,RCAC,Residential Care,"2,595/3,945",,,633 CAMERON RD,,,RICE LAKE, BARRON,,WI,,54868,USA,45.4923958,-91.75161,,False
WOODSTONE SENIOR LIVING RCAC,,,JACOB WORK,,,,,PO BOX 172,,,,,,,,,,(715) 736-6060,,,,,,,,,,,,,,,,RCAC,Residential Care,"2,277/3,085",,,950 BEAR PAW Ave,,,RICE LAKE, BARRON,,WI,,54868,USA,45.5110311,-91.75944129999999,,True
BIRCH HAVEN NORTH RCAC,,,DALE KELM,,,,,,,,,,,,,,,(715) 373-0078,,,,,,,,,,,,,,,,RCAC,Residential Care,"2,400/4,800",,,320 SUPERIOR Ave,,,WASHBURN, BAYFIELD,,WI,,54891,USA,46.681521,-90.88244999999999,,True
CHEQUAMEGON AREA ASSISTED LIVING,,,RICH CARBON,,,,,,,,,,,,,,,(715) 292-4550,,,,,,,,,,,,,,,,RCAC,Residential Care,"2,226/2,650",,,320 SUPERIOR AVE,,,WASHBURN, BAYFIELD,,WI,,54891,USA,46.681521,-90.88244999999999,,False
RENAISSANCE DE PERE,,,MICHAEL MILLER,,,,,,,,,,,,,,,(920) 983-5100,,,,,,,,,,,,,,,,RCAC,Residential Care,"2,725/3,950",,,250 SOUTH 9TH ST,,,DE PERE, BROWN,,WI,,54115,USA,44.4481299,-88.0865371,,False
AGE WELL CENTRE FOR LIFE ENRICHMENT,,,LORI ALLEN,,,,,,,,,,,,,,,(920) 468-9174,,,,,,,,,,,,,,,,RCAC,Residential Care,"2,176/2,409",,,246 BERGER ST,,,GREEN BAY, BROWN,,WI,,54302,USA,44.5056184,-87.97460579999999,,False
ALLOUEZ SUNRISE VILLAGE RESIDENTIAL CARE APT,,,AMY VANELZEN,,,,,,,,,,,,,,,(920) 591-1822,,,,,,,,,,,,,,,,RCAC,Residential Care,,,,279 E ST JOSEPH,,,GREEN BAY, BROWN,,WI,,54301,USA,44.4854608,-88.01851459999999,,False
BELLEVUE,,,MARY ROGALA,,,,,,,,,,,,,,,(920) 337-0771,,,,,,,,,,,,,,,,RCAC,Residential Care,"3,295/4,370",,,1660 HOFFMAN RD,,,GREEN BAY, BROWN,,WI,,54311,USA,44.4531565,-88.0006069,,False
BROOKVIEW MEADOWS,,,KIRSTEN HUTCHISON,,,,,,,,,,,,,,,(972) 308-8397,,,,,,,,,,,,,,,,RCAC,Residential Care,"2,995/5,275",,,1740 CONDOR LN,,,GREEN BAY, BROWN,,WI,,54313,USA,44.58817370000001,-88.08057079999999,,False
MORAINE RIDGE,,,LORRIE RYCZEK,,,,,,,,,,,,,,,(920) 468-3111,,,,,,,,,,,,,,,,RCAC,Residential Care,,,,2929 SAINT ANTHONY DR,,,GREEN BAY, BROWN,,WI,,54311,USA,44.5208542,-87.9383242,,False
OAK PARK PLACE OF GREEN BAY,,,JOHN CORPUS,,,,,,,,,,,,,,,(920) 461-2533,,,,,,,,,,,,,,,,RCAC,Residential Care,,,,421 ERIE RD,,,GREEN BAY, BROWN,,WI,,54311,USA,44.49253629999999,-87.9069275,,False
REBEKAH HAVEN,,,SHERRI STOCK,,,,,,,,,,,,,,,(920) 435-4810,,,,,,,,,,,,,,,,RCAC,Residential Care,"3,268/4,918",,,826 GRIGNON ST,,,GREEN BAY, BROWN,,WI,,54301,USA,44.4965471,-88.01694859999999,,False
WAYSIDE PARKVIEW ESTATES,,,ERIC ROFFERS,,,,,,,,,,,,,,,(920) 864-2702,,,,,,,,,,,,,,,,RCAC,Residential Care,"1,345/2,745",,,3838 CHURCH VIEW CT,,,GREENLEAF, BROWN,,WI,,54126,USA,44.24883500000001,-87.947245,,False
EMERALD BAY ASSISTED LIVING,,,KATHERINE R TEGEN,,,,,,,,,,,,,,,(920) 378-5239,,,,,,,,,,,,,,,,RCAC,Residential Care,"3,000/4,500",,,650 CENTENNIAL CENTRE BLVD,,,HOBART, BROWN,,WI,,54155,USA,44.5676524,-88.16188799999999,,False
NEW PERSPECTIVE-HOWARD,,,STACIE HACKL,,,,,,,,,,,,,,,(920) 489-8600,,,,,,,,,,,,,,,,RCAC,Residential Care,"1,734/5,813",,,2790 ELM TREE HILL,,,HOWARD, BROWN,,WI,,54313,USA,44.63371069999999,-88.1241565,,False
HOMEPLACE OF MONDOVI LLC (THE),,,SARAH MORGAN,,,,,,,,,,,,,,,(715) 926-4777,,,,,,,,,,,,,,,,RCAC,Residential Care,"3,250/6,271",,,158 EAST MAIN St,,,MONDOVI, BUFFALO,,WI,,54755,USA,44.5681072,-91.66988409999999,,True
HERITAGE APARTMENT REDEVELOPMENT LLC,,,TONJA PALMER,,,,,,,,,,,,,,,(920) 756-3041,,,,,,,,,,,,,,,,RCAC,Residential Care,408/680,,,108 NATIONAL AVE,,,BRILLION, CALUMET,,WI,,54110,USA,44.16815699999999,-88.0634479,,False
OAK PARK PLACE OF MENASHA,,,KARA LUDLUM,,,,,,,,,,,,,,,(920) 702-0000,,,,,,,,,,,,,,,,RCAC,Residential Care,"2,550/2,995",,,2205 MIDWAY Rd,,,MENASHA, CALUMET,,WI,,54952,USA,44.2259199,-88.39287589999999,,True
ATRIUM SENIOR LIVING OF BLOOMER RCAC,,,CRYSTAL A FRAZER,,,,,,,,,,,,,,,(973) 339-8892,,,,,,,,,,,,,,,,RCAC,Residential Care,"3,425/5,775",,,1900 PRIDDY ST,,,BLOOMER, CHIPPEWA,,WI,,54724,USA,45.09677799999999,-91.49277599999999,,False
CHIPPEWA MANOR RETIREMENT CENTER,,,KAREN DAVIS-ROBINSON,,,,,,,,,,,,,,,(715) 726-2123,,,,,,,,,,,,,,,,RCAC,Residential Care,"1,482/1,669",,,756 IRVINE St,,,CHIPPEWA FALLS, CHIPPEWA,,WI,,54729,USA,44.916982,-91.3869069,,True
COMFORTS OF HOME CHIPPEWA FALLS RCAC,,,SUSAN CARLSON,,,,,,,,,,,,,,,(715) 726-2527,,,,,,,,,,,,,,,,RCAC,Residential Care,"2,900/6,120",,,1224 PUMPHOUSE RD,,,CHIPPEWA FALLS, CHIPPEWA,,WI,,54729,USA,44.9444334,-91.36650519999999,,False
WISSOTA PLACE,,,ANDREW KEARNS,,,,,,,,,,,,,,,(715) 720-9710,,,,,,,,,,,,,,,,RCAC,Residential Care,"7,365/8,324",,,2801 COUNTY HWY 1,,,CHIPPEWA FALLS, CHIPPEWA,,WI,,54729,USA,44.9510208,-91.3571317,,True
HOMEPLACE OF STANLEY LLC (THE),,,JUDY HULS,,,,,,,,,,,,,,,(715) 644-2136,,,,,,,,,,,,,,,,RCAC,Residential Care,"3,200/3,465",,,225 E FOURTH AVE,,,STANLEY, CHIPPEWA,,WI,,54768,USA,44.9624384,-90.9348605,,False
COLBY RETIREMENT COMMUNITY,,,AMANDA HAUPT,,,,,,,,,,,,,,,(715) 223-1612,,,,,,,,,,,,,,,,RCAC,Residential Care,"3,490/3,490",,,510 W WAUSAU ST,,,COLBY, CLARK,,WI,,54421,USA,44.9104901,-90.32169909999999,,False
NEILLSVILLE RETIREMENT COMMUNITY,,,SUE PETERSON,,,,,,,,,,,,,,,(715) 743-6700,,,,,,,,,,,,,,,,RCAC,Residential Care,"3,340/3,340",,,1211 LLOYD ST,,,NEILLSVILLE, CLARK,,WI,,54456,USA,44.5653734,-90.5910583,,False
TRADITIONS ASSISTED LIVING,,,JASON HAZUGA,,,,,,,,,,,,,,,(715) 456-4269,,,,,,,,,,,,,,,,RCAC,Residential Care,"2,200/2,750",,,418 E STANLEY St,,,THORP, CLARK,,WI,,54771,USA,44.959072,-90.79504539999999,,True
MEADOWS OF FALL RIVER (THE),,,MARILYN GREEN,,,,,,,,,,,,,,,(920) 484-6171,,,,,,,,,,,,,,,,RCAC,Residential Care,"2,600/3,150",,,101 HOMETOWN AVE,,,FALL RIVER, COLUMBIA,,WI,,53932,USA,43.3952079,-89.0331316,,False
HERITAGE HOUSE OF PORTAGE,,,COLLEEN NALL,,,,,,,,,,,,,,,(608) 745-3312,,,,,,,,,,,,,,,,RCAC,Residential Care,"500/5,000",,,2685 AIRPORT Rd,,,PORTAGE, COLUMBIA,,WI,,53901,USA,43.56220059999999,-89.4765295,,True
PORTAGE RCAC,,,DAWN KOEPPEL,,,,,,,,,,,,,,,(608) 745-0331,,,,,,,,,,,,,,,,RCAC,Residential Care,"2,700/3,700",,,215 NORTHRIDGE DR,,,PORTAGE, COLUMBIA,,WI,,53901,USA,43.56776240000001,-89.4738872,,False
RESIDENCE AT BLUFF HAVEN,,,ALESHA ERDENBERGER,,,,,,,,,,,,,,,(608) 326-3200,,,,,,,,,,,,,,,,RCAC,Residential Care,"2,223/4,009",,,720 S FREMONT ST,,,PRAIRIE DU CHIEN, CRAWFORD,,WI,,53821,USA,43.0446366,-91.13107509999999,,False
ASTER ASSISTED LIVING OF COTTAGE GROVE,,,CAITLIN HAESSLY,,,,,,,,,,,,,,,(608) 839-8085,,,,,,,,,,,,,,,,RCAC,Residential Care,"2,700/4,395",,,139 E REYNOLDS ST,,,COTTAGE GROVE, DANE,,WI,,53527,USA,43.0746606,-89.1962204,,False
MILESTONE SENIOR LIVING APARTMENTS,,,MICHELLE STARKEY,,,,,,,,,,,,,,,(608) 413-0451,,,,,,,,,,,,,,,,RCAC,Residential Care,"4,000/4,500",,,1870 MARKET St,,,CROSS PLAINS, DANE,,WI,,53528,USA,43.1125206,-89.6602382,,True
PARKSIDE ASSISTED LIVING,,,JULIA GILES,,,,,,,,,,,,,,,(608) 852-7573,,,,,,,,,,,,,,,,RCAC,Residential Care,"3,775/4,400",,,6902 PARKSIDE Cir,,,DEFOREST, DANE,,WI,,53532,USA,43.22283520000001,-89.3385912,DeForest,True
CHAPEL VALLEY II,,,,,,,,,,,,,,,,,,(608) 276-3449,,,,,,,,,,,,,,,,RCAC,Residential Care,"655/1,025",,,5781 CHAPEL VALLEY Rd,,,FITCHBURG, DANE,,WI,,53711,USA,43.015,-89.43588799999999,,True
WATERFORD AT FITCHBURG (THE),,,VANESSA DANNER,,,,,,,,,,,,,,,(608) 270-9200,,,,,,,,,,,,,,,,RCAC,Residential Care,"798/1,517",,,5440 CADDIS BEND,,,FITCHBURG, DANE,,WI,,53711,USA,43.0208597,-89.4225993,,False
AVALON ASSISTED LIVING COMMUNITY,,,CHERI RIDDLE,,,,,,,,,,,,,,,(608) 274-4350,,,,,,,,,,,,,,,,RCAC,Residential Care,"2,192/2,595",,,2879 FISH HATCHERY RD,,,MADISON, DANE,,WI,,53713,USA,43.029047,-89.41055899999999,,False
CAPITOL LAKES,,,TIM CONROY,,,,,,,,,,,,,,,(608) 283-2137,,,,,,,,,,,,,,,,RCAC,Residential Care,"1,150/2,716",,,333 W MAIN ST,,,MADISON, DANE,,WI,,53703,USA,43.0709178,-89.3867276,,False
GARDENS (THE),,,JOYCE BEHREND,,,,,,,,,,,,,,,(608) 268-5482,,,,,,,,,,,,,,,,RCAC,Residential Care,"295/2,400",,,602 N SEGOE RD,,,MADISON, DANE,,WI,,53705,USA,43.07187769999999,-89.4569616,Hill Farms - University,False
MEADOWMERE OF MADISON,,,JESSICA VETTERKIND,,,,,,,,,,,,,,,(608) 268-9100,,,,,,,,,,,,,,,,RCAC,Residential Care,"3,550/4,475",,,5601 BURKE RD,,,MADISON, DANE,,WI,,53718,USA,43.13502870000001,-89.2824282,,False
OAK PARK PLACE THE GROVE I,,,TONI CARRUTHERS,,,,,,,,,,,,,,,(608) 251-1010,,,,,,,,,,,,,,,,RCAC,Residential Care,"2,850/4,500",,,702 JUPITER DR,,,MADISON, DANE,,WI,,53718,USA,43.088066,-89.283006,,False
OAK PARK PLACE THE GROVE II,,,WILLIAM ARMSTRONG,,,,,,,,,,,,,,,(608) 663-8600,,,,,,,,,,,,,,,,RCAC,Residential Care,,,,719 JUPITER DR,,,MADISON, DANE,,WI,,53718,USA,43.0871669,-89.2819256,,False
OAKWOOD VILLAGE PRAIRIE RIDGE,,,JEAN JACOBSON,,,,,,,,,,,,,,,(608) 230-4510,,,,,,,,,,,,,,,,RCAC,Residential Care,"694/1,154",,,5555 TANCHO DR,,,MADISON, DANE,,WI,,53718,USA,43.1554045,-89.28362849999999,,False
OAKWOOD VILLAGE UNIVERSITY WOODS,,,MICHELLE GODFREY,,,,,,,,,,,,,,,(608) 230-4250,,,,,,,,,,,,,,,,RCAC,Residential Care,"606/2,285",,,6209 MINERAL POINT RD,,,MADISON, DANE,,WI,,53705,USA,43.0599126,-89.4878562,,False
ATTIC ANGEL PLACE,,,DEREK BUCKLEY,,,,,,,,,,,,,,,(608) 662-8842,,,,,,,,,,,,,,,,RCAC,Residential Care,"1,494/7,524",,,8301 OLD SAUK RD,,,MIDDLETON, DANE,,WI,,53562,USA,43.07357280000001,-89.5289102,,False
HERITAGE ASSISTED LIVING MIDDLETON,,,JESSICA LAUER,,,,,,,,,,,,,,,(608) 831-7004,,,,,,,,,,,,,,,,RCAC,Residential Care,"3,600/7,000",,,6234 MAYWOOD AVE,,,MIDDLETON, DANE,,WI,,53562,USA,43.10109480000001,-89.4870611,Amherst,False
HERITAGE MONONA RCAC,,,ADRIANE STUPAR,,,,,,,,,,,,,,,(608) 441-9990,,,,,,,,,,,,,,,,RCAC,Residential Care,"3,500/6,800",,,111 OWEN RD,,,MONONA, DANE,,WI,,53716,USA,43.0577313,-89.3275582,,False
INGLEWOOD,,,DONNA KRUCHTEN,,,,,,,,,,,,,,,(608) 437-8111,,,,,,,,,,,,,,,,RCAC,Residential Care,"2,460/2,995",,,407 N 8TH ST,,,MOUNT HOREB, DANE,,WI,,53572,USA,43.016538,-89.72657099999999,,False
MILESTONE SENIOR LIVING APARTMENTS,,,LISA FORD,,,,,,,,,,,,,,,(608) 205-6800,,,,,,,,,,,,,,,,RCAC,Residential Care,"4,150/4,650",,,2220 LINCOLN AVE,,,STOUGHTON, DANE,,WI,,53589,USA,42.93904860000001,-89.236173,,False
HYLAND PARK SUN PRAIRIE,,,RYAN WAGNER,,,,,,,,,,,,,,,(608) 834-2073,,,,,,,,,,,,,,,,RCAC,Residential Care,"2,400/3,800",,,881 LIBERTY Blvd,,,SUN PRAIRIE, DANE,,WI,,53590,USA,43.19891299999999,-89.22712489999999,,True
NEW PERSPECTIVE SUN PRAIRIE,,,SARAH SEARLES,,,,,,,,,,,,,,,(608) 825-1600,,,,,,,,,,,,,,,,RCAC,Residential Care,"1,642/4,894",,,222 S BRISTOL St,,,SUN PRAIRIE, DANE,,WI,,53590,USA,43.180483,-89.21466749999999,,True
SUN PRAIRIE HEALTH CARE CENTER,,,JANE KJELLSTROM,,,,,,,,,,,,,,,(608) 251-1171,,,,,,,,,,,,,,,,RCAC,Residential Care,"90/1,800",,,228 W MAIN ST,,,SUN PRAIRIE, DANE,,WI,,53590,USA,43.183796,-89.216049,,False
TALLGRASS SENIOR LIVING,,,TOM OSTROM,,,,,,,,,,,,,,,(312) 462-4462,,,,,,,,,,,,,,,,RCAC,Residential Care,"2,268/4,500",,,605 CHASE BLVD,,,SUN PRAIRIE, DANE,,WI,,53590,USA,43.18222249999999,-89.2060027,,False
NOEL MANOR SENIOR LIVING COMPLEX,,,KELLY ROBINSON,,,,,,,,,,,,,,,(612) 414-4515,,,,,,,,,,,,,,,,RCAC,Residential Care,"2,200/2,750",,,471 PRAIRIE WAY BLVD,,,VERONA, DANE,,WI,,53593,USA,43.0042378,-89.5272408,,False
WILLOW POINTE ASSISTED LIVING,,,MATTHEW HOPKINS,,,,,,,,,,,,,,,(608) 848-5701,,,,,,,,,,,,,,,,RCAC,Residential Care,"3,162/5,148",,,1125 N EDGE Trl,,,VERONA, DANE,,WI,,53593,USA,43.0037572,-89.5316465,,True
WAUNAKEE MANOR RCAC,,,EDWIN KRUCHTEN,,,,,,,,,,,,,,,(608) 849-5016,,,,,,,,,,,,,,,,RCAC,Residential Care,"900/1,500",,,800 HOLIDAY Dr,,,WAUNAKEE, DANE,,WI,,53597,USA,43.184214,-89.464942,,True
LANDMARK AT CHARLESTON HOUSE  RCAC,,,LAURI JOHNSON,,,,,,,,,,,,,,,(920) 356-9818,,,,,,,,,,,,,,,,RCAC,Residential Care,"2,995/4,550",,,104 FAKES Ct,,,BEAVER DAM, DODGE,,WI,,53916,USA,43.4457137,-88.854661,,True
STONE TERRACE RETIREMENT LIV CTR,,,JENNIFER BOHLIG,,,,,,,,,,,,,,,(920) 887-6693,,,,,,,,,,,,,,,,RCAC,Residential Care,"804/1,458",,,819 S UNVERSITY AVE,,,BEAVER DAM, DODGE,,WI,,53916,USA,43.4470892,-88.8276592,,False
MATTHEWS OF HORICON,,,TANYA PETERSON,,,,,,,,,,,,,,,(312) 623-0884,,,,,,,,,,,,,,,,RCAC,Residential Care,"3,030/6,500",,,713 HORICON ST,,,HORICON, DODGE,,WI,,53032,USA,43.44598009999999,-88.6508779,,False
HOPE SENIOR LIVING,,,PATTI WELLS,,,,,P O BOX 280,,,,,,,,,,(920) 269-7667,,,,,,,,,,,,,,,,RCAC,Residential Care,"3,275/4,251",,,475 GROVE St,,,LOMIRA, DODGE,,WI,,53048,USA,43.5894307,-88.4379517,,True
CONTINENTAL MANOR,,,JOANN EVANS,,,,,,,,,,,,,,,(920) 326-3171,,,,,,,,,,,,,,,,RCAC,Residential Care,,,,500 S HIGH St,,,RANDOLPH, DODGE,,WI,,53956,USA,43.5330011,-89.0058458,,True
HIGHLAND VILLAGE APARTMENTS II,,,JUDY BEAR,,,,,,,,,,,,,,,(920) 261-6808,,,,,,,,,,,,,,,,RCAC,Residential Care,635/850,,,1408 MEMORIAL DR,,,WATERTOWN, DODGE,,WI,,53098,USA,43.2017403,-88.6959186,,False
CHRISTIAN HOME ASSISTED LIVING CENTER,,,BARBARA WIRKUS,,,,,,,,,,,,,,,(920) 324-9051,,,,,,,,,,,,,,,,RCAC,Residential Care,"1,650/2,775",,,331 BLY St,,,WAUPUN, DODGE,,WI,,53963,USA,43.62845799999999,-88.739285,,True
PRAIRIE RIDGE ASSISTED LIVING,,,MICHAEL EISENGA,,,,,,,,,,,,,,,(920) 324-9810,,,,,,,,,,,,,,,,RCAC,Residential Care,"2,650/3,250",,,819 WILCOX ST,,,WAUPUN, DODGE,,WI,,53963,USA,43.629389,-88.72044919999999,,False
GOOD SAMARITAN SOCIETY-SCANDIA VILLAGE,,,MICHELE NOTZ,,,,,,,,,,,,,,,(920) 854-2317,,,,,,,,,,,,,,,,RCAC,Residential Care,"875/1,430",,,10554 APPLEWOOD RD,,,SISTER BAY, DOOR,,WI,,54234,USA,45.1833396,-87.12048639999999,,False
PINE CREST VILLAGE LLC,,,AMBER PAPKE,,,,,,,,,,,,,,,(920) 746-1280,,,,,,,,,,,,,,,,RCAC,Residential Care,"3,460/5,965",,,1241 N 18TH AVE,,,STURGEON BAY, DOOR,,WI,,54235,USA,44.851094,-87.35209499999999,,False
NEW PERSPECTIVE - SUPERIOR,,,DAVE KELLER,,,,,,,,,,,,,,,(218) 721-2800,,,,,,,,,,,,,,,,RCAC,Residential Care,"2,550/4,050",,,1915 N 34TH ST,,,SUPERIOR, DOUGLAS,,WI,,54880,USA,46.7004592,-92.10781209999999,,False
SANDY RIDGE ASSISTED LIVING APARTMENTS,,,JILL GENGLER,,,,,,,,,,,,,,,(715) 962-3186,,,,,,,,,,,,,,,,RCAC,Residential Care,"2,690/4,090",,,108 PARK Dr,,,COLFAX, DUNN,,WI,,54730,USA,44.9915258,-91.7263849,,True
AUTUMN VILLAGE,,,DIANE ROWE,,,,,P O BOX 287,,,,,,,,,,(715) 235-3697,,,,,,,,,,,,,,,,RCAC,Residential Care,"2,850/4,275",,,915 ELM Ave E,,,MENOMONIE, DUNN,,WI,,54751,USA,44.8979193,-91.9204697,,True
COMFORTS OF HOME MENOMONIE RCAC,,,KATIE LUNDERVILLE,,,,,,,,,,,,,,,(715) 231-4980,,,,,,,,,,,,,,,,RCAC,Residential Care,"3,000/6,460",,,917 22ND AVE NE,,,MENOMONIE, DUNN,,WI,,54751,USA,44.908549,-91.92111600000001,,True
CLASSIC AT HILLCREST GREENS SENIOR LIVING (THE),,,GREG SPINDLER,,,,,,,,,,,,,,,(715) 944-6678,,,,,,,,,,,,,,,,RCAC,Residential Care,"2,250/6,900",,,2455 SAWGRASS Pl,,,ALTOONA, EAU CLAIRE,,WI,,54720,USA,44.794573,-91.44776399999999,,True
OAK GARDENS PLACE,,,AMANDA HASON,,,,,,,,,,,,,,,(715) 839-8000,,,,,,,,,,,,,,,,RCAC,Residential Care,"3,101/4,881",,,342 TWIN OAK DR,,,ALTOONA, EAU CLAIRE,,WI,,54720,USA,44.80938030000001,-91.4507758,,False
GRACE WILLOWBROOK,,,PEGGY HUSBY,,,,,P O BOX 287,,,,,,,,,,(715) 835-0429,,,,,,,,,,,,,,,,RCAC,Residential Care,"3,500/3,500",,,4868 OTTESON Ln,,,EAU CLAIRE, EAU CLAIRE,,WI,,54701,USA,44.7875329,-91.43588749999999,,True
HEATHERWOOD,,,CARRIE GALLAHAN,,,,,,,,,,,,,,,(715) 469-8012,,,,,,,,,,,,,,,,RCAC,Residential Care,"3,707/4,460",,,4510 GATEWAY DR,,,EAU CLAIRE, EAU CLAIRE,,WI,,54701,USA,44.7706994,-91.42352729999999,,False
MILESTONE SENIOR LIVING APARTMENTS,,,KELLY ROHWEDDER,,,,,,,,,,,,,,,(715) 874-4250,,,,,,,,,,,,,,,,RCAC,Residential Care,"3,700/4,400",,,5512 RENEE DR,,,EAU CLAIRE, EAU CLAIRE,,WI,,54703,USA,44.8407715,-91.583658,,False
ARTISAN FOND DU LAC SUITES (THE),,,VICKIE KRAMER,,,,,,,,,,,,,,,(920) 924-5715,,,,,,,,,,,,,,,,RCAC,Residential Care,"3,200/4,600",,,597 KINGSWOOD AVE,,,FOND DU LAC, FOND DU LAC,,WI,,54935,USA,43.7530793,-88.4257172,,False
GRANPARK TERRACE-GRANCARE INC,,,WILLIAM MACKENZIE,,,,,,,,,,,,,,,(920) 921-6800,,,,,,,,,,,,,,,,RCAC,Residential Care,"1,475/2,875",,,30 N KAYSER ST,,,FOND DU LAC, FOND DU LAC,,WI,,54935,USA,43.7799685,-88.42680709999999,,False
LAKE VIEW PLACE,,,LORI ROZELL,,,,,,,,,,,,,,,(920) 926-1100,,,,,,,,,,,,,,,,RCAC,Residential Care,"6,974/7,645",,,517 LUCO RD,,,FOND DU LAC, FOND DU LAC,,WI,,54935,USA,43.79312909999999,-88.4241079,,False
ST FRANCIS TERRACE,,,SISTER IRENE KOHNE,,,,,,,,,,,,,,,(920) 923-7980,,,,,,,,,,,,,,,,RCAC,Residential Care,"2,007/2,020",,,345 E FIRST ST,,,FOND DU LAC, FOND DU LAC,,WI,,54935,USA,43.7773672,-88.43321379999999,,False
THE MEADOWS OF FOND DU LAC LLC,,,DIANN ROBERTS,,,,,,,,,,,,,,,(920) 933-8090,,,,,,,,,,,,,,,,RCAC,Residential Care,"2,450/3,435",,,620 W ROLLING MEADOWS DR,,,FOND DU LAC, FOND DU LAC,,WI,,54937,USA,43.7551223,-88.4783637,,False
WOODLANDS SENIOR PARK,,,SUE HENDRICKSON,,,,,,,,,,,,,,,(920) 922-8770,,,,,,,,,,,,,,,,RCAC,Residential Care,"3,100/3,850",,,77 WISCONSIN AMERICAN DR,,,FOND DU LAC, FOND DU LAC,,WI,,54935,USA,43.778887,-88.3939286,,False
VILLA ROSA ASSISTED LIVING,,,SANDRA K RANDALL,,,,,,,,,,,,,,,(920) 753-3015,,,,,,,,,,,,,,,,RCAC,Residential Care,"3,460/3,890",,,N8120 CTY RD WW,,,MT CALVARY, FOND DU LAC,,WI,,53057,USA,43.826381,-88.2462122,,False
MAPLECREST MANOR,,,CHAD LIPTOW,,,,,,,,,,,,,,,(920) 748-7300,,,,,,,,,,,,,,,,RCAC,Residential Care,"1,795/6,000",,,150 N DOUGLAS ST,,,RIPON, FOND DU LAC,,WI,,54971,USA,43.84692750000001,-88.8218327,,False
PRAIRIE PLACE RCAC,,,JEREMIAH GROTHE,,,,,,,,,,,,,,,(920) 748-8900,,,,,,,,,,,,,,,,RCAC,Residential Care,"2,450/4,000",,,749 E OSHKOSH ST,,,RIPON, FOND DU LAC,,WI,,54971,USA,43.85169,-88.82133999999999,,False
ASTER ASSISTED LIVING OF MONROE,,,AMANDA GERBER,,,,,,,,,,,,,,,(608) 328-2339,,,,,,,,,,,,,,,,RCAC,Residential Care,"3,425/4,425",,,616 8TH AVE,,,MONROE, GREEN,,WI,,53566,USA,42.6056407,-89.6499819,,False
ST CLARE FRIEDENSHEIM,,,ERIN FRANCOIS,,,,,,,,,,,,,,,(608) 329-3601,,,,,,,,,,,,,,,,RCAC,Residential Care,"2,820/2,975",,,2003 4TH ST,,,MONROE, GREEN,,WI,,53566,USA,42.6100629,-89.634,,False
GLARNER LODGE,,,ERIN FRANCOIS,,,,,,,,,,,,,,,(608) 527-2126,,,,,,,,,,,,,,,,RCAC,Residential Care,"2,960/5,000",,,900 GLARNER DR,,,NEW GLARUS, GREEN,,WI,,53574,USA,42.8203943,-89.6454062,,False
AMERICAN HOUSE OF BERLIN,,,NATHAN MAZUR,,,,,,,,,,,,,,,(920) 361-3111,,,,,,,,,,,,,,,,RCAC,Residential Care,"1,920/4,256",,,123 S PEARL ST,,,BERLIN, GREEN LAKE,,WI,,54923,USA,43.9676972,-88.9482369,,False
PATRIOT PLACE RCAC,,,LISA RICHARDSON,,,,,,,,,,,,,,,(920) 361-3008,,,,,,,,,,,,,,,,RCAC,Residential Care,"2,500/4,100",,,609 BROADWAY,,,BERLIN, GREEN LAKE,,WI,,54923,USA,43.9713361,-88.96793149999999,,False
KINDREDHEARTS GREEN LAKE,,,KRISTI BEDNAREK,,,,,,,,,,,,,,,(920) 294-1000,,,,,,,,,,,,,,,,RCAC,Residential Care,"1,636/3,186",,,850 SUNNYSIDE RD,,,GREEN LAKE, GREEN LAKE,,WI,,54941,USA,43.843802,-88.9234446,,False
NORTH TERRACE ASSISTED LIVING,,,MIRIAM OWNBY,,,,,,,,,,,,,,,(920) 398-2751,,,,,,,,,,,,,,,,RCAC,Residential Care,"2,230/4,600",,,1130 N MARGARET ST,,,MARKESAN, GREEN LAKE,,WI,,53946,USA,43.71736709999999,-88.98939709999999,,False
SAMUELS GROVE,,,BARBARA REIF,,,,,,,,,,,,,,,(920) 398-2989,,,,,,,,,,,,,,,,RCAC,Residential Care,"1,650/2,900",,,183 E JOHN ST,,,MARKESAN, GREEN LAKE,,WI,,53946,USA,43.70785319999999,-88.98489819999999,,False
STONEFIELD APARTMENT HOMES,,,JAMES CURRAN,,,,,,,,,,,,,,,(920) 674-6600,,,,,,,,,,,,,,,,RCAC,Residential Care,,,,407 E MADISON ST,,,DODGEVILLE, IOWA,,WI,,53533,USA,42.9695084,-90.12307489999999,,False
PINE VIEW TERRACE,,,WENDY TRAUTSCH,,,,,,,,,,,,,,,(715) 284-7077,,,,,,,,,,,,,,,,RCAC,Residential Care,"1,378/3,536",,,404 COUNTY RD R,,,BLACK RIVER FALLS, JACKSON,,WI,,54615,USA,44.2867295,-90.8620727,,False
REENA SENIOR LIVING,,,ALLAN BARR,,,,,,,,,,,,,,,(920) 542-1521,,,,,,,,,,,,,,,,RCAC,Residential Care,"1,630/2,720",,,737 REENA AVE,,,FORT ATKINSON, JEFFERSON,,WI,,53538,USA,42.9410779,-88.8646215,,False
HIGHLAND HOUSE,,,DUANE FLOYD,,,,,,,,,,,,,,,(920) 478-4193,,,,,,,,,,,,,,,,RCAC,Residential Care,"2,918/5,310",,,161 GOEHL RD,,,WATERLOO, JEFFERSON,,WI,,53594,USA,43.196957,-88.989711,,False
RIVER VIEW PLATINUM LLC,,,SHERYL SCHROEDER,,,,,,,,,,,,,,,(920) 567-0100,,,,,,,,,,,,,,,,RCAC,Residential Care,"1,988/4,500",,,1301 E MAIN ST,,,WATERTOWN, JEFFERSON,,WI,,53094,USA,43.1905778,-88.7106242,,False
OAK GROVE ASSISTED CARE LLC,,,SANDRA MERCER,,,,,,,,,,,,,,,(608) 565-3990,,,,,,,,,,,,,,,,RCAC,Residential Care,"1,050/1,800",,,200 W 6TH ST,,,NECEDAH, JUNEAU,,WI,,54646,USA,44.02050809999999,-90.0718271,,False
CASA DEL MARE,,,NICHOLAS CASSELL,,,,,,,,,,,,,,,(262) 653-1234,,,,,,,,,,,,,,,,RCAC,Residential Care,"2,900/5,200",,,3508 7TH AVE,,,KENOSHA, KENOSHA,,WI,,53140,USA,42.605902,-87.822238,,False
CELEBRE PLACE,,,COLLEEN ENDSLEY,,,,,,,,,,,,,,,(262) 782-2770,,,,,,,,,,,,,,,,RCAC,Residential Care,625/895,,,1870 27TH AVE,,,KENOSHA, KENOSHA,,WI,,53140,USA,42.6215234,-87.8435411,,False
LIBRARY TERRACE APARTMENTS,,,COLLEEN ENDSLEY,,,,,,,,,,,,,,,(262) 697-7711,,,,,,,,,,,,,,,,RCAC,Residential Care,"3,700/4,700",,,7905 36TH Ave,,,KENOSHA, KENOSHA,,WI,,53142,USA,42.5605858,-87.85099389999999,,True
MEADOWMERE SOUTHPORT,,,LANESHA BARFIELD,,,,,,,,,,,,,,,(262) 948-1100,,,,,,,,,,,,,,,,RCAC,Residential Care,"3,571/5,025",,,8351 SHERIDAN RD,,,KENOSHA, KENOSHA,,WI,,53143,USA,42.5527972,-87.82398549999999,,False
PARADISE ESTATES LLC,,,MIKE PARAL,,,,,,,,,,,,,,,(920) 388-0201,,,,,,,,,,,,,,,,RCAC,Residential Care,805/905,,,625 4TH ST,,,KEWAUNEE, KEWAUNEE,,WI,,54216,USA,44.45624919999999,-87.5200156,,False
BETHANY HEIGHTS ASSISTED LIVING,,,TRACY MONAHAN,,,,,,,,,,,,,,,(608) 526-2635,,,,,,,,,,,,,,,,RCAC,Residential Care,"2,517/2,837",,,112 JUNIPER Ln,,,HOLMEN, LACROSSE,,WI,,54636,USA,43.96923400000001,-91.25353299999999,,True
PRAIRIE HOME,,,KAREN SEPICH,,,,,,,,,,,,,,,(608) 526-4850,,,,,,,,,,,,,,,,RCAC,Residential Care,"1,775/2,070",,,620 MALIN Ct,,,HOLMEN, LACROSSE,,WI,,54636,USA,43.9711809,-91.2692745,,True
BENEDICTINE VILLA ASSISTED LIVING,,,ASHLEY BECK,,,,,,,,,,,,,,,(608) 788-7489,,,,,,,,,,,,,,,,RCAC,Residential Care,"1,500/2,500",,,2904 EAST Ave S,,,LACROSSE, LACROSSE,,WI,,54601,USA,43.78162950000001,-91.2324782,,True
BETHANY ON CASS,,,JESSICA SEEBACH,,,,,,,,,,,,,,,(608) 796-1091,,,,,,,,,,,,,,,,RCAC,Residential Care,"1,883/4,132",,,1315 CASS St,,,LACROSSE, LACROSSE,,WI,,54601,USA,43.80951100000001,-91.237557,,True
BROOKDALE LACROSSE,,,JENNIFER PETERSON,,,,,,,,,,,,,,,(608) 788-1964,,,,,,,,,,,,,,,,RCAC,Residential Care,"3,530/4,393",,,3141 EAST AVE S,,,LACROSSE, LACROSSE,,WI,,54601,USA,43.7793302,-91.22912110000001,,True
EAGLE CREST SOUTH RCAC,,,BRENDA ASPENSON,,,,,,,,,,,,,,,(608) 791-2700,,,,,,,,,,,,,,,,RCAC,Residential Care,"1,205/2,830",,,622 BENNORA LEE Ct,,,LACROSSE, LACROSSE,,WI,,54601,USA,43.7899381,-91.2474044,Powell-Poage-Hamilton,True
HILLVIEW TERRACE,,,KELLY KRAMER,,,,,,,,,,,,,,,(608) 785-5500,,,,,,,,,,,,,,,,RCAC,Residential Care,"1,900/2,975",,,3503 PARK LN,,,LACROSSE, LACROSSE,,WI,,54601,USA,43.77975759999999,-91.20540539999999,,False
SHELBY TERRACE,,,KAREN SEPICH,,,,,,,,,,,,,,,(608) 788-4477,,,,,,,,,,,,,,,,RCAC,Residential Care,"1,540/1,875",,,2525 SHELBY Rd,,,LACROSSE, LACROSSE,,WI,,54601,USA,43.7689718,-91.2173344,,True
WILLOWS (THE),,,ELIZABETH OLSON,,,,,,,,,,,,,,,(608) 406-3978,,,,,,,,,,,,,,,,RCAC,Residential Care,"1,195/2,195",,,2555 SOUTH 7TH St,,,LACROSSE, LACROSSE,,WI,,54601,USA,43.786279,-91.245548,,True
EAGLE CREST ASSISTED LIVING,,,TAMMY HAEFS,,,,,,,,,,,,,,,(608) 779-1700,,,,,,,,,,,,,,,,RCAC,Residential Care,"2,685/4,810",,,351 MASON St,,,ONALASKA, LACROSSE,,WI,,54650,USA,43.9109162,-91.2395133,,True
EAGLE CREST SENIOR LIVING COMMUNITY,,,TAMMY HAEFS,,,,,,,,,,,,,,,(608) 779-1700,,,,,,,,,,,,,,,,RCAC,Residential Care,"1,010/2,315",,,351 MASON ST,,,ONALASKA, LACROSSE,,WI,,54650,USA,43.9109162,-91.2395133,,False
LAUREL MANOR,,,,,,,,,,,,,,,,,,(608) 783-1815,,,,,,,,,,,,,,,,RCAC,Residential Care,485/785,,,108 17TH AVENUE SOURTH,,,ONALASKA, LACROSSE,,WI,,54650,USA,43.88353010000001,-91.21412319999999,,False
SPRINGBROOK COMMUNITY ASSISTED LIVING INC,,,MARCIA HITZ,,,,,,,,,,,,,,,(608) 783-2292,,,,,,,,,,,,,,,,RCAC,Residential Care,"2,620/3,800",,,861 CRITTER Ct,,,ONALASKA, LACROSSE,,WI,,54650,USA,43.874137,-91.1784165,,True
MILL STREET MANOR,,,KAREN SEPICH,,,,,,,,,,,,,,,(608) 786-2440,,,,,,,,,,,,,,,,RCAC,Residential Care,"1,945/2,320",,,840 MILL ST,,,WEST SALEM, LACROSSE,,WI,,54669,USA,43.908304,-91.080372,,False
SALEM TERRACE,,,KAREN SEPICH,,,,,,,,,,,,,,,(608) 786-2440,,,,,,,,,,,,,,,,RCAC,Residential Care,"1,905/2,285",,,104 LEWIS ST,,,WEST SALEM, LACROSSE,,WI,,54669,USA,43.90737,-91.080415,,False
PINE MEADOW,,,JENNY RENFRO,,,,,,,,,,,,,,,(715) 627-2613,,,,,,,,,,,,,,,,RCAC,Residential Care,"916/1,184",,,525 FLIGHT RD,,,ANTIGO, LANGLADE,,WI,,54409,USA,45.1472686,-89.12477590000002,,False
MILESTONE SENIOR LIVING APARTMENTS,,,JULIE HEIL,,,,,,,,,,,,,,,(715) 224-3747,,,,,,,,,,,,,,,,RCAC,Residential Care,"3,400/3,820",,,314 E LINCOLN Ave,,,TOMAHAWK, LINCOLN,,WI,,54487,USA,45.4740348,-89.7247151,,True
LAUREL GROVE ASSISTED LIVING CENTER,,,TODD MEERDINK,,,,,,,,,,,,,,,(920) 682-8254,,,,,,,,,,,,,,,,RCAC,Residential Care,"1,000/1,500",,,1308 S 22ND ST,,,MANITOWOC, MANITOWOC,,WI,,54220,USA,44.0837189,-87.676706,,False
RIVER WOODS PLACE,,,JEREMY DENOR,,,,,,,,,,,,,,,(920) 684-3996,,,,,,,,,,,,,,,,RCAC,Residential Care,"6,139/7,257",,,950 S RAPIDS RD,,,MANITOWOC, MANITOWOC,,WI,,54220,USA,44.0882255,-87.7076673,,False
SACRED HEART COURT,,,LISA VODA,,,,,,,,,,,,,,,(920) 684-7171,,,,,,,,,,,,,,,,RCAC,Residential Care,"2,452/6,559",,,1903 DIVISION ST,,,MANITOWOC, MANITOWOC,,WI,,54220,USA,44.0809739,-87.6726856,,False
ATHENIAN LIVING RCAC,,,LISA YOUNG,,,,,,,,,,,,,,,(715) 257-2053,,,,,,,,,,,,,,,,RCAC,Residential Care,"700/1,700",,,716 CAROLINE St,,,ATHENS, MARATHON,,WI,,54411,USA,45.027223,-90.07480799999999,,True
ACORN HILL,,,MARGARET BUDIMLIJA,,,,,,,,,,,,,,,(715) 693-8844,,,,,,,,,,,,,,,,RCAC,Residential Care,,,,430 ORBITING DR,,,MOSINEE, MARATHON,,WI,,54455,USA,44.784229,-89.682075,,False
APPLEGATE TERRACE,,,DAVID KEATING,,,,,,,,,,,,,,,(414) 908-8058,,,,,,,,,,,,,,,,RCAC,Residential Care,"1,537/2,551",,,3001 WESTHILL Dr,,,WAUSAU, MARATHON,,WI,,54401,USA,44.9677166,-89.67443490000001,,True
GARDENS APARTMENTS (THE),,,AMY FORST,,,,,,,,,,,,,,,(715) 845-1214,,,,,,,,,,,,,,,,RCAC,Residential Care,645/830,,,801 PARCHER St,,,WAUSAU, MARATHON,,WI,,54403,USA,44.9798159,-89.61968940000001,,True
MOUNTAIN TERRACE SENIOR LIVING RCAC,,,SHERIDAN PETERSON,,,,,,,,,,,,,,,(715) 848-6258,,,,,,,,,,,,,,,,RCAC,Residential Care,"3,400/3,750",,,3312 TERRACE CT,,,WAUSAU, MARATHON,,WI,,54401,USA,44.9568569,-89.6783294,,False
PRIMROSE RETIREMENT COMMUNITY OF WAUSAU,,,ZOEY VECELLIO,,,,,PO BOX 1359,,,,,,,,,,(715) 842-1818,,,,,,,,,,,,,,,,RCAC,Residential Care,"2,905/3,505",,,2100 TOWNLINE Rd,,,WAUSAU, MARATHON,,WI,,54403,USA,44.9468,-89.597663,,True
RIVERVIEW TERRACE,,,BETTY NOEL,,,,,,,,,,,,,,,(715) 261-6687,,,,,,,,,,,,,,,,RCAC,Residential Care,555/555,,,540 EAST THOMAS St,,,WAUSAU, MARATHON,,WI,,54403,USA,44.9508061,-89.62395830000001,,True
TERRACE COURT ASSISTED LIVING,,,HEIDI MUSOMBWA,,,,,,,,,,,,,,,(715) 843-5230,,,,,,,,,,,,,,,,RCAC,Residential Care,"1,745/1,945",,,3402 TERRACE Ct,,,WAUSAU, MARATHON,,WI,,54401,USA,44.9569715,-89.67926949999999,,True
RENAISSANCE WESTON,,,TAMMY PAIGE,,,,,,,,,,,,,,,(715) 355-5858,,,,,,,,,,,,,,,,RCAC,Residential Care,"2,700/4,200",,,4602 BARBICAN Ave,,,WESTON, MARATHON,,WI,,54476,USA,44.897688,-89.565871,,True
RENAISSANCE MARINETTE,,,DEANNA NAST,,,,,,,,,,,,,,,(715) 735-2100,,,,,,,,,,,,,,,,RCAC,Residential Care,"2,725/3,800",,,2909 SHORE DR,,,MARINETTE, MARINETTE,,WI,,54143,USA,45.07447569999999,-87.6199632,,False
WASHINGTON SQUARE,,,STEVE GENISOT,,,,,,,,,,,,,,,(715) 732-2550,,,,,,,,,,,,,,,,RCAC,Residential Care,"2,500/3,500",,,2502 TAYLOR ST,,,MARINETTE, MARINETTE,,WI,,54143,USA,45.10271449999999,-87.6398066,,False
HOMESTEAD APARTMENTS,,,MICHAEL BONELLO,,,,,,,,,,,,,,,(608) 269-3168,,,,,,,,,,,,,,,,RCAC,Residential Care,"2,282/3,232",,,331 S WATER ST,,,SPARTA, MONROE,,WI,,54656,USA,43.9415092,-90.80994059999999,,False
MARYCREST ASSISTED LIVING,,,MICHAEL BONELLO,,,,,,,,,,,,,,,(608) 269-3168,,,,,,,,,,,,,,,,RCAC,Residential Care,"1,576/2,076",,,401 S WATER ST,,,SPARTA, MONROE,,WI,,54656,USA,43.941306,-90.80991399999999,,False
A TOUCH OF HOME,,,ROBERTA DIETZMAN,,,,,,,,,,,,,,,(608) 372-5454,,,,,,,,,,,,,,,,RCAC,Residential Care,"2,670/2,670",,,1211 MARK Ave,,,TOMAH, MONROE,,WI,,54660,USA,44.0041616,-90.5084478,,True
CLOSE TO HOME INC,,,ROBERTA DEITZMAN,,,,,,,,,,,,,,,(608) 372-2696,,,,,,,,,,,,,,,,RCAC,Residential Care,750/750,,,1206 MARK Ave,,,TOMAH, MONROE,,WI,,54660,USA,44.0033013,-90.50961009999999,,True
LIBERTY VILLAGE RCAC,,,KERRY OSWALD,,,,,,,,,,,,,,,(608) 374-5005,,,,,,,,,,,,,,,,RCAC,Residential Care,"2,695/3,770",,,200 LIBERTY Pl,,,TOMAH, MONROE,,WI,,54660,USA,44.0096028,-90.50753089999999,,True
SERENITY GARDENS,,,TONYA ROSINA,,,,,,,,,,,,,,,(920) 373-1602,,,,,,,,,,,,,,,,RCAC,Residential Care,"2,995/3,200",,,146 N FRANCIS AVE,,,GILLETT, OCONTO,,WI,,54124,USA,44.89416859999999,-88.3112163,,False
COTTAGES AT MEADOWLANDS THE,,,CARA PETERSON,,,,,,,,,,,,,,,(920) 848-3458,,,,,,,,,,,,,,,,RCAC,Residential Care,"2,995/5,085",,,751 E HIGHLAND DR,,,OCONTO FALLS, OCONTO,,WI,,54154,USA,44.88332899999999,-88.13334390000001,,False
GRACE LODGE ASSISTED LIVING FACILITY,,,BARRY WALLIS,,,,,,,,,,,,,,,(715) 365-1234,,,,,,,,,,,,,,,,RCAC,Residential Care,"710/1,410",,,1000 DAY ST,,,RHINELANDER, ONEIDA,,WI,,54501,USA,45.62940669999999,-89.4338202,,False
MILESTONE SENIOR APARTMENTS,,,AMY GRAY,,,,,,,,,,,,,,,(715) 361-1100,,,,,,,,,,,,,,,,RCAC,Residential Care,"3,050/3,495",,,4686 NORTH SHORE Dr,,,RHINELANDER, ONEIDA,,WI,,54501,USA,45.63771329999999,-89.3713179,,True
MILESTONE SENIOR LIVING APARTMENTS,,,AMY LEMKE,,,,,,,,,,,,,,,(715) 439-4024,,,,,,,,,,,,,,,,RCAC,Residential Care,"3,125/3,620",,,750 ELM ST,,,WOODRUFF, ONEIDA,,WI,,54568,USA,45.9016532,-89.69760409999999,,False
ONE PENNY PLACE,,,KATHY MC CAUGHN,,,,,,,,,,,,,,,(715) 358-5541,,,,,,,,,,,,,,,,RCAC,Residential Care,460/929,,,820 3RD Ave,,,WOODRUFF, ONEIDA,,WI,,54568,USA,45.89552929999999,-89.7005279,,True
LASATA CROSSINGS ASSISTED LIVING,,,KRISTEN SONNENBERG,,,,,,,,,,,,,,,(262) 512-2808,,,,,,,,,,,,,,,,RCAC,Residential Care,"3,095/5,975",,,W79N673 WAUWATOSA RD,,,CEDARBURG, OZAUKEE,,WI,,53012,USA,43.29901559999999,-88.0084632,,False
VILLAGE POINTE COMMONS THE PARAMOUNTE,,,KATHERINE TAYLOR,,,,,,,,,,,,,,,(262) 387-3148,,,,,,,,,,,,,,,,RCAC,Residential Care,,,,101 WALNUT DR,,,GRAFTON, OZAUKEE,,WI,,53024,USA,43.30642719999999,-87.9623081,,False
VILLAGE POINTE COMMONS THE PINNACLE,,,KATHERINE TAYLOR,,,,,,,,,,,,,,,(262) 242-0872,,,,,,,,,,,,,,,,RCAC,Residential Care,"4,145/5,925",,,101 WALNUT Cir,,,GRAFTON, OZAUKEE,,WI,,53024,USA,43.30642719999999,-87.9623081,,True
HIGHLANDS AT NEWCASTLE PLACE (THE),,,DANIEL MERRIMAN,,,,,,,,,,,,,,,(262) 387-8861,,,,,,,,,,,,,,,,RCAC,Residential Care,"4,775/5,597",,,12600 NORTH PORT WASHINGTON RD,,,MEQUON, OZAUKEE,,WI,,53092,USA,43.2482342,-87.9222085,,False
SARAH CHUDNOW CAMPUS,,,IPHRA WIGLEY,,,,,,,,,,,,,,,(262) 478-1500,,,,,,,,,,,,,,,,RCAC,Residential Care,"3,304/4,354",,,10995 N MARKET ST,,,MEQUON, OZAUKEE,,WI,,53092,USA,43.21859479999999,-87.93130339999999,,False
HARBOR CLUB,,,CATHERINE TORICIA,,,,,,,,,,,,,,,(262) 268-1800,,,,,,,,,,,,,,,,RCAC,Residential Care,,,,333 W WALTERS ST,,,PORT WASHINGTON, OZAUKEE,,WI,,53024,USA,43.396231,-87.875689,,False
LINCOLN VILLAGE,,,CAROLYN JOHNSON,,,,,,,,,,,,,,,(414) 964-7678,,,,,,,,,,,,,,,,RCAC,Residential Care,"3,600/4,800",,,1330 W LINCOLN AVE,,,PORT WASHINGTON, OZAUKEE,,WI,,53074,USA,43.3855121,-87.8950255,,False
WILLOWBROOK PLACE,,,TRINA SULLIVAN,,,,,,,,,,,,,,,(262) 242-2728,,,,,,,,,,,,,,,,RCAC,Residential Care,"1,313/2,813",,,205 GREEN BAY Rd,,,THIENSVILLE, OZAUKEE,,WI,,53092,USA,43.2341218,-87.9824431,,True
HOMEPLACE OF DURAND LLC (THE),,,VICKIE WITTIG,,,,,,,,,,,,,,,(715) 672-4813,,,,,,,,,,,,,,,,RCAC,Residential Care,"3,250/6,271",,,315 COUNTRY Ln,,,DURAND, PEPIN,,WI,,54736,USA,44.6170661,-91.9566991,,True
WELCOME HOME ASSISTED LIVING INC,,,MELISSA/DAWN SCHOEDER,,,,,,,,,,,,,,,(715) 639-3400,,,,,,,,,,,,,,,,RCAC,Residential Care,"1,925/2,725",,,1121 INDUSTRIAL Rd,,,ELMWOOD, PIERCE,,WI,,54740,USA,44.775298,-92.16305,,True
COMFORTS OF HOME RIVER FALLS RCAC,,,EMILY SCHOMMER,,,,,,,,,,,,,,,(715) 426-4924,,,,,,,,,,,,,,,,RCAC,Residential Care,"3,200/5,000",,,2348 AURORA Cir,,,RIVER FALLS, PIERCE,,WI,,54022,USA,44.8313139,-92.6319024,,True
VALLEY VILLAS ASSISTED LIVING,,,AMY LUTHER,,,,,,,,,,,,,,,(715) 778-5535,,,,,,,,,,,,,,,,RCAC,Residential Care,"480/1,099",,,S820 WESTLAND DR,,,SPRING VALLEY, PIERCE,,WI,,54767,USA,44.836702,-92.269937,,False
AMERY ASSTD LIV -RIVER BEND,,,DENISE OLSON,,,,,,,,,,,,,,,(715) 268-9949,,,,,,,,,,,,,,,,RCAC,Residential Care,"1,990/3,025",,,475 GOLF VIEW Ln,,,AMERY, POLK,,WI,,54001,USA,45.3019156,-92.37111279999999,,True
ROYAL OAKS INC (THE),,,KAYLA WIDELL,,,,,,,,,,,,,,,(715) 294-1600,,,,,,,,,,,,,,,,RCAC,Residential Care,"2,200/2,600",,,304 EIGHTH AVE E,,,OSCEOLA, POLK,,WI,,54020,USA,45.3254166,-92.6988619,,True
LODGE AT WHISPERING PINES (THE),,,KAREN TRZEBIATOWSKI,,,,,,,,,,,,,,,(715) 342-9100,,,,,,,,,,,,,,,,RCAC,Residential Care,"2,500/4,200",,,3450 BRIDLEWOOD DR,,,PLOVER, PORTAGE,,WI,,54467,USA,44.4444935,-89.54452400000001,,False
BROOKDALE STEVENS POINT,,,JACQUELINE WILLIAMS,,,,,,,,,,,,,,,(715) 343-7376,,,,,,,,,,,,,,,,RCAC,Residential Care,"2,495/4,235",,,5625 SANDPIPER DR,,,STEVENS POINT, PORTAGE,,WI,,54481,USA,44.5272178,-89.50719610000002,,False
WILLOW BROOKE SENIOR LIVING RCAC,,,AMANDA MOORE,,,,,,,,,,,,,,,(715) 343-9530,,,,,,,,,,,,,,,,RCAC,Residential Care,"2,107/4,000",,,1801 LILAC LN,,,STEVENS POINT, PORTAGE,,WI,,54481,USA,44.5514832,-89.5737912,,False
ASPIRUS DUROY TERRACE,,,RHONDA KOZIK,,,,,,,,,,,,,,,(715) 339-3113,,,,,,,,,,,,,,,,RCAC,Residential Care,"1,517/2,206",,,585 PETERSON Dr,,,PHILLIPS, PRICE,,WI,,54555,USA,45.68378190000001,-90.38880510000001,,True
OAK PARK PLACE OF BURLINGTON,,,CHAD BAASCHE,,,,,,,,,,,,,,,(608) 279-0378,,,,,,,,,,,,,,,,RCAC,Residential Care,"3,350/5,425",,,1700 TEUT RD,,,BURLINGTON, RACINE,,WI,,53105,USA,42.7006573,-88.25753809999999,,False
PRIMROSE OF MT PLEASANT,,,TRACIE MINORIK,,,,,,,,,,,,,,,(262) 886-3333,,,,,,,,,,,,,,,,RCAC,Residential Care,"548/3,795",,,1775 N NEWMAN Rd,,,MT PLEASANT, RACINE,,WI,,53406,USA,42.7409674,-87.8447669,,True
BAY POINTE AT THE ATRIUM,,,MICHAEL LIBBY,,,,,,,,,,,,,,,(262) 639-1100,,,,,,,,,,,,,,,,RCAC,Residential Care,"3,249/4,078",,,3950 N MAIN St,,,RACINE, RACINE,,WI,,53402,USA,42.7689659,-87.78274379999999,,True
ELIZABETH GARDENS,,,RICHARD COURY,,,,,,,,,,,,,,,(414) 540-4141,,,,,,,,,,,,,,,,RCAC,Residential Care,"2,550/4,600",,,5111 WRIGHT AVE,,,RACINE, RACINE,,WI,,53406,USA,42.71448519999999,-87.84124539999999,,False
HOME HARBOR,,,SUZANNE GITZ,,,,,PO BOX 703,,,,,,,,,,(262) 619-0000,,,,,,,,,,,,,,,,RCAC,Residential Care,373/960,,,1600 OHIO ST,,,RACINE, RACINE,,WI,,53405,USA,42.7112226,-87.8368261,,False
PARKVIEW GARDENS,,,COLLEEN ENDSLEY,,,,,,,,,,,,,,,(262) 898-4000,,,,,,,,,,,,,,,,RCAC,Residential Care,"548/2,300",,,5321 DOUGLAS AVE,,,RACINE, RACINE,,WI,,53402,USA,42.7898191,-87.80911669999999,,False
RACINE COMMONS ASSISTED LIVING RCAC,,,ALEXANDER CAUDILL,,,,,,,,,,,,,,,(262) 833-0810,,,,,,,,,,,,,,,,RCAC,Residential Care,"4,047/4,300",,,8500 CORPORATE DR,,,RACINE, RACINE,,WI,,53406,USA,42.7225141,-87.8905813,,False
KILLARNEY KOURT,,,Leah Kumpula,,,,,,,,,,,,,,,(262) 321-0802,,,,,,,,,,,,,,,,RCAC,Residential Care,"705/4,120",,,8800 SHANNON LN,,,STURTEVANT, RACINE,,WI,,53177,USA,42.69667899999999,-87.8926326,,False
WATERFORD SENIOR LIVING,,,MEGHAN GIESE,,,,,PO BOX 8100,,,,,,,,,,(262) 534-4800,,,,,,,,,,,,,,,,RCAC,Residential Care,"3,750/4,800",,,301 S SIXTH ST,,,WATERFORD, RACINE,,WI,,53185,USA,42.75939940000001,-88.20490939999999,,False
RICHLAND CENTER RCAC,,,SUMMER STOUFFER,,,,,,,,,,,,,,,(608) 647-4500,,,,,,,,,,,,,,,,RCAC,Residential Care,"2,950/3,400",,,250 N ORANGE ST,,,RICHLAND CENTER, RICHLAND,,WI,,53581,USA,43.3369454,-90.38908939999999,,False
SCHMITT WOODLAND HILLS APARTMENT COMPLEX,,,BONNIE RICHARDSON,,,,,,,,,,,,,,,(608) 647-8931,,,,,,,,,,,,,,,,RCAC,Residential Care,"704/1,670",,,1400 WEST SEMINARY St,,,RICHLAND CENTER, RICHLAND,,WI,,53581,USA,43.33430779999999,-90.4006714,,True
BELOIT SENIOR LIVING LLC,,,MEGHAN GIESE,,,,,,,,,,,,,,,(262) 534-4800,,,,,,,,,,,,,,,,RCAC,Residential Care,,,,2250 WEST HART RD,,,BELOIT, ROCK,,WI,,53511,USA,42.54512769999999,-89.0062809,,False
RIVERSIDE TERRACE,,,NATASHA WEBERG,,,,,,,,,,,,,,,(608) 365-7222,,,,,,,,,,,,,,,,RCAC,Residential Care,"1,610/3,411",,,3055 S RIVERSIDE Dr,,,BELOIT, ROCK,,WI,,53511,USA,42.5564107,-89.0377137,,True
SWIFTHAVEN COMMUNITY,,,ROBERT SIMONSON,,,,,,,,,,,,,,,(608) 884-2828,,,,,,,,,,,,,,,,RCAC,Residential Care,"2,500/3,100",,,124 HENRY ST,,,EDGERTON, ROCK,,WI,,53534,USA,42.8351359,-89.0694438,,False
HEIGHTS AT EVANSVILLE MANOR (THE),,,JENNY SCHMIDT,,,,,,,,,,,,,,,(608) 882-9995,,,,,,,,,,,,,,,,RCAC,Residential Care,"3,100/3,700",,,201 N 4TH ST,,,EVANSVILLE, ROCK,,WI,,53536,USA,42.7831457,-89.31202139999999,,False
KELLY HOUSE ASSISTED LIVING APARTMENTS,,,DIANE SKINNER,,,,,,,,,,,,,,,(608) 882-4191,,,,,,,,,,,,,,,,RCAC,Residential Care,"2,660/3,600",,,121 SOUTH FIFTH ST,,,EVANSVILLE, ROCK,,WI,,53536,USA,42.7788742,-89.3145105,,False
CEDAR CREST WATERFORD PLACE APARTMENTS,,,DAVID TANCK,,,,,,,,,,,,,,,(608) 373-6301,,,,,,,,,,,,,,,,RCAC,Residential Care,"465/1,195",,,1702 SOUTH RIVER RD,,,JANESVILLE, ROCK,,WI,,53546,USA,42.6557793,-89.0568292,,False
HUNTINGTON (THE),,,ANNA HUGHES-PAPICH,,,,,,,,,,,,,,,(608) 868-5035,,,,,,,,,,,,,,,,RCAC,Residential Care,"3,190/4,151",,,3801 N WRIGHT RD,,,JANESVILLE, ROCK,,WI,,53546,USA,42.7274017,-88.9690801,,False
MILTON SENIOR LIVING LLC,,,JACQUELINE DAVILA,,,,,,,,,,,,,,,(608) 868-3000,,,,,,,,,,,,,,,,RCAC,Residential Care,"3,600/6,000",,,600 W SUNSET DR,,,MILTON, ROCK,,WI,,53563,USA,42.78725579999999,-88.9624973,,False
LEGACY SENIOR LIVING CENTER INC,,,TONYA SWEENEY,,,,,,,,,,,,,,,(715) 532-5546,,,,,,,,,,,,,,,,RCAC,Residential Care,"3,610/5,095",,,1001 E 11TH St N,,,LADYSMITH, RUSK,,WI,,54848,USA,45.4733857,-91.0868646,,True
GREENBRIAR APARTMENTS LLC,,,TARA HEUER,,,,,PO BOX 185,,,,,,,,,,(608) 356-9213,,,,,,,,,,,,,,,,RCAC,Residential Care,"600/1,090",,,1350 JEFFERSON ST,,,BARABOO, SAUK,,WI,,53913,USA,43.47808939999999,-89.7272687,,False
OAK PARK PLACE THE GROVE,,,MARY BREWER,,,,,,,,,,,,,,,(608) 355-4111,,,,,,,,,,,,,,,,RCAC,Residential Care,"3,851/4,899",,,800 WALDO ST,,,BARABOO, SAUK,,WI,,53913,USA,43.45787199999999,-89.75362299999999,,False
RIDGEVIEW PLACE,,,RYAN SHEAR,,,,,,,,,,,,,,,(608) 524-6577,,,,,,,,,,,,,,,,RCAC,Residential Care,"2,900/3,200",,,2350 NORTH DEWEY AVE,,,REEDSBURG, SAUK,,WI,,53959,USA,43.554085,-89.993268,,False
MAPLEWOOD VILLAGE,,,PAUL FISCUS,,,,,,,,,,,,,,,(608) 643-8494,,,,,,,,,,,,,,,,RCAC,Residential Care,"3,540/3,740",,,1425 HEMLOCK St,,,SAUK CITY, SAUK,,WI,,53583,USA,43.27885980000001,-89.7363201,,True
GREENWAY TERRACE,,,MARK SCOLES,,,,,,,,,,,,,,,(608) 588-2586,,,,,,,,,,,,,,,,RCAC,Residential Care,"2,100/2,750",,,547 EAST MCKINLEY St,,,SPRING GREEN, SAUK,,WI,,53588,USA,43.1710322,-90.0622262,,True
WATERS EDGE,,,CANDICE MCCONNELL,,,,,,,,,,,,,,,(715) 934-4308,,,,,,,,,,,,,,,,RCAC,Residential Care,"2,870/3,370",,,11040 N STATE RD,,,HAYWARD, SAWYER,,WI,,54843,USA,46.034555,-91.4858881,,False
COTTAGES ON GOLDEN POND THE,,,CARA PETERSON,,,,,,,,,,,,,,,(866) 447-3838,,,,,,,,,,,,,,,,RCAC,Residential Care,"950/3,690",,,103 MADISON WAY,,,SHAWANO, SHAWANO,,WI,,54166,USA,44.780761,-88.554858,,False
BIRCHWOOD APARTMENTS,,,EILEEN LAFAVOR,,,,,,,,,,,,,,,(715) 684-4552,,,,,,,,,,,,,,,,RCAC,Residential Care,"1,070/1,540",,,1600 BIRCHWOOD Dr,,,BALDWIN, ST CROIX,,WI,,54002,USA,44.9606409,-92.37110410000001,,True
HAVENWOOD LLC,,,DAVID PRISSEL,,,,,,,,,,,,,,,(715) 265-4140,,,,,,,,,,,,,,,,RCAC,Residential Care,460/990,,,614 E OAK ST,,,GLENWOOD CITY, ST CROIX,,WI,,54013,USA,45.0590917,-92.1619915,,False
HERITAGE COURT,,,LAURIE EDELMAN,,,,,,,,,,,,,,,(715) 796-2218,,,,,,,,,,,,,,,,RCAC,Residential Care,"1,425/1,425",,,425 DAVIS St,,,HAMMOND, ST CROIX,,WI,,54015,USA,44.9820035,-92.43714179999999,,True
RED CEDAR CANYON ASSISTED LIVING LLC,,,NED AMMONS,,,,,,,,,,,,,,,(715) 381-7333,,,,,,,,,,,,,,,,RCAC,Residential Care,"2,910/3,585",,,3001 HANLEY Rd,,,HUDSON, ST CROIX,,WI,,54016,USA,44.950994,-92.70964599999999,,True
WINTERGREEN,,,KATHY OCONNELL,,,,,,,,,,,,,,,(715) 386-5088,,,,,,,,,,,,,,,,RCAC,Residential Care,"1,114/2,500",,,1312 WISCONSIN St,,,HUDSON, ST CROIX,,WI,,54016,USA,44.972181,-92.739892,,True
WOODLAND HILL,,,LAURA COGNETTA,,,,,,,,,,,,,,,(715) 716-5200,,,,,,,,,,,,,,,,RCAC,Residential Care,"3,150/4,200",,,441 STAGELINE Rd,,,HUDSON, ST CROIX,,WI,,54016,USA,44.9634325,-92.7121574,,True
DEERFIELD (THE) RCAC,,,JENNIFER ANDERSON,,,,,,,,,,,,,,,(715) 243-3900,,,,,,,,,,,,,,,,RCAC,Residential Care,"2,600/5,900",,,1127 WEST EIGHTH St,,,NEW RICHMOND, ST CROIX,,WI,,54017,USA,45.115758,-92.555821,,True
DEERFIELD TERRACE (THE),,,JENNIFER ANDERSON,,,,,,,,,,,,,,,(715) 243-3903,,,,,,,,,,,,,,,,RCAC,Residential Care,"1,155/1,795",,,1127 W 8TH ST,,,NEW RICHMOND, ST CROIX,,WI,,54017,USA,45.115758,-92.555821,,False
WELLHAVEN SENIOR APARTMENTS LLC,,,TIFFANY OLSON,,,,,,,,,,,,,,,(715) 425-5353,,,,,,,,,,,,,,,,RCAC,Residential Care,"3,127/4,126",,,119 UNION ST,,,RIVER FALLS, ST CROIX,,WI,,54022,USA,44.864508,-92.622151,,False
PARK PLACE APARTMENTS,,,MELISSA WALTHALL,,,,,P O BOX 265,,,,,,,,,,(715) 698-2451,,,,,,,,,,,,,,,,RCAC,Residential Care,"975/1,150",,,210 LOCKWOOD ST,,,WOODVILLE, ST CROIX,,WI,,54028,USA,44.95491299999999,-92.2914392,,False
PARK PLACE APARTMENTS NORTH,,,MELISSA WALTHALL,,,,,P O BOX 265,,,,,,,,,,(715) 698-2451,,,,,,,,,,,,,,,,RCAC,Residential Care,"1,023/1,344",,,220 LOCKWOOD ST,,,WOODVILLE, ST CROIX,,WI,,54028,USA,44.95524829999999,-92.29126649999999,,False
COUNTRY GARDENS,,,JENNIFER VIERGUTZ,,,,,,,,,,,,,,,(715) 748-8855,,,,,,,,,,,,,,,,RCAC,Residential Care,"2,000/2,800",,,635 CEDAR St,,,MEDFORD, TAYLOR,,WI,,54451,USA,45.1356145,-90.3560467,,True
CLOVER WAY RCAC,,,LAURA ENGLESBY,,,,,,,,,,,,,,,(715) 538-4518,,,,,,,,,,,,,,,,RCAC,Residential Care,"5,800/8,000",,,36125 E END RD,,,INDEPENDENCE, TREMPEALEAU,,WI,,54747,USA,44.36512459999999,-91.4087055,,False
DOVE HEALTHCARE - OSSEO,,,JOE MUENCH,,,,,,,,,,,,,,,(715) 558-1234,,,,,,,,,,,,,,,,RCAC,Residential Care,"373/1,000",,,51017 RIDGE VIEW RD,,,OSSEO, TREMPEALEAU,,WI,,54758,USA,44.584401,-91.189966,,False
COUNTRY RIDGE,,,ROSEMARIE THESING,,,,,,,,,,,,,,,(715) 983-2293,,,,,,,,,,,,,,,,RCAC,Residential Care,475/525,,,13197 CHURCH St,,,PIGEON FALLS, TREMPEALEAU,,WI,,54760,USA,44.4240793,-91.20832510000001,,True
SUNRISE MANOR,,,BRIAN THEILER,,,,,,,,,,,,,,,(715) 538-4361,,,,,,,,,,,,,,,,RCAC,Residential Care,"740/2,000",,,36024 PARK St,,,WHITEHALL, TREMPEALEAU,,WI,,54773,USA,44.3640626,-91.317714,,True
MILESTONE SENIOR LIVING APARTMENTS,,,BRIDGET PHILLIPS   RN,,,,,,,,,,,,,,,(608) 489-3930,,,,,,,,,,,,,,,,RCAC,Residential Care,"2,925/3,375",,,504 SALSBERY,,,HILLSBORO, VERNON,,WI,,54634,USA,43.6566153,-90.3388725,,False
PLEASANT VALLEY SENIORS,,,TENNILLE L OSTHOFF,,,,,,,,,,,,,,,(608) 787-6384,,,,,,,,,,,,,,,,RCAC,Residential Care,"1,699/2,321",,,W466 CTY RD K,,,STODDARD, VERNON,,WI,,54658,USA,43.71717,-91.16838729999999,,False
MAPLEWOOD TERRACE,,,DEBRA STOUT TEWALT,,,,,,,,,,,,,,,(608) 637-6344,,,,,,,,,,,,,,,,RCAC,Residential Care,"2,076/2,812",,,620 GARFIELD St,,,VIROQUA, VERNON,,WI,,54665,USA,43.55041,-90.8927473,,True
MILESTONE SENIOR LIVING APARTMENTS,,,TARA TRAUDT,,,,,,,,,,,,,,,(715) 479-8018,,,,,,,,,,,,,,,,RCAC,Residential Care,"3,000/4,000",,,2332 RAILROAD ST,HWY 45 N,,EAGLE RIVER, VILAS,,WI,,54521,USA,45.94520199999999,-89.24996420000001,,False
LAKE SHORE CEDAR LODGE,,,TIFFANY HAINZ,,,,,,,,,,,,,,,(715) 356-2911,,,,,,,,,,,,,,,,RCAC,Residential Care,"2,500/4,500",,,12440 WARPATH LN,,,MINOCQUA, VILAS,,WI,,54548,USA,45.950215,-89.7824569,,False
RIDGESTONE COURT RCAC LLC,,,CHRISTINA KIESEL,,,,,,,,,,,,,,,(262) 728-2960,,,,,,,,,,,,,,,,RCAC,Residential Care,"3,400/4,100",,,1025 S SECOND ST,,,DELAVAN, WALWORTH,,WI,,53115,USA,42.6171669,-88.645994,,False
BROLEN PARK,,,MARY READ,,,,,,,,,,,,,,,(262) 642-9955,,,,,,,,,,,,,,,,RCAC,Residential Care,"2,950/3,150",,,2191 CHURCH ST,,,EAST TROY, WALWORTH,,WI,,53120,USA,42.7816732,-88.4053057,,False
RIDGESTONE TERRACE LLC,,,CHRISTINA KIESEL,,,,,,,,,,,,,,,(262) 743-2960,,,,,,,,,,,,,,,,RCAC,Residential Care,"3,350/4,000",,,291 W EVERGREEN PKWY,,,ELKHORN, WALWORTH,,WI,,53121,USA,42.717766,-88.54808899999999,,False
ARBOR VILLAGE OF GENEVA CROSSING,,,LAURIE WATROUS,,,,,,,,,,,,,,,(262) 248-4558,,,,,,,,,,,,,,,,RCAC,Residential Care,"4,100/5,600",,,201 TOWNLINE RD,,,LAKE GENEVA, WALWORTH,,WI,,53147,USA,42.5829244,-88.4216683,,False
GOLDEN YEARS RETIREMENT VILLAGE,,,TIM SCHNAKE,,,,,,,,,,,,,,,(262) 275-6103,,,,,,,,,,,,,,,,RCAC,Residential Care,"760/2,142",,,270 RIDGE RD,,,WALWORTH, WALWORTH,,WI,,53184,USA,42.5282239,-88.58399849999999,,False
INSPIRATION MINISTRIES RCAC,,,JILL SNYDER,,,,,PO BOX 948,,,,,,,,,,(262) 275-6131,,,,,,,,,,,,,,,,RCAC,Residential Care,"2,200/6,121",,,N2270 HWY 67,,,WALWORTH, WALWORTH,,WI,,53184,USA,42.57095619999999,-88.57849879999999,,True
MULBERRY GLEN,,,CHAD MURPHY,,,,,,,,,,,,,,,(262) 473-4515,,,,,,,,,,,,,,,,RCAC,Residential Care,"900/3,500",,,1255 W MAIN St,,,WHITEWATER, WALWORTH,,WI,,53190,USA,42.8337234,-88.7553731,,True
GLENVIEW,,,SUSAN WEATHERS,,,,,,,,,,,,,,,(715) 468-4255,,,,,,,,,,,,,,,,RCAC,Residential Care,"1,250/1,550",,,201 GLENVIEW Ln,,,SHELL LAKE, WASHBURN,,WI,,54871,USA,45.75084510000001,-91.9099529,,True
GARDENS OF HARTFORD (THE),,,CHARMAINE KNOLL,,,,,,,,,,,,,,,(262) 345-5590,,,,,,,,,,,,,,,,RCAC,Residential Care,"2,125/4,700",,,112 PEACE LUTHERAN PKWY,,,HARTFORD, WASHINGTON,,WI,,53027,USA,43.3291627,-88.3796333,,False
WATERFORD AT HARTFORD (THE),,,ANDREA WENDORF,,,,,,,,,,,,,,,(920) 378-5839,,,,,,,,,,,,,,,,RCAC,Residential Care,"3,100/5,200",,,1025 BELL AVE,,,HARTFORD, WASHINGTON,,WI,,53027,USA,43.31604979999999,-88.36328859999999,,False
LAKESHORE AT JACKSON CROSSINGS (THE),,,JACKIE CONTRERAS,,,,,,,,,,,,,,,(262) 677-3615,,,,,,,,,,,,,,,,RCAC,Residential Care,"2,870/6,180",,,N168 W22026 MAIN ST,,,JACKSON, WASHINGTON,,WI,,53037,USA,43.3246478,-88.1640292,,False
KETTLE MORAINE GARDENS RCAC,,,TINA THULL,,,,,,,,,,,,,,,(262) 626-4070,,,,,,,,,,,,,,,,RCAC,Residential Care,"2,480/3,720",,,1038 FOND DU LAC AVE,,,KEWASKUM, WASHINGTON,,WI,,53040,USA,43.5157824,-88.22319829999999,,False
CEDAR BAY EAST,,,JIM WILLIAMS,,,,,,,,,,,,,,,(262) 306-2100,,,,,,,,,,,,,,,,RCAC,Residential Care,"745/1,345",,,5577 HOME Dr,,,WEST BEND, WASHINGTON,,WI,,53095,USA,43.39443559999999,-88.24089339999999,,True
CEDAR BAY WEST,,,AMY MEYER,,,,,,,,,,,,,,,(262) 306-2130,,,,,,,,,,,,,,,,RCAC,Residential Care,"3,415/4,990",,,5555 CEDAR BAY DR,,,WEST BEND, WASHINGTON,,WI,,53095,USA,43.3917469,-88.24659190000001,,False
FIELDS OF WASHINGTON COUNTY THE,,,JESSICA TRAPP,,,,,,,,,,,,,,,(262) 365-6500,,,,,,,,,,,,,,,,RCAC,Residential Care,"3,542/4,527",,,675 E WASHINGTON ST,,,WEST BEND, WASHINGTON,,WI,,53095,USA,43.4260366,-88.1703342,,False
NEW PERSPECTIVE-WEST BEND,,,JOHN WIMAN,,,,,,,,,,,,,,,(262) 438-5801,,,,,,,,,,,,,,,,RCAC,Residential Care,"2,500/2,500",,,2130 CONTINENTAL DR,,,WEST BEND, WASHINGTON,,WI,,53095,USA,43.3938872,-88.19908579999999,,False
CONGREGATIONAL HOME,,,CHARLES NELSON,,,,,,,,,,,,,,,(262) 781-0550,,,,,,,,,,,,,,,,RCAC,Residential Care,"3,380/3,713",,,13900 W BURLEIGH,,,BROOKFIELD, WAUKESHA,,WI,,53005,USA,43.0759959,-88.0849365,Capitol Drive Garden Acres,False
CONGREGATIONAL HOME,,,CHARLES T NELSON,,,,,,,,,,,,,,,(262) 781-0550,,,,,,,,,,,,,,,,RCAC,Residential Care,"870/4,995",,,3140 LILLY Rd,,,BROOKFIELD, WAUKESHA,,WI,,53005,USA,43.07622500000001,-88.08480999999999,Capitol Drive Garden Acres,True
PRO HEALTH CARE REGENCY SENIOR COMMUNITIES,,,KATHY PEGELOW,,,,,,,,,,,,,,,(262) 780-0321,,,,,,,,,,,,,,,,RCAC,Residential Care,"2,730/5,160",,,777 N BROOKFIELD RD,,,BROOKFIELD, WAUKESHA,,WI,,53045,USA,43.0400092,-88.14804869999999,,False
COMPASS POINT,,,RICHARD MAPES,,,,,,,,,,,,,,,(262) 965-7212,,,,,,,,,,,,,,,,RCAC,Residential Care,"3,510/5,675",,,365 SUNSET DR,,,DOUSMAN, WAUKESHA,,WI,,53118,USA,42.9778947,-88.4800538,,False
HERITAGE ELM GROVE H12,,,DIANA GAST,,,,,,,,,,,,,,,(262) 786-5800,,,,,,,,,,,,,,,,RCAC,Residential Care,"3,500/6,400",,,800 WALL ST,,,ELM GROVE, WAUKESHA,,WI,,53122,USA,43.0403232,-88.0764861,,False
HERITAGE LAKE COUNTRY,,,MICHELLE BURNETT,,,,,,,,,,,,,,,(262) 367-2975,,,,,,,,,,,,,,,,RCAC,Residential Care,"3,550/6,000",,,2975 VILLAGE SQUARE DR,,,HARTLAND, WAUKESHA,,WI,,53029,USA,43.10236329999999,-88.3677199,,False
MATTHEWS OF HARTLAND,,,ROXANNE STUTZ,,,,,,,,,,,,,,,(312) 623-0884,,,,,,,,,,,,,,,,RCAC,Residential Care,"3,450/7,000",,,300 E NORTH SHORE DR,,,HARTLAND, WAUKESHA,,WI,,53029,USA,43.0836109,-88.342878,,False
ARBORETUM V LLC (THE),,,,,,,,,,,,,,,,,,(262) 253-0909,,,,,,,,,,,,,,,,RCAC,Residential Care,"3,310/3,910",,,W180 N7890 TOWN HALL RD,,,MENOMONEE FALLS, WAUKESHA,,WI,,53051,USA,43.1603266,-88.13203969999999,,False
DICKSON HOLLOW,,,JENNIFER MILKIEWICZ,,,,,,,,,,,,,,,(262) 599-8301,,,,,,,,,,,,,,,,RCAC,Residential Care,"2,950/4,195",,,W156 N4881 PILGRIM RD,,,MENOMONEE FALLS, WAUKESHA,,WI,,53051,USA,43.1053345,-88.107334,,False
MENOMONEE PLACE,,,NICOLE SCHNEIDER,,,,,,,,,,,,,,,(262) 255-4441,,,,,,,,,,,,,,,,RCAC,Residential Care,"7,440/10,458",,,N84 W17147 MENOMONEE AVE,,,MENOMONEE FALLS, WAUKESHA,,WI,,53051,USA,43.1694701,-88.1228825,,False
LINDENRIDGE,,,JEANNE PICCIONE,,,,,,,,,,,,,,,(262) 363-6830,,,,,,,,,,,,,,,,RCAC,Residential Care,"3,060/3,775",,,841 E VETERANS WAY,,,MUKWONAGO, WAUKESHA,,WI,,53149,USA,42.8732193,-88.3218576,,False
TUDOR OAKS,,,SHANNA ECKBERG,,,,,,,,,,,,,,,(414) 529-0100,,,,,,,,,,,,,,,,RCAC,Residential Care,"1,025/1,853",,,S77 W12929 MCSHANE DR,,,MUSKEGO, WAUKESHA,,WI,,53150,USA,42.9040681,-88.0774232,,False
TUDOR OAKS WINDSOR HOUSE,,,SHANNA ECKBERG,,,,,,,,,,,,,,,(414) 529-0100,,,,,,,,,,,,,,,,RCAC,Residential Care,"3,679/6,973",,,S77 W12929 MCSHANE DR,,,MUSKEGO, WAUKESHA,,WI,,53150,USA,42.9040681,-88.0774232,,False
TUDOR OAKS WINDSOR MANOR,,,SHANNA ECKBERG,,,,,,,,,,,,,,,(414) 529-0100,,,,,,,,,,,,,,,,RCAC,Residential Care,"3,679/6,973",,,S77 W12929 MCSHANE DR,,,MUSKEGO, WAUKESHA,,WI,,53150,USA,42.9040681,-88.0774232,,False
HERITAGE DEER CREEK H2 LLC,,,CONNIE KNAPP,,,,,,,,,,,,,,,(262) 789-6600,,,,,,,,,,,,,,,,RCAC,Residential Care,"3,200/4,500",,,3585 S 147TH ST,,,NEW BERLIN, WAUKESHA,,WI,,53151,USA,42.9790338,-88.0976627,,False
SHOREHAVEN TOWER,,,LISA RECHT,,,,,,,,,,,,,,,(262) 567-1415,,,,,,,,,,,,,,,,RCAC,Residential Care,"2,355/5,336",,,1305 W WISCONSIN AVE,,,OCONOMOWOC, WAUKESHA,,WI,,53066,USA,43.1196359,-88.5218405,,False
WILKINSON WOODS V LLC,,,JEAN WARNER,,,,,,,,,,,,,,,(262) 567-1166,,,,,,,,,,,,,,,,RCAC,Residential Care,"3,740/4,465",,,999 EAST SUMMIT AVE,,,OCONOMOWOC, WAUKESHA,,WI,,53066,USA,43.098352,-88.48623889999999,,False
CECELIA PLACE,,,GERALD J. KALLAS,,,,,,,,,,,,,,,(414) 322-1434,,,,,,,,,,,,,,,,RCAC,Residential Care,"3,350/6,000",,,1061 CECELIA Dr,,,PEWAUKEE, WAUKESHA,,WI,,53072,USA,43.0843972,-88.2434279,,True
KIRKLAND CROSSINGS RCAC,,,SUSAN SEEGERT,,,,,,,,,,,,,,,(262) 695-5800,,,,,,,,,,,,,,,,RCAC,Residential Care,"3,235/4,315",,,700 QUINLAN DR,,,PEWAUKEE, WAUKESHA,,WI,,53072,USA,43.0924685,-88.27700899999999,,False
MATTHEWS OF PEWAUKEE RCAC,,,LESLIE FRITSCHE,,,,,,,,,,,,,,,(262) 695-6413,,,,,,,,,,,,,,,,RCAC,Residential Care,"3,270/6,014",,,1109 CECELIA DR,,,PEWAUKEE, WAUKESHA,,WI,,53072,USA,43.08420789999999,-88.242194,,False
LAKE COUNTRY LANDING,,,LORI LUTZE,,,,,,,,,,,,,,,(262) 567-5093,,,,,,,,,,,,,,,,RCAC,Residential Care,,,,2255 N STONEHEDGE Trl,,,SUMMIT, WAUKESHA,,WI,,53066,USA,43.05973639999999,-88.4686411,,True
AVALON SQUARE,,,KARI AJACK,,,,,,,,,,,,,,,(262) 446-9300,,,,,,,,,,,,,,,,RCAC,Residential Care,"2,850/4,080",,,222 PARK PL,,,WAUKESHA, WAUKESHA,,WI,,53186,USA,43.0113782,-88.22955069999999,,False
LINDENHEIGHTS RCAC,,,KATIE QUINTANILLA,,,,,,,,,,,,,,,(262) 524-6400,,,,,,,,,,,,,,,,RCAC,Residential Care,"2,785/3,680",,,427 N UNIVERSITY DR,,,WAUKESHA, WAUKESHA,,WI,,53188,USA,43.01910349999999,-88.2674171,,False
OAK HILL TERRACE RCAC,,,ROBERT BEST,,,,,,,,,,,,,,,(262) 548-1457,,,,,,,,,,,,,,,,RCAC,Residential Care,"3,070/3,825",,,1805 KENSINGTON DR,,,WAUKESHA, WAUKESHA,,WI,,53188,USA,43.000477,-88.2570071,,False
SUMMIT WOODS,,,ASHLEY ZIEGELBAUER,,,,,,,,,,,,,,,(262) 521-1388,,,,,,,,,,,,,,,,RCAC,Residential Care,"750/3,300",,,2501 SUMMIT AVE,,,WAUKESHA, WAUKESHA,,WI,,53188,USA,43.0204132,-88.2669872,,False
ASTER ASSISTED LIVING OF CLINTONVILLE,,,DEBRA ROTH,,,,,,,,,,,,,,,(715) 823-4344,,,,,,,,,,,,,,,,RCAC,Residential Care,"2,925/3,900",,,38 N MAIN ST,,,CLINTONVILLE, WAUPACA,,WI,,54929,USA,44.6244479,-88.7588657,,False
LIVING OAKS,,,TANYA PEOTTER,,,,,,,,,,,,,,,(715) 445-4440,,,,,,,,,,,,,,,,RCAC,Residential Care,"2,525/4,730",,,505 WEST IOLA St,,,IOLA, WAUPACA,,WI,,54945,USA,44.506028,-89.137028,,True
WASHINGTON CENTER THE,,,GIDGET BLANK,,,,,,,,,,,,,,,(920) 982-5354,,,,,,,,,,,,,,,,RCAC,Residential Care,"2,507/3,002",,,500 W WASHINGTON ST,,,NEW LONDON, WAUPACA,,WI,,54961,USA,44.386028,-88.74558100000002,,False
BETHANY PINES,,,PAULINE DARLING,,,,,,,,,,,,,,,(715) 258-5521,,,,,,,,,,,,,,,,RCAC,Residential Care,"717/1,797",,,50 SHADOW WOODS Ln,,,WAUPACA, WAUPACA,,WI,,54981,USA,44.3440184,-89.08495529999999,,True
PARK VISTA RETIREMENT LIVING WAUPACA,,,KELLEY ROBINSON,,,,,,,,,,,,,,,(715) 256-1390,,,,,,,,,,,,,,,,RCAC,Residential Care,"1,628/2,835",,,950 COUNTY RD QQ,,,WAUPACA, WAUPACA,,WI,,54981,USA,44.34778939999999,-89.1256373,,False
PRESTON PLACE RCAC,,,DAWN WILSON,,,,,,,,,,,,,,,(920) 566-0790,,,,,,,,,,,,,,,,RCAC,Residential Care,"2,000/3,350",,,401 PRESTON LN,,,REDGRANITE, WAUSHARA,,WI,,54970,USA,44.03622780000001,-89.0926335,,False
HEARTLAND HOUSE RCAC,,,BEVERLY WALKER,,,,,,,,,,,,,,,(920) 787-2467,,,,,,,,,,,,,,,,RCAC,Residential Care,"2,250/4,500",,,668 W CUMMINGS RD,,,WAUTOMA, WAUSHARA,,WI,,54982,USA,44.0753578,-89.3010786,,False
SILVER LAKE MANOR RCAC,,,LINDA ZIMMERMAN,,,,,PO BOX 1267,,,,,,,,,,(920) 787-7141,,,,,,,,,,,,,,,,RCAC,Residential Care,550/550,,,N2641 17TH Ln,,,WAUTOMA, WAUSHARA,,WI,,54982,USA,44.0734225,-89.2741319,,False
HERITAGE ASSISTED LIVING,,,DONNA SCHOEN,,,,,,,,,,,,,,,(920) 738-3000,,,,,,,,,,,,,,,,RCAC,Residential Care,"1,016/2,031",,,2600 S HERITAGE WOODS DR,,,APPLETON, WINNEBAGO,,WI,,54915,USA,44.2390361,-88.4149834,,False
TOUCHMARK ON WEST PROSPECT,,,BARB PANDOLFO,,,,,,,,,,,,,,,(920) 832-9100,,,,,,,,,,,,,,,,RCAC,Residential Care,"2,325/3,295",,,2601 TOUCHMARK DR,,,APPLETON, WINNEBAGO,,WI,,54914,USA,44.2428712,-88.4578609,,False
ALEXANDRITE MANOR VNA APARTMENTS,,,THERESA PICHELMEYER,,,,,,,,,,,,,,,(920) 727-5544,,,,,,,,,,,,,,,,RCAC,Residential Care,"2,200/3,000",,,1537 LYON Dr,,,NEENAH, WINNEBAGO,,WI,,54956,USA,44.154419,-88.46057130000001,,True
EMERALD RIDGE ASSISTED LIVING LLC,,,KATHERINE TEGEN,,,,,,,,,,,,,,,(920) 378-5839,,,,,,,,,,,,,,,,RCAC,Residential Care,"2,700/4,000",,,130 BYRD AVE,,,NEENAH, WINNEBAGO,,WI,,54956,USA,44.1634216,-88.4676047,,False
ISLAND SHORES,,,MARY ROGALA,,,,,,,,,,,,,,,(920) 980-4055,,,,,,,,,,,,,,,,RCAC,Residential Care,"2,600/5,000",,,131 E NORTH WATER ST,,,NEENAH, WINNEBAGO,,WI,,54956,USA,44.1895886,-88.4568819,,False
BELLA VISTA,,,MICHAEL DAVIS,,,,,,,,,,,,,,,(920) 233-6667,,,,,,,,,,,,,,,,RCAC,Residential Care,"2,140/4,680",,,631 HAZEL ST,,,OSHKOSH, WINNEBAGO,,WI,,54901,USA,44.0229349,-88.5225853,,False
EVERGREEN GARDEN PLACE,,,STACEY LICTENSTEIGER,,,,,,,,,,,,,,,(920) 426-7366,,,,,,,,,,,,,,,,RCAC,Residential Care,921/921,,,1130 NORTH WESTFIELD St,,,OSHKOSH, WINNEBAGO,,WI,,54901,USA,44.0303689,-88.5733709,,True
GABRIELS VILLA,,,KIM BAUER,,,,,,,,,,,,,,,(920) 236-0700,,,,,,,,,,,,,,,,RCAC,Residential Care,"2,010/2,700",,,215 N WESTFIELD ST,,,OSHKOSH, WINNEBAGO,,WI,,54902,USA,44.0196108,-88.5775896,,False
ASTER ASSISTED LIVING OF MARSHFIELD,,,JUDI TRUDEN,,,,,,,,,,,,,,,(715) 384-6611,,,,,,,,,,,,,,,,RCAC,Residential Care,"3,475/4,325",,,305 S CHESTNUT Ave,,,MARSHFIELD, WOOD,,WI,,54449,USA,44.6654494,-90.1764505,,True
RETIREMENT COMMUNITY OF NEKOOSA,,,JESSICA MAURER,,,,,,,,,,,,,,,(715) 886-5353,,,,,,,,,,,,,,,,RCAC,Residential Care,"1,153/6,111",,,145 NORTH CEDAR ST,,,NEKOOSA, WOOD,,WI,,54457,USA,44.3158173,-89.9092615,,False
ARBORWOOD LODGE,,,KARLA BLENKER,,,,,,,,,,,,,,,(715) 712-1299,,,,,,,,,,,,,,,,RCAC,Residential Care,"3,100/4,115",,,1175 BLUE IRIS CT,,,WISCONSIN RAPIDS, WOOD,,WI,,54494,USA,44.35987499999999,-89.8107059,,False
ATRIUM SENIOR LIVING OF WIS RAPIDS AT RIVER RUN,,,MELISSA KOWALESKI,,,,,,,,,,,,,,,(715) 421-1400,,,,,,,,,,,,,,,,RCAC,Residential Care,"2,850/3,775",,,1400 RIVER RUN DR,,,WISCONSIN RAPIDS, WOOD,,WI,,54494,USA,44.377572,-89.809207,,False
HILLTOP GRAND VILLAGE INC,,,ANITA WHETSTONE,,,,,,,,,,,,,,,(715) 423-7400,,,,,,,,,,,,,,,,RCAC,Residential Care,"3,650/4,750",,,1400 24TH ST S,,,WISCONSIN RAPIDS, WOOD,,WI,,54494,USA,44.3787212,-89.79693569999999,,True
