name,contact_first_name,contact_last_name,contact_name,email,contact_email,fax,mailing_address_line_1,mailing_address_line_2,mailing_city,mailing_contact_first_name,mailing_contact_last_name,mailing_contact_name,mailing_country,mailing_county,mailing_postalcode,mailing_province,provider_name,primary_phone,secondary_phone,twitter,website,source,contact_occupation,dsgne_first_name,dsgne_last_name,admin_name,co_address_line_1,co_address_line_2,co_company,co_city,co_postalcode,co_province,ombudsman_phone,typeofcare,typeofcare2,low_high_rate,low_rate,high_rate,address_line_1,address_line_2,address_directions,city,municipality,region,province,state_id,postal_code,country,latitude,longitude,neighborhood,addr_valid
Chartwell Country Cottage Retirement Residence,,,,,,,,,,,,,,,,,,587-745-0494,,,,http://chartwell.com/Retirement-Homes/Chartwell-Country-Cottage-Retirement-Residence,,,,,,,,,,,,Retirement Home,,,,,75 Cranford Way,,,Sherwood Park,,,AB,,T8H 2B9,Canada,53.54326709999999,-113.2924421,,True
Chartwell Royal Park Retirement Residence,,,,,,,,,,,,,,,,,,587-287-3939,,,,http://chartwell.com/Retirement-Homes/Chartwell-Royal-Park-Retirement-Residence,,,,,,,,,,,,Retirement Home,,,,,4315 Richardson Rd SW,,,Calgary,,,AB,,T3E 7J7,Canada,51.01637819999999,-114.1354163,Southwest Calgary,True
Chartwell Eau Claire Care Residence,,,,,,,,,,,,,,,,,,587-287-3943,,,,http://chartwell.com/Retirement-Homes/Chartwell-Eau-Claire-Care-Residence,,,,,,,,,,,,Retirement Home,,,,,301 7th St SW,,,Calgary,,,AB,,T2P 1Y6,Canada,51.0504858,-114.0791145,Downtown,True
Chartwell Wild Rose Retirement Residence,,,,,,,,,,,,,,,,,,587-487-4546,,,,http://chartwell.com/Retirement-Homes/Chartwell-Wild-Rose-Retirement-Residence,,,,,,,,,,,,Retirement Home,,,,,9612 172nd St NW,,,Edmonton,,,AB,,T5T 6C7,Canada,53.53274570000001,-113.6196592,West Edmonton,True
Chartwell Harbours Retirement Residence,,,,,,,,,,,,,,,,,,587-287-3941,,,,http://chartwell.com/Retirement-Homes/Chartwell-Harbours-Retirement-Residence,,,,,,,,,,,,Retirement Home,,,,,20 Country Village Cove NE,,,Calgary,,,AB,,T3K 5T9,Canada,51.15662750000001,-114.0581105,Northeast Calgary,True
Chartwell Fountains of Mission Retirement Residence,,,,,,,,,,,,,,,,,,587-287-3945,,,,http://chartwell.com/Retirement-Homes/Chartwell-Fountains-of-Mission-Retirement-Residence,,,,,,,,,,,,Retirement Home,,,,,222 25th Ave SW,,,Calgary,,,AB,,T2S 3E9,Canada,51.0307077,-114.068064,Southwest Calgary,True
Chartwell Colonel Belcher Retirement Residence,,,,,,,,,,,,,,,,,,587-287-3937,,,,http://chartwell.com/Retirement-Homes/Chartwell-Colonel-Belcher-Retirement-Residence,,,,,,,,,,,,Retirement Home,,,,,1945 Veteran's Way NW,,,Calgary,,,AB,,T3B 5Y7,Canada,51.0625742,-114.1447592,Northwest Calgary,True
Chartwell Wescott Retirement Residence,,,,,,,,,,,,,,,,,,587-487-4032,,,,http://chartwell.com/Retirement-Homes/Chartwell-Wescott-Retirement-Residence,,,,,,,,,,,,Retirement Home,,,,,3841 Allan Dr SW,,,Edmonton,,,AB,,T6W 0S7,Canada,53.4248205,-113.604608,Southwest Edmonton,True
Chartwell Carlton Care Residence,,,,,,,,,,,,,,,,,,604-419-3000,,,,http://chartwell.com/Retirement-Homes/Chartwell-Carlton-Care-Residence,,,,,,,,,,,,Retirement Home,,,,,4108 Norfolk St,,,Burnaby,,,BC,,V5G 0B4,Canada,49.2551453,-123.0127914,,True
Chartwell Malaspina Care Residence,,,,,,,,,,,,,,,,,,250-754-7711,,,,http://chartwell.com/Retirement-Homes/Chartwell-Malaspina-Care-Residence,,,,,,,,,,,,Retirement Home,,,,,100 Eleventh St,,,Nanaimo,,,BC,,V9R 6R6,Canada,49.1298481,-123.9224671,,True
Chartwell Malaspina Care Residence,,,,,,,,,,,,,,,,,,604-888-0228,,,,http://chartwell.com/Retirement-Homes/Chartwell-Malaspina-Care-Residence,,,,,,,,,,,,Retirement Home,,,,,100 Eleventh St,,,Nanaimo,,,BC,,V9R 6R6,Canada,49.1298481,-123.9224671,,True
Chartwell Malaspina Care Residence,,,,,,,,,,,,,,,,,,604-888-0228,,,,http://chartwell.com/Retirement-Homes/Chartwell-Malaspina-Care-Residence,,,,,,,,,,,,Retirement Home,,,,,100 Eleventh St,,,Nanaimo,,,BC,,V9R 6R6,Canada,49.1298481,-123.9224671,,True
Chartwell Malaspina Care Residence,,,,,,,,,,,,,,,,,,604-888-0228,,,,http://chartwell.com/Retirement-Homes/Chartwell-Malaspina-Care-Residence,,,,,,,,,,,,Retirement Home,,,,,100 Eleventh St,,,Nanaimo,,,BC,,V9R 6R6,Canada,49.1298481,-123.9224671,,True
Chartwell Malaspina Care Residence,,,,,,,,,,,,,,,,,,604-888-0228,,,,http://chartwell.com/Retirement-Homes/Chartwell-Malaspina-Care-Residence,,,,,,,,,,,,Retirement Home,,,,,100 Eleventh St,,,Nanaimo,,,BC,,V9R 6R6,Canada,49.1298481,-123.9224671,,True
Chartwell Langley Gardens Retirement Residence,,,,,,,,,,,,,,,,,,604-676-3097,,,,http://chartwell.com/Retirement-Homes/Chartwell-Langley-Gardens-Retirement-Residence,,,,,,,,,,,,Retirement Home,,,,,8888 202 St,,,Langley,,,BC,,V1M 4A7,Canada,49.1660759,-122.6605598,,True
Assisted Living at Chartwell Langley Gardens,,,,,,,,,,,,,,,,,,(604) 676-3097,,,,http://chartwell.com/Retirement-Homes/Assisted-Living-at-Chartwell-Langley-Gardens,,,,,,,,,,,,Retirement Home,,,,,8888 202 St,,,Langley,,,BC,,V1M 4A7,Canada,49.1660759,-122.6605598,,True
Chartwell Langley Gardens Care Residence,,,,,,,,,,,,,,,,,,604-888-0228,,,,http://chartwell.com/Retirement-Homes/Chartwell-Langley-Gardens-Care-Residence,,,,,,,,,,,,Retirement Home,,,,,8888 202 St,,,Langley,,,BC,,V1M 4A7,Canada,49.1660759,-122.6605598,,True
Chartwell Crescent Gardens Retirement Residence,,,,,,,,,,,,,,,,,,778-736-0345,,,,http://chartwell.com/Retirement-Homes/Chartwell-Crescent-Gardens-Retirement-Residence,,,,,,,,,,,,Retirement Home,,,,,1222 King George Blvd,,,Surrey,,,BC,,V4A 9W6,Canada,49.0243698,-122.7651873,,True
Assisted Living at Chartwell Crescent Gardens,,,,,,,,,,,,,,,,,,778-736-0345,,,,http://chartwell.com/Retirement-Homes/Assisted-Living-at-Chartwell-Crescent-Gardens,,,,,,,,,,,,Retirement Home,,,,,1222 King George Blvd,,,Surrey,,,BC,,V4A 9W6,Canada,49.0243698,-122.7651873,,True
Chartwell Crescent Gardens Care Residence,,,,,,,,,,,,,,,,,,604-541-8861,,,,http://chartwell.com/Retirement-Homes/Chartwell-Crescent-Gardens-Care-Residence,,,,,,,,,,,,Retirement Home,,,,,1222 King George Blvd,,,Surrey,,,BC,,V4A 9W6,Canada,49.0243698,-122.7651873,,True
Chartwell Carlton Retirement Residence,,,,,,,,,,,,,,,,,,778-300-2388,,,,http://chartwell.com/Retirement-Homes/Chartwell-Carlton-Retirement-Residence,,,,,,,,,,,,Retirement Home,,,,,4110 Norfolk St,,,Burnaby,,,BC,,V5G 1E8,Canada,49.25514580000001,-123.0128516,,True
Chartwell Birchwood Senior Cottages,,,,,,,,,,,,,,,,,,604-426-0555,,,,http://chartwell.com/Retirement-Homes/Chartwell-Birchwood-Senior-Cottages,,,,,,,,,,,,Retirement Home,,,,,45650 Patten Ave,,,Chilliwack,,,BC,,V2P 1S4,Canada,49.1692141,-121.9612748,Chilliwack Proper Village West,True
Chartwell Chatsworth Senior Bungalows,,,,,,,,,,,,,,,,,,778-721-0348,,,,http://chartwell.com/Retirement-Homes/Chartwell-Chatsworth-Senior-Bungalows,,,,,,,,,,,,Retirement Home,,,,,1831 Parkview Cr,,,Kelowna,,,BC,,V1X 7G7,Canada,49.881085,-119.4264722,Central City,True
Chartwell Hampton House Retirement Residence,,,,,,,,,,,,,,,,,,604-426-0451,,,,http://chartwell.com/Retirement-Homes/Chartwell-Hampton-House-Retirement-Residence,,,,,,,,,,,,Retirement Home,,,,,45555 Hodgins Ave,,,Chilliwack,,,BC,,V2P 1P3,Canada,49.1678186,-121.9639653,Chilliwack Proper Village West,True
Chartwell Kamloops Retirement Residence,,,,,,,,,,,,,,,,,,778-376-2000,,,,http://chartwell.com/Retirement-Homes/Chartwell-Kamloops-Retirement-Residence,,,,,,,,,,,,Retirement Home,,,,,628 Tranquille Rd,,,Kamloops,,,BC,,V2B 3H6,Canada,50.695277,-120.3601029,North Shore,True
Chartwell Imperial Place Retirement Residence,,,,,,,,,,,,,,,,,,778-735-0540,,,,http://chartwell.com/Retirement-Homes/Chartwell-Imperial-Place-Retirement-Residence,,,,,,,,,,,,Retirement Home,,,,,13853 102nd Ave,,,Surrey,,,BC,,V3T 5P6,Canada,49.1887438,-122.8383032,Whalley,True
Chartwell Lynnwood Retirement Residence,,,,,,,,,,,,,,,,,,604-426-0453,,,,http://chartwell.com/Retirement-Homes/Chartwell-Lynnwood-Retirement-Residence,,,,,,,,,,,,Retirement Home,,,,,9168 Corbould St,,,Chilliwack,,,BC,,V2P 8A1,Canada,49.1685801,-121.9643029,Chilliwack Proper Village West,True
Chartwell Willow Retirement Community,,,,,,,,,,,,,,,,,,604-676-3099,,,,http://chartwell.com/Retirement-Homes/Chartwell-Willow-Retirement-Community,,,,,,,,,,,,Retirement Home,,,,,12275 224th St,,,Maple Ridge,,,BC,,V2X 6H5,Canada,49.2252485,-122.6020242,,True
Chartwell Churchill House Retirement Residence,,,,,,,,,,,,,,,,,,778-382-0098,,,,http://chartwell.com/Retirement-Homes/Chartwell-Churchill-House-Retirement-Residence,,,,,,,,,,,,Retirement Home,,,,,150 West 29th St,,,North Vancouver,,,BC,,V7N 0A1,Canada,49.33606899999999,-123.073389,,True
Chartwell Ridgepointe Retirement Residence,,,,,,,,,,,,,,,,,,778-376-2002,,,,http://chartwell.com/Retirement-Homes/Chartwell-Ridgepointe-Retirement-Residence,,,,,,,,,,,,Retirement Home,,,,,1789 Primrose Ct,,,Kamloops,,,BC,,V1S 0B7,Canada,50.6533779,-120.3940219,Aberdeen,True
Chartwell Renaissance Retirement Residence,,,,,,,,,,,,,,,,,,778-726-0841,,,,http://chartwell.com/Retirement-Homes/Chartwell-Renaissance-Retirement-Residence,,,,,,,,,,,,Retirement Home,,,,,6676 203rd St,,,Langley,,,BC,,V2Y 2Z1,Canada,49.12389229999999,-122.659235,Willoughby,True
Chartwell Birchwood Retirement Residence,,,,,,,,,,,,,,,,,,604-426-0455,,,,http://chartwell.com/Retirement-Homes/Chartwell-Birchwood-Retirement-Residence,,,,,,,,,,,,Retirement Home,,,,,45650 Patten Ave,,,Chilliwack,,,BC,,V2P 1S4,Canada,49.1692141,-121.9612748,Chilliwack Proper Village West,True
Chartwell Carrington House Retirement Residence,,,,,,,,,,,,,,,,,,604-557-5152,,,,http://chartwell.com/Retirement-Homes/Chartwell-Carrington-House-Retirement-Residence,,,,,,,,,,,,Retirement Home,,,,,32679 6th Ave,,,Mission,,,BC,,V2V 1Y8,Canada,49.13911849999999,-122.3198829,,True
Chartwell Carrington Place Retirement Residence,,,,,,,,,,,,,,,,,,866-237-1512,,,,http://chartwell.com/Retirement-Homes/Chartwell-Carrington-Place-Retirement-Residence,,,,,,,,,,,,Retirement Home,,,,,4651 23rd St,,,Vernon,,,BC,,V1T 4K7,Canada,50.28095609999999,-119.2622888,,True
Chartwell Cedarbrooke Retirement Residence,,,,,,,,,,,,,,,,,,604-557-5154,,,,http://chartwell.com/Retirement-Homes/Chartwell-Cedarbrooke-Retirement-Residence,,,,,,,,,,,,Retirement Home,,,,,32331 7th Ave,,,Mission,,,BC,,V2V 6T7,Canada,49.1407494,-122.3292887,,True
Chartwell Chatsworth Retirement Residence,,,,,,,,,,,,,,,,,,778-738-0623,,,,http://chartwell.com/Retirement-Homes/Chartwell-Chatsworth-Retirement-Residence,,,,,,,,,,,,Retirement Home,,,,,1831 Parkview Cr,,,Kelowna,,,BC,,V1X 7G7,Canada,49.881085,-119.4264722,Central City,True
Chartwell Oak Park Terrace Retirement Residence,,,,,,,,,,,,,,,,,,226-526-9690,,,,http://chartwell.com/Retirement-Homes/Chartwell-Oak-Park-Terrace-Retirement-Residence,,,,,,,,,,,,Retirement Home,,,,,1750 EC Row North Service Rd,,,Windsor,,,ON,,N8W 1Y3,Canada,42.2836192,-82.9895894,Remington Park,True
Chartwell Oakville Retirement Residence,,,,,,,,,,,,,,,,,,289-644-2959,,,,http://chartwell.com/Retirement-Homes/Chartwell-Oakville-Retirement-Residence,,,,,,,,,,,,Retirement Home,,,,,180 Oak Park Blvd,,,Oakville,,,ON,,L6H 0A6,Canada,43.4807269,-79.71757269999999,Uptown Core,True
Chartwell Centennial Retirement Residence,,,,,,,,,,,,,,,,,,289-634-7773,,,,http://chartwell.com/Retirement-Homes/Chartwell-Centennial-Retirement-Residence,,,,,,,,,,,,Retirement Home,,,,,259 Hillcroft St,,,Oshawa,,,ON,,L1G 8E4,Canada,43.9123561,-78.8597526,O'Neill,True
Chartwell Oak Park LaSalle Retirement Residence,,,,,,,,,,,,,,,,,,226-526-9692,,,,http://chartwell.com/Retirement-Homes/Chartwell-Oak-Park-LaSalle-Retirement-Residence,,,,,,,,,,,,Retirement Home,,,,,3955 Thirteenth St,,,Lasalle,,,ON,,N9H 2S7,Canada,42.24671499999999,-83.0346816,,True
Chartwell Chateau Cornwall Retirement Residence,,,,,,,,,,,,,,,,,,613-937-7275,,,,http://chartwell.com/Retirement-Homes/Chartwell-Chateau-Cornwall-Retirement-Residence,,,,,,,,,,,,Retirement Home,,,,,41 Amelia St,,,Cornwall,,,ON,,K6H 7E5,Canada,45.0177468,-74.72301279999999,,True
Chartwell Chateau Georgian Retirement Residence,,,,,,,,,,,,,,,,,,705-269-0285,,,,http://chartwell.com/Retirement-Homes/Chartwell-Chateau-Georgian-Retirement-Residence,,,,,,,,,,,,Retirement Home,,,,,455 Cedar St N,,,Timmins,,,ON,,P4N 8K4,Canada,48.4856261,-81.3306149,,True
Chartwell Brant Centre Long Term Care Residence,,,,,,,,,,,,,,,,,,905-639-2848,,,,http://chartwell.com/Long-Term-Care-Homes/Chartwell-Brant-Centre-Long-Term-Care-Residence,,,,,,,,,,,,Long-Term Care,,,,,1182 Northshore Blvd E,,,Burlington,,,ON,,L7S 1C5,Canada,43.3164429,-79.8039345,,True
Chartwell Muskoka Traditions Retirement Residence,,,,,,,,,,,,,,,,,,705-224-0132,,,,http://chartwell.com/Retirement-Homes/Chartwell-Muskoka-Traditions-Retirement-Residence,,,,,,,,,,,,Retirement Home,,,,,16 Legacy Ln,,,Huntsville,,,ON,,P1H 0B1,Canada,45.34053610000001,-79.2259481,,True
Chartwell New Edinburgh Square Retirement Residence,,,,,,,,,,,,,,,,,,343-882-4758,,,,http://chartwell.com/Retirement-Homes/Chartwell-New-Edinburgh-Square-Retirement-Residence,,,,,,,,,,,,Retirement Home,,,,,420 MacKay St,,,Ottawa,,,ON,,K1M 2C4,Canada,45.4398169,-75.6770544,New Edinburgh,True
Chartwell Niagara Long Term Care Residence,,,,,,,,,,,,,,,,,,905-468-2111,,,,http://chartwell.com/Long-Term-Care-Homes/Chartwell-Niagara-Long-Term-Care-Residence,,,,,,,,,,,,Long-Term Care,,,,,120 Wellington St,Box 985,,Niagara-on-the-Lake,,,ON,,L0S 1J0,Canada,43.25496380000001,-79.0657413,Historic Old Town,True
Chartwell Bon Air Long Term Care Residence,,,,,,,,,,,,,,,,,,705-432-2385,,,,http://chartwell.com/Long-Term-Care-Homes/Chartwell-Bon-Air-Long-Term-Care-Residence,,,,,,,,,,,,Long-Term Care,,,,,131 Laidlaw St S,,,Cannington,,,ON,,L0E 1E0,Canada,44.34588859999999,-79.0374762,,True
Chartwell Avondale Retirement Residence,,,,,,,,,,,,,,,,,,647-547-1812,,,,http://chartwell.com/Retirement-Homes/Chartwell-Avondale-Retirement-Residence,,,,,,,,,,,,Retirement Home,,,,,1238 Queen St E,,,Toronto,,,ON,,M4L 1C3,Canada,43.6636477,-79.3298257,,True
Chartwell Aylmer Long Term Care Residence,,,,,,,,,,,,,,,,,,519-773-3423,,,,http://chartwell.com/Long-Term-Care-Homes/Chartwell-Aylmer-Long-Term-Care-Residence,,,,,,,,,,,,Long-Term Care,,,,,465 Talbot St W,,,Aylmer,,,ON,,N5H 1K8,Canada,42.7739425,-80.9975965,,True
Chartwell Ballycliffe Long Term Care and Retirement Residence,,,,,,,,,,,,,,,,,,289-608-9888,,,,http://chartwell.com/Long-Term-Care-Homes/Chartwell-Ballycliffe-Long-Term-Care-and-Retirement-Residence,,,,,,,,,,,,Long-Term Care,,,,,70 Station St,,,Ajax,,,ON,,L1S 1R9,Canada,43.85122,-79.024975,,True
Chartwell Bankside Retirement Residence,,,,,,,,,,,,,,,,,,226-336-8940,,,,http://chartwell.com/Retirement-Homes/Chartwell-Bankside-Retirement-Residence,,,,,,,,,,,,Retirement Home,,,,,71 Bankside Dr,,,Kitchener,,,ON,,N2N 3L1,Canada,43.4315108,-80.52859850000002,Highland West,True
Chartwell Barclay House Retirement Residence,,,,,,,,,,,,,,,,,,705-707-0998,,,,http://chartwell.com/Retirement-Homes/Chartwell-Barclay-House-Retirement-Residence,,,,,,,,,,,,Retirement Home,,,,,600 Chippewa St W,,,North Bay,,,ON,,P1B 9E7,Canada,46.324101,-79.4487841,,True
Chartwell Barrington Retirement Residence,,,,,,,,,,,,,,,,,,705-881-9882,,,,http://chartwell.com/Retirement-Homes/Chartwell-Barrington-Retirement-Residence,,,,,,,,,,,,Retirement Home,,,,,450 Yonge St,,,Barrie,,,ON,,L4N 4E2,Canada,44.3637455,-79.6599134,,True
Chartwell Barton Retirement Residence,,,,,,,,,,,,,,,,,,289-366-3688,,,,http://chartwell.com/Retirement-Homes/Chartwell-Barton-Retirement-Residence,,,,,,,,,,,,Retirement Home,,,,,17290 Leslie St,,,Newmarket,,,ON,,L3Y 3E1,Canada,44.06070349999999,-79.4314345,,True
Chartwell Martha's Landing Retirement Residence,,,,,,,,,,,,,,,,,,289-635-3192,,,,http://chartwell.com/Retirement-Homes/Chartwell-Martha's-Landing-Retirement-Residence,,,,,,,,,,,,Retirement Home,,,,,2109 Lakeshore Rd,,,Burlington,,,ON,,L7R 4Z4,Canada,43.3269423,-79.7923197,,True
Chartwell Bayview Retirement Residence,,,,,,,,,,,,,,,,,,613-689-9984,,,,http://chartwell.com/Retirement-Homes/Chartwell-Bayview-Retirement-Residence,,,,,,,,,,,,Retirement Home,,,,,435 Dundas St W,,,Belleville,,,ON,,K8P 1B6,Canada,44.146385,-77.4090801,,True
Chartwell Belcourt résidence pour retraités,,,,,,,,,,,,,,,,,,613-688-3385,,,,http://chartwell.com/Retirement-Homes/Chartwell-Belcourt-résidence-pour-retraités,,,,,,,,,,,,Retirement Home,,,,,1344 Belcourt Blvd,,,Orleans,,,ON,,K1C 1L9,Canada,45.4710049,-75.5224966,,True
Chartwell McConnell Retirement Residence,,,,,,,,,,,,,,,,,,613-937-7277,,,,http://chartwell.com/Retirement-Homes/Chartwell-McConnell-Retirement-Residence,,,,,,,,,,,,Retirement Home,,,,,801 4th St E,,,Cornwall,,,ON,,K6H 7M8,Canada,45.01804409999999,-74.7419637,,True
Chartwell Meadowbrook Retirement Community,,,,,,,,,,,,,,,,,,705-836-9998,,,,http://chartwell.com/Retirement-Homes/Chartwell-Meadowbrook-Retirement-Community,,,,,,,,,,,,Retirement Home,,,,,18 Jacobson Dr,,,Lively,,,ON,,P3Y 1P7,Canada,46.42496229999999,-81.1408761,Lively,True
Chartwell Christopher Terrace Retirement Residence,,,,,,,,,,,,,,,,,,289-635-3194,,,,http://chartwell.com/Retirement-Homes/Chartwell-Christopher-Terrace-Retirement-Residence,,,,,,,,,,,,Retirement Home,,,,,3131 New St,,,Burlington,,,ON,,L7N 3P8,Canada,43.34223670000001,-79.7818319,,True
Chartwell Rideau Place Retirement Residence,,,,,,,,,,,,,,,,,,343-882-4760,,,,http://chartwell.com/Retirement-Homes/Chartwell-Rideau-Place-Retirement-Residence,,,,,,,,,,,,Retirement Home,,,,,550 Wilbrod St,,,Ottawa,,,ON,,K1N 9M3,Canada,45.4306169,-75.6727866,Sandy Hill,True
Chartwell Deerview Crossing Retirement Residence,,,,,,,,,,,,,,,,,,289-309-7436,,,,http://chartwell.com/Retirement-Homes/Chartwell-Deerview-Crossing-Retirement-Residence,,,,,,,,,,,,Retirement Home,,,,,460 Rymal Rd W,,,Hamilton,,,ON,,L9B 0B2,Canada,43.20787109999999,-79.9132288,Falkirk East,True
Chartwell Rouge Valley Retirement Residence,,,,,,,,,,,,,,,,,,289-378-6653,,,,http://chartwell.com/Retirement-Homes/Chartwell-Rouge-Valley-Retirement-Residence,,,,,,,,,,,,Retirement Home,,,,,5958 16th Ave,,,Markham,,,ON,,L3P 8N1,Canada,43.8912307,-79.2674383,,True
Chartwell Royal Marquis Retirement Residence,,,,,,,,,,,,,,,,,,226-526-9694,,,,http://chartwell.com/Retirement-Homes/Chartwell-Royal-Marquis-Retirement-Residence,,,,,,,,,,,,Retirement Home,,,,,590 Grand Marais Rd E,,,Windsor,,,ON,,N8X 3H4,Canada,42.2801747,-83.0075987,Remington Park,True
Chartwell Royal Oak Long Term Care Residence,,,,,,,,,,,,,,,,,,519-733-9303,,,,http://chartwell.com/Long-Term-Care-Homes/Chartwell-Royal-Oak-Long-Term-Care-Residence,,,,,,,,,,,,Long-Term Care,,,,,1750 Division Rd N,,,Kingsville,,,ON,,N9Y 4G7,Canada,42.0501946,-82.73757959999999,,True
Chartwell Royal on Gordon Retirement Residence,,,,,,,,,,,,,,,,,,226-706-8823,,,,http://chartwell.com/Retirement-Homes/Chartwell-Royal-on-Gordon-Retirement-Residence,,,,,,,,,,,,Retirement Home,,,,,1691 Gordon St,,,Guelph,,,ON,,N1L 1E1,Canada,43.5027902,-80.19364809999999,Clairfields,True
Chartwell Royalcliffe Retirement Residence,,,,,,,,,,,,,,,,,,226-667-8063,,,,http://chartwell.com/Retirement-Homes/Chartwell-Royalcliffe-Retirement-Residence,,,,,,,,,,,,Retirement Home,,,,,609 Wharncliffe Rd S,,,London,,,ON,,N6J 0A4,Canada,42.9526568,-81.26133209999999,Highland,True
Chartwell Scarlett Heights Retirement Residence,,,,,,,,,,,,,,,,,,647-846-7006,,,,http://chartwell.com/Retirement-Homes/Chartwell-Scarlett-Heights-Retirement-Residence,,,,,,,,,,,,Retirement Home,,,,,4005 Eglinton Ave W,,,Etobicoke,,,ON,,M9A 5H3,Canada,43.6827298,-79.5202039,,True
Chartwell Southwind Retirement Residence,,,,,,,,,,,,,,,,,,705-885-9643,,,,http://chartwell.com/Retirement-Homes/Chartwell-Southwind-Retirement-Residence,,,,,,,,,,,,Retirement Home,,,,,1645 Paris St,,,Sudbury,,,ON,,P3E 6L5,Canada,46.4596359,-81.003125,,True
Chartwell Park Place Retirement Residence,,,,,,,,,,,,,,,,,,289-648-4112,,,,http://chartwell.com/Retirement-Homes/Chartwell-Park-Place-Retirement-Residence,,,,,,,,,,,,Retirement Home,,,,,15055 Yonge St,,,Aurora,,,ON,,L4G 6T4,Canada,43.99502500000001,-79.4660488,,True
Chartwell Parkhill Long Term Care Residence,,,,,,,,,,,,,,,,,,519-294-6342,,,,http://chartwell.com/Long-Term-Care-Homes/Chartwell-Parkhill-Long-Term-Care-Residence,,,,,,,,,,,,Long-Term Care,,,,,250 Tain St,,,Parkhill,,,ON,,N0M 2K0,Canada,43.1570017,-81.6816585,,True
Chartwell Parkway Retirement Residence,,,,,,,,,,,,,,,,,,289-608-9886,,,,http://chartwell.com/Retirement-Homes/Chartwell-Parkway-Retirement-Residence,,,,,,,,,,,,Retirement Home,,,,,1645 Pickering Pkwy,,,Pickering,,,ON,,L1V 7E9,Canada,43.8406641,-79.07280089999999,,True
Chartwell Pembroke Heritage Retirement Residence,,,,,,,,,,,,,,,,,,613-775-5008,,,,http://chartwell.com/Retirement-Homes/Chartwell-Pembroke-Heritage-Retirement-Residence,,,,,,,,,,,,Retirement Home,,,,,1111 Pembroke St W,,,Pembroke,,,ON,,K8A 8P6,Canada,45.83208880000001,-77.14114909999999,,True
Chartwell Pickering City Centre Retirement Residence,,,,,,,,,,,,,,,,,,289-631-1943,,,,http://chartwell.com/Retirement-Homes/Chartwell-Pickering-City-Centre-Retirement-Residence,,,,,,,,,,,,Retirement Home,,,,,1801 Valley Farm Rd,,,Pickering,,,ON,,L1V 0A5,Canada,43.838057,-79.080429,,True
Chartwell Pinewood Retirement Residence,,,,,,,,,,,,,,,,,,613-775-5006,,,,http://chartwell.com/Retirement-Homes/Chartwell-Pinewood-Retirement-Residence,,,,,,,,,,,,Retirement Home,,,,,1022 Pembroke St E,,,Pembroke,,,ON,,K8A 8A7,Canada,45.823621,-77.0865879,,True
Chartwell Quail Creek Retirement Residence,,,,,,,,,,,,,,,,,,866-245-1947,,,,http://chartwell.com/Retirement-Homes/Chartwell-Quail-Creek-Retirement-Residence,,,,,,,,,,,,Retirement Home,,,,,450 Albert St,,,Renfrew,,,ON,,K7V 4K4,Canada,45.4818362,-76.6994308,,True
Queen's Garden Long Term Care Residence,,,,,,,,,,,,,,,,,,905-972-8889,,,,http://chartwell.com/Long-Term-Care-Homes/Queen's-Garden-Long-Term-Care-Residence,,,,,,,,,,,,Long-Term Care,,,,,80 Queen St N,,,Hamilton,,,ON,,L8R 3P6,Canada,43.2612062,-79.8771345,Central Hamilton,True
Chartwell Queen's Square Retirement Residence,,,,,,,,,,,,,,,,,,226-533-9708,,,,http://chartwell.com/Retirement-Homes/Chartwell-Queen's-Square-Retirement-Residence,,,,,,,,,,,,Retirement Home,,,,,10 Melville St N,,,Cambridge,,,ON,,N1S 1H5,Canada,43.3603278,-80.3169389,,True
Chartwell Riverside Retirement Residence,,,,,,,,,,,,,,,,,,226-667-8061,,,,http://chartwell.com/Retirement-Homes/Chartwell-Riverside-Retirement-Residence,,,,,,,,,,,,Retirement Home,,,,,201 Riverside Dr,,,London,,,ON,,N6H 1E5,Canada,42.98394879999999,-81.2686616,West London,True
Chartwell Collegiate Heights Retirement Residence,,,,,,,,,,,,,,,,,,705-256-4678,,,,http://chartwell.com/Retirement-Homes/Chartwell-Collegiate-Heights-Retirement-Residence,,,,,,,,,,,,Retirement Home,,,,,95 Fauquier Ave,,,Sault Ste. Marie,,,ON,,P6B 0A2,Canada,46.5155232,-84.3258123,,True
Chartwell Robert Speck Retirement Residence,,,,,,,,,,,,,,,,,,289-633-2153,,,,http://chartwell.com/Retirement-Homes/Chartwell-Robert-Speck-Retirement-Residence,,,,,,,,,,,,Retirement Home,,,,,100 Robert Speck Pkwy,,,Mississauga,,,ON,,L4Z 0A1,Canada,43.59746070000001,-79.63378879999999,,True
Chartwell Rogers Cove Retirement Residence,,,,,,,,,,,,,,,,,,705-224-0130,,,,http://chartwell.com/Retirement-Homes/Chartwell-Rogers-Cove-Retirement-Residence,,,,,,,,,,,,Retirement Home,,,,,4 Coveside Dr,,,Huntsville,,,ON,,P1H 2J9,Canada,45.33663440000001,-79.1998515,,True
Chartwell Colonial Retirement Residence,,,,,,,,,,,,,,,,,,289-638-3530,,,,http://chartwell.com/Retirement-Homes/Chartwell-Colonial-Retirement-Residence,,,,,,,,,,,,Retirement Home,,,,,101 Manning Rd,,,Whitby,,,ON,,L1N 9M2,Canada,43.8921484,-78.9463644,,True
Chartwell Conservatory Pond Retirement Residence,,,,,,,,,,,,,,,,,,613-817-9874,,,,http://chartwell.com/Retirement-Homes/Chartwell-Conservatory-Pond-Retirement-Residence,,,,,,,,,,,,Retirement Home,,,,,1499 Stoneridge Dr,,,Kingston,,,ON,,K7M 9H9,Canada,44.2369212,-76.59264929999999,Auden Park,True
Chartwell Rosedale Retirement Residence,,,,,,,,,,,,,,,,,,613-499-9982,,,,http://chartwell.com/Retirement-Homes/Chartwell-Rosedale-Retirement-Residence,,,,,,,,,,,,Retirement Home,,,,,1813 County Road 2E RR #1,,,Brockville,,,ON,,K6V 5T1,Canada,44.6017862,-75.6652096,,True
Chartwell Constantia Retirement Residence,,,,,,,,,,,,,,,,,,289-588-0973,,,,http://chartwell.com/Retirement-Homes/Chartwell-Constantia-Retirement-Residence,,,,,,,,,,,,Retirement Home,,,,,784 Centre St,,,Thornhill,,,ON,,L4J 9G7,Canada,43.81002469999999,-79.4567325,Thornhill,True
Chartwell Willowdale Retirement Residence,,,,,,,,,,,,,,,,,,613-706-2181,,,,http://chartwell.com/Retirement-Homes/Chartwell-Willowdale-Retirement-Residence,,,,,,,,,,,,Retirement Home,,,,,9 Armstrong Dr,,,Smiths Falls,,,ON,,K7A 5H7,Canada,44.8817718,-76.01812939999999,,True
Chartwell Willowgrove Long Term Care Residence,,,,,,,,,,,,,,,,,,905-304-6781,,,,http://chartwell.com/Long-Term-Care-Homes/Chartwell-Willowgrove-Long-Term-Care-Residence,,,,,,,,,,,,Long-Term Care,,,,,1217 Old Mohawk Rd,,,Ancaster,,,ON,,L9K 1P6,Canada,43.232709,-79.9341965,Ancaster,True
Chartwell Woodhaven Long Term Care Residence,,,,,,,,,,,,,,,,,,905-472-3320,,,,http://chartwell.com/Long-Term-Care-Homes/Chartwell-Woodhaven-Long-Term-Care-Residence,,,,,,,,,,,,Long-Term Care,,,,,380 Church St,,,Markham,,,ON,,L6B 1E1,Canada,43.88578039999999,-79.2308073,,True
Chartwell Wynfield Long Term Care Residence,,,,,,,,,,,,,,,,,,905-571-0065,,,,http://chartwell.com/Long-Term-Care-Homes/Chartwell-Wynfield-Long-Term-Care-Residence,,,,,,,,,,,,Long-Term Care,,,,,451 Woodmount Dr,,,Oshawa,,,ON,,L1G 8E3,Canada,43.9465779,-78.8728046,Samac,True
Chartwell Wynfield Retirement Residence,,,,,,,,,,,,,,,,,,289-634-7775,,,,http://chartwell.com/Retirement-Homes/Chartwell-Wynfield-Retirement-Residence,,,,,,,,,,,,Retirement Home,,,,,431 Woodmount Dr,,,Oshawa,,,ON,,L1K 0P7,Canada,43.94645879999999,-78.8736945,Samac,True
Regina Gardens Long Term Care Residence,,,,,,,,,,,,,,,,,,905-383-2970,,,,http://chartwell.com/Long-Term-Care-Homes/Regina-Gardens-Long-Term-Care-Residence,,,,,,,,,,,,Long-Term Care,,,,,536 Upper Paradise Rd,,,Hamilton,,,ON,,L9C 5E3,Canada,43.2311071,-79.9133827,Fessenden,True
Chartwell Gibson Long Term Care Residence,,,,,,,,,,,,,,,,,,416-493-4666,,,,http://chartwell.com/Long-Term-Care-Homes/Chartwell-Gibson-Long-Term-Care-Residence,,,,,,,,,,,,Long-Term Care,,,,,1925 Steeles Ave E,,,North York,,,ON,,M2H 2H3,Canada,43.8075968,-79.3738031,,True
Chartwell Gibson Retirement Residence,,,,,,,,,,,,,,,,,,647-547-1810,,,,http://chartwell.com/Retirement-Homes/Chartwell-Gibson-Retirement-Residence,,,,,,,,,,,,Retirement Home,,,,,1955 Steeles Ave E,,,North York,,,ON,,M2H 3P1,Canada,43.8078469,-79.37295280000001,,True
Chartwell Glacier Ridge Retirement Residence,,,,,,,,,,,,,,,,,,807-473-0526,,,,http://chartwell.com/Retirement-Homes/Chartwell-Glacier-Ridge-Retirement-Residence,,,,,,,,,,,,Retirement Home,,,,,1261 Jasper Dr,,,Thunder Bay,,,ON,,P7B 6Z4,Canada,48.41784550000001,-89.2528043,,True
Chartwell Guildwood Retirement Residence,,,,,,,,,,,,,,,,,,647-846-7004,,,,http://chartwell.com/Retirement-Homes/Chartwell-Guildwood-Retirement-Residence,,,,,,,,,,,,Retirement Home,,,,,65 Livingston Rd,,,Scarborough,,,ON,,M1E 1L1,Canada,43.7458936,-79.1979951,,True
Chartwell Hartford Retirement Residence,,,,,,,,,,,,,,,,,,613-937-7273,,,,http://chartwell.com/Retirement-Homes/Chartwell-Hartford-Retirement-Residence,,,,,,,,,,,,Retirement Home,,,,,3 Fifth St W,,,Morrisburg,,,ON,,K0C 1X0,Canada,44.8985508,-75.184855,,True
Chartwell Heritage résidence pour retraités,,,,,,,,,,,,,,,,,,343-882-4764,,,,http://chartwell.com/Retirement-Homes/Chartwell-Heritage-résidence-pour-retraités,,,,,,,,,,,,Retirement Home,,,,,624 Wilson St,,,Ottawa,,,ON,,K1K 4S5,Canada,45.4407839,-75.6414812,Cummings,True
Chartwell Heritage Glen Retirement Residence,,,,,,,,,,,,,,,,,,289-652-4205,,,,http://chartwell.com/Retirement-Homes/Chartwell-Heritage-Glen-Retirement-Residence,,,,,,,,,,,,Retirement Home,,,,,6515 Glen Erin Dr,,,Mississauga,,,ON,,L5N 8P9,Canada,43.5829587,-79.75255849999999,,True
Chartwell Elmira Long Term Care Residence,,,,,,,,,,,,,,,,,,519-669-2921,,,,http://chartwell.com/Long-Term-Care-Homes/Chartwell-Elmira-Long-Term-Care-Residence,,,,,,,,,,,,Long-Term Care,,,,,11 Herbert St,,,Elmira,,,ON,,N3B 2B8,Canada,43.6014971,-80.5636775,,True
Chartwell Elmira Retirement Residence,,,,,,,,,,,,,,,,,,519-669-4111,,,,http://chartwell.com/Retirement-Homes/Chartwell-Elmira-Retirement-Residence,,,,,,,,,,,,Retirement Home,,,,,8 Snyder Ave N,,,Elmira,,,ON,,N3B 2B1,Canada,43.6008505,-80.56323239999999,,True
Chartwell Empress Kanata Retirement Residence,,,,,,,,,,,,,,,,,,613-663-2964,,,,http://chartwell.com/Retirement-Homes/Chartwell-Empress-Kanata-Retirement-Residence,,,,,,,,,,,,Retirement Home,,,,,170 McGibbon Dr,,,Kanata,,,ON,,K2L 4H5,Canada,45.30735689999999,-75.9068211,,True
Chartwell Van Horne Retirement Residence,,,,,,,,,,,,,,,,,,613-706-2183,,,,http://chartwell.com/Retirement-Homes/Chartwell-Van-Horne-Retirement-Residence,,,,,,,,,,,,Retirement Home,,,,,25 Van Horne Ave,,,Smiths Falls,,,ON,,K7A 5L2,Canada,44.8814158,-76.0127279,,True
Chartwell Regency Retirement Residence,,,,,,,,,,,,,,,,,,289-643-1995,,,,http://chartwell.com/Retirement-Homes/Chartwell-Regency-Retirement-Residence,,,,,,,,,,,,Retirement Home,,,,,29 Mississauga Rd N,,,Mississauga,,,ON,,L5H 2H7,Canada,43.549192,-79.5909428,Port Credit,True
Chartwell Valley Vista Retirement Residence,,,,,,,,,,,,,,,,,,289-963-9973,,,,http://chartwell.com/Retirement-Homes/Chartwell-Valley-Vista-Retirement-Residence,,,,,,,,,,,,Retirement Home,,,,,600 Valley Vista Dr,,,Vaughan,,,ON,,L6A 4H2,Canada,43.8594763,-79.4821479,Maple,True
Chartwell Stonehaven Retirement Residence,,,,,,,,,,,,,,,,,,613-663-2968,,,,http://chartwell.com/Retirement-Homes/Chartwell-Stonehaven-Retirement-Residence,,,,,,,,,,,,Retirement Home,,,,,70 Stonehaven Dr,,,Kanata,,,ON,,K2M 3B4,Canada,45.29183419999999,-75.8559866,,True
Chartwell Terrace on the Square Retirement Residence,,,,,,,,,,,,,,,,,,226-336-8942,,,,http://chartwell.com/Retirement-Homes/Chartwell-Terrace-on-the-Square-Retirement-Residence,,,,,,,,,,,,Retirement Home,,,,,100 Caroline St S,,,Waterloo,,,ON,,N2L 1X5,Canada,43.4609508,-80.5215273,,True
Chartwell Thunder Bay Retirement Residence,,,,,,,,,,,,,,,,,,807-473-0528,,,,http://chartwell.com/Retirement-Homes/Chartwell-Thunder-Bay-Retirement-Residence,,,,,,,,,,,,Retirement Home,,,,,770 Arundel St,,,Thunder Bay,,,ON,,P7A 8C8,Canada,48.4652586,-89.2074841,,True
Chartwell Tranquility Place Retirement Residence,,,,,,,,,,,,,,,,,,226-227-9883,,,,http://chartwell.com/Retirement-Homes/Chartwell-Tranquility-Place-Retirement-Residence,,,,,,,,,,,,Retirement Home,,,,,436 Powerline Rd,,,Brantford,,,ON,,N3T 5L8,Canada,43.1856514,-80.27884639999999,,True
Chartwell Trilogy Long Term Care Residence,,,,,,,,,,,,,,,,,,416-443-1074,,,,http://chartwell.com/Long-Term-Care-Homes/Chartwell-Trilogy-Long-Term-Care-Residence,,,,,,,,,,,,Long-Term Care,,,,,340 McCowan Rd,,,Scarborough,,,ON,,M1J 3P4,Canada,43.7383532,-79.2387033,,True
Chartwell Waterford Long Term Care Residence,,,,,,,,,,,,,,,,,,905-827-2405,,,,http://chartwell.com/Long-Term-Care-Homes/Chartwell-Waterford-Long-Term-Care-Residence,,,,,,,,,,,,Long-Term Care,,,,,2140 Baronwood Dr,,,Oakville,,,ON,,L6M 4V6,Canada,43.42710639999999,-79.7630549,West Oak Trails,True
Chartwell Wellington Park Retirement Residence,,,,,,,,,,,,,,,,,,226-706-8821,,,,http://chartwell.com/Retirement-Homes/Chartwell-Wellington-Park-Retirement-Residence,,,,,,,,,,,,Retirement Home,,,,,181 Janefield Ave,,,Guelph,,,ON,,N1G 1V2,Canada,43.5168974,-80.2452275,Hanlon Creek,True
Chartwell Wenleigh Long Term Care Residence,,,,,,,,,,,,,,,,,,905-822-4663,,,,http://chartwell.com/Long-Term-Care-Homes/Chartwell-Wenleigh-Long-Term-Care-Residence,,,,,,,,,,,,Long-Term Care,,,,,2065 Leanne Blvd,,,Mississauga,,,ON,,L5K 2L6,Canada,43.5249172,-79.6518425,,True
Chartwell Westbury Long Term Care Residence,,,,,,,,,,,,,,,,,,416-622-7094,,,,http://chartwell.com/Long-Term-Care-Homes/Chartwell-Westbury-Long-Term-Care-Residence,,,,,,,,,,,,Long-Term Care,,,,,495 The West Mall,,,Etobicoke,,,ON,,M9C 5S3,Canada,43.6482695,-79.5677086,,False
Chartwell Westmount Long Term Care Residence,,,,,,,,,,,,,,,,,,519-570-2115,,,,http://chartwell.com/Long-Term-Care-Homes/Chartwell-Westmount-Long-Term-Care-Residence,,,,,,,,,,,,Long-Term Care,,,,,200 David Bergey Dr,,,Kitchener,,,ON,,N2E 3Y4,Canada,43.40617629999999,-80.51772749999999,Laurentian West,True
Chartwell Westmount on William Retirement Residence,,,,,,,,,,,,,,,,,,705-885-9641,,,,http://chartwell.com/Retirement-Homes/Chartwell-Westmount-on-William-Retirement-Residence,,,,,,,,,,,,Retirement Home,,,,,599 William Ave,,,Sudbury,,,ON,,P3A 5W3,Canada,46.5095442,-80.94659229999999,,True
Chartwell Westmount Retirement Residence,,,,,,,,,,,,,,,,,,226-336-8944,,,,http://chartwell.com/Retirement-Homes/Chartwell-Westmount-Retirement-Residence,,,,,,,,,,,,Retirement Home,,,,,190 David Bergey Dr,,,Kitchener,,,ON,,N2E 0E7,Canada,43.4068216,-80.518003,Laurentian West,True
Chartwell Whispering Pines Retirement Residence,,,,,,,,,,,,,,,,,,705-881-9884,,,,http://chartwell.com/Retirement-Homes/Chartwell-Whispering-Pines-Retirement-Residence,,,,,,,,,,,,Retirement Home,,,,,140 Letitia St,,,Barrie,,,ON,,L4N 1P5,Canada,44.3917958,-79.7177134,Letitia Heights,True
Chartwell White Eagle Long Term Care Residence,,,,,,,,,,,,,,,,,,416-533-7935,,,,http://chartwell.com/Long-Term-Care-Homes/Chartwell-White-Eagle-Long-Term-Care-Residence,,,,,,,,,,,,Long-Term Care,,,,,138 Dowling Ave,,,Toronto,,,ON,,M6K 3A6,Canada,43.6371675,-79.4391934,,True
Chartwell Lancaster Long Term Care Residence,,,,,,,,,,,,,,,,,,613-347-3016,,,,http://chartwell.com/Long-Term-Care-Homes/Chartwell-Lancaster-Long-Term-Care-Residence,,,,,,,,,,,,Long-Term Care,,,,,"105 Military Road North, Hwy 34",,,Lancaster,,,ON,,K0C 1N0,Canada,45.1462758,-74.50385279999999,,True
Chartwell Lansing Retirement Residence,,,,,,,,,,,,,,,,,,647-547-1814,,,,http://chartwell.com/Retirement-Homes/Chartwell-Lansing-Retirement-Residence,,,,,,,,,,,,Retirement Home,,,,,10 Senlac Rd,,,Toronto,,,ON,,M2N 6P8,Canada,43.759447,-79.4233922,,True
Chartwell Leamington Retirement Residence,,,,,,,,,,,,,,,,,,519-973-6316,,,,http://chartwell.com/Retirement-Homes/Chartwell-Leamington-Retirement-Residence,,,,,,,,,,,,Retirement Home,,,,,1 Henry Ave,,,Leamington,,,ON,,N8H 5P1,Canada,42.038282,-82.603432,,True
Villa Forum Long Term Care Residence,,,,,,,,,,,,,,,,,,905-501-1443,,,,http://chartwell.com/Long-Term-Care-Homes/Villa-Forum-Long-Term-Care-Residence,,,,,,,,,,,,Long-Term Care,,,,,175 Forum Dr,,,Mississauga,,,ON,,L4Z 4E5,Canada,43.6117879,-79.6515403,,True
Chartwell Jackson Creek Retirement Residence,,,,,,,,,,,,,,,,,,705-748-1928,,,,http://chartwell.com/Retirement-Homes/Chartwell-Jackson-Creek-Retirement-Residence,,,,,,,,,,,,Retirement Home,,,,,481 Reid St,,,Peterborough,,,ON,,K9H 7R9,Canada,44.3086268,-78.3291332,,True
Chartwell James Street Retirement Residence,,,,,,,,,,,,,,,,,,705-640-0193,,,,http://chartwell.com/Retirement-Homes/Chartwell-James-Street-Retirement-Residence,,,,,,,,,,,,Retirement Home,,,,,148 James St,,,Bracebridge,,,ON,,P1L 1S7,Canada,45.04373940000001,-79.31402849999999,,True
Chartwell Kingsville Retirement Residence,,,,,,,,,,,,,,,,,,519-973-6314,,,,http://chartwell.com/Retirement-Homes/Chartwell-Kingsville-Retirement-Residence,,,,,,,,,,,,Retirement Home,,,,,240 Main St E,,,Kingsville,,,ON,,N9Y 1A6,Canada,42.03987809999999,-82.72862359999999,,True
Chartwell London Long Term Care Residence,,,,,,,,,,,,,,,,,,519-434-2727,,,,http://chartwell.com/Long-Term-Care-Homes/Chartwell-London-Long-Term-Care-Residence,,,,,,,,,,,,Long-Term Care,,,,,2000 Blackwater Rd,,,London,,,ON,,N5X 4K6,Canada,43.0440259,-81.2606964,Uplands,True
Chartwell Georgian Traditions Retirement Residence,,,,,,,,,,,,,,,,,,705-532-9978,,,,http://chartwell.com/Retirement-Homes/Chartwell-Georgian-Traditions-Retirement-Residence,,,,,,,,,,,,Retirement Home,,,,,57 Trott Blvd,,,Collingwood,,,ON,,L9Y 0A3,Canada,44.51014319999999,-80.2392354,,True
Chartwell Champlain Long Term Care Residence,,,,,,,,,,,,,,,,,,613-675-4617,,,,http://chartwell.com/Long-Term-Care-Homes/Chartwell-Champlain-Long-Term-Care-Residence,,,,,,,,,,,,Long-Term Care,,,,,428 Front Rd W,,,L'Orignal,,,ON,,K0B 1K0,Canada,45.6297223,-74.6704484,,True
Chartwell Alexander Muir Retirement Residence,,,,,,,,,,,,,,,,,,289-366-3690,,,,http://chartwell.com/Retirement-Homes/Chartwell-Alexander-Muir-Retirement-Residence,,,,,,,,,,,,Retirement Home,,,,,197 Prospect St,,,Newmarket,,,ON,,L3Y 3T7,Canada,44.05370440000001,-79.4526975,,True
Chartwell Anne Hathaway Retirement Residence,,,,,,,,,,,,,,,,,,226-779-0968,,,,http://chartwell.com/Retirement-Homes/Chartwell-Anne-Hathaway-Retirement-Residence,,,,,,,,,,,,Retirement Home,,,,,480 Downie St,,,Stratford,,,ON,,N5A 7Y5,Canada,43.36181059999999,-80.9782183,,True
Cawthra Gardens Long Term Care Residence,,,,,,,,,,,,,,,,,,905-306-9984,,,,http://chartwell.com/Long-Term-Care-Homes/Cawthra-Gardens-Long-Term-Care-Residence,,,,,,,,,,,,Long-Term Care,,,,,590 Lolita Gardens,,,Mississauga,,,ON,,L5A 4N8,Canada,43.5931702,-79.603731,,False
Chartwell Aurora Long Term Care Residence,,,,,,,,,,,,,,,,,,905-727-1939,,,,http://chartwell.com/Long-Term-Care-Homes/Chartwell-Aurora-Long-Term-Care-Residence,,,,,,,,,,,,Long-Term Care,,,,,32 Mill St,,,Aurora,,,ON,,L4G 2R9,Canada,43.997758,-79.471301,,True
Chartwell Kanata Retirement Residence,,,,,,,,,,,,,,,,,,613-663-2966,,,,http://chartwell.com/Retirement-Homes/Chartwell-Kanata-Retirement-Residence,,,,,,,,,,,,Retirement Home,,,,,20 Shirley's Brook Dr,,,Kanata,,,ON,,K2K 2W8,Canada,45.35278189999999,-75.9223966,,True
Chartwell Georgian Retirement Residence,,,,,,,,,,,,,,,,,,289-858-2973,,,,http://chartwell.com/Retirement-Homes/Chartwell-Georgian-Retirement-Residence,,,,,,,,,,,,Retirement Home,,,,,255 Governor's Rd,,,Dundas,,,ON,,L9H 3K4,Canada,43.2602751,-79.97063279999999,Dundas,True
Chartwell Muskoka Traditions Senior Townhomes,,,,,,,,,,,,,,,,,,705-704-9159,,,,http://chartwell.com/Retirement-Homes/Chartwell-Muskoka-Traditions-Senior-Townhomes,,,,,,,,,,,,Retirement Home,,,,,16 Legacy Ln,,,Huntsville,,,ON,,P1H 0B1,Canada,45.34053610000001,-79.2259481,,True
Chartwell Riverside Senior Townhomes,,,,,,,,,,,,,,,,,,226-289-1514,,,,http://chartwell.com/Retirement-Homes/Chartwell-Riverside-Senior-Townhomes,,,,,,,,,,,,Retirement Home,,,,,201 Riverside Dr,,,London,,,ON,,N6H 1E5,Canada,42.98394879999999,-81.2686616,West London,True
Chartwell Royal on Gordon Senior Townhomes,,,,,,,,,,,,,,,,,,226-706-8401,,,,http://chartwell.com/Retirement-Homes/Chartwell-Royal-on-Gordon-Senior-Townhomes,,,,,,,,,,,,Retirement Home,,,,,1691 Gordon St,,,Guelph,,,ON,,N1L 1E1,Canada,43.5027902,-80.19364809999999,Clairfields,True
Chartwell Thunder Bay Senior Townhomes,,,,,,,,,,,,,,,,,,807-700-1280,,,,http://chartwell.com/Retirement-Homes/Chartwell-Thunder-Bay-Senior-Townhomes,,,,,,,,,,,,Retirement Home,,,,,770 Arundel St,,,Thunder Bay,,,ON,,P7A 8C8,Canada,48.4652586,-89.2074841,,True
Chartwell Grenadier Retirement Residence,,,,,,,,,,,,,,,,,,647-429-7979,,,,http://chartwell.com/Retirement-Homes/Chartwell-Grenadier-Retirement-Residence,,,,,,,,,,,,Retirement Home,,,,,2100 Bloor St W,,,Toronto,,,ON,,M6S 1M7,Canada,43.6523035,-79.4715753,,True
Assisted Living at Chartwell Grenadier Retirement Residence,,,,,,,,,,,,,,,,,,647-429-7998,,,,http://chartwell.com/Retirement-Homes/Assisted-Living-at-Chartwell-Grenadier-Retirement-Residence,,,,,,,,,,,,Retirement Home,,,,,2100 Bloor St W,,,Toronto,,,ON,,M6S 1M7,Canada,43.6523035,-79.4715753,,True
Chartwell Stonehaven Senior Apartments,,,,,,,,,,,,,,,,,,616-366-0725,,,,http://chartwell.com/Retirement-Homes/Chartwell-Stonehaven-Senior-Apartments,,,,,,,,,,,,Retirement Home,,,,,70 Stonehaven Dr,,,Kanata,,,ON,,K2M 3B4,Canada,45.29183419999999,-75.8559866,,True
Appartements pour retraités Chartwell Belcourt,,,,,,,,,,,,,,,,,,613-366-0729,,,,http://chartwell.com/Retirement-Homes/Appartements-pour-retraités-Chartwell-Belcourt,,,,,,,,,,,,Retirement Home,,,,,1344 Belcourt Blvd,,,Orleans,,,ON,,K1C 1L9,Canada,45.4710049,-75.5224966,,True
Assisted Living at Chartwell Westmount Retirement Residence,,,,,,,,,,,,,,,,,,519-804-0562,,,,http://chartwell.com/Retirement-Homes/Assisted-Living-at-Chartwell-Westmount-Retirement-Residence,,,,,,,,,,,,Retirement Home,,,,,190 David Bergey Dr,,,Kitchener,,,ON,,N2E 0E7,Canada,43.4068216,-80.518003,Laurentian West,True
Chartwell Harwood Retirement Residence,,,,,,,,,,,,,,,,,,289-608-8363,,,,http://chartwell.com/Retirement-Homes/Chartwell-Harwood-Retirement-Residence,,,,,,,,,,,,Retirement Home,,,,,240 Old Harwood Ave,,,Ajax,,,ON,,L1T 0N2,Canada,43.8649677,-79.028165,,True
Chartwell Oxford Gardens Retirement Residence,,,,,,,,,,,,,,,,,,226-242-0898,,,,http://chartwell.com/Retirement-Homes/Chartwell-Oxford-Gardens-Retirement-Residence,,,,,,,,,,,,Retirement Home,,,,,423 Devonshire Ave,,,Woodstock,,,ON,,N4S 0B2,Canada,43.1431634,-80.7632304,,True
Chartwell Montgomery Village Retirement Residence,,,,,,,,,,,,,,,,,,226-706-8527,,,,http://chartwell.com/Retirement-Homes/Chartwell-Montgomery-Village-Retirement-Residence,,,,,,,,,,,,Retirement Home,,,,,155 Riddell Rd,,,Orangeville,,,ON,,L9W 6R4,Canada,43.904644,-80.13061809999999,,True
Assisted Living at Chartwell Wynfield Retirement Residence,,,,,,,,,,,,,,,,,,289-634-7775,,,,http://chartwell.com/Retirement-Homes/Assisted-Living-at-Chartwell-Wynfield-Retirement-Residence,,,,,,,,,,,,Retirement Home,,,,,431 Woodmount Dr,,,Oshawa,,,ON,,L1K 0P7,Canada,43.94645879999999,-78.8736945,Samac,True
Chartwell McConnell Senior Apartments,,,,,,,,,,,,,,,,,,343-885-8115,,,,http://chartwell.com/Retirement-Homes/Chartwell-McConnell-Senior-Apartments,,,,,,,,,,,,Retirement Home,,,,,801 4th St E,,,Cornwall,,,ON,,K6H 7M8,Canada,45.01804409999999,-74.7419637,,True
Chartwell Heritage Senior Apartments,,,,,,,,,,,,,,,,,,613-366-0736,,,,http://chartwell.com/Retirement-Homes/Chartwell-Heritage-Senior-Apartments,,,,,,,,,,,,Retirement Home,,,,,624 Wilson St,,,Ottawa,,,ON,,K1K 4S5,Canada,45.4407839,-75.6414812,Cummings,True
Chartwell Rockcliffe Retirement Residence,,,,,,,,,,,,,,,,,,343-883-9901,,,,http://chartwell.com/Retirement-Homes/Chartwell-Rockcliffe-Retirement-Residence,,,,,,,,,,,,Retirement Home,,,,,100 Island Lodge Rd,,,Ottawa,,,ON,,K1N 0A2,Canada,45.4375552,-75.6815168,,True
Chartwell Hollandview Trail Retirement Residence,,,,,,,,,,,,,,,,,,289-648-4098,,,,http://chartwell.com/Retirement-Homes/Chartwell-Hollandview-Trail-Retirement-Residence,,,,,,,,,,,,Retirement Home,,,,,200 John West Way,,,Aurora,,,ON,,L4G 0E4,Canada,44.0084596,-79.4507924,,True
Chartwell St. Clair Beach Retirement Residence,,,,,,,,,,,,,,,,,,226-526-8328,,,,http://chartwell.com/Retirement-Homes/Chartwell-St.-Clair-Beach-Retirement-Residence,,,,,,,,,,,,Retirement Home,,,,,13500 Riverside Dr E,,,Tecumseh,,,ON,,N8N 0C3,Canada,42.32601529999999,-82.8656573,,True
Assisted Living at Chartwell Hollandview Trail Retirement Residence,,,,,,,,,,,,,,,,,,289-648-4095,,,,http://chartwell.com/Retirement-Homes/Assisted-Living-at-Chartwell-Hollandview-Trail-Retirement-Residence,,,,,,,,,,,,Retirement Home,,,,,200 John West Way,,,Aurora,,,ON,,L4G 0E4,Canada,44.0084596,-79.4507924,,True
Assisted Living at Chartwell Rockcliffe Retirement Residence,,,,,,,,,,,,,,,,,,613-366-0738,,,,http://chartwell.com/Retirement-Homes/Assisted-Living-at-Chartwell-Rockcliffe-Retirement-Residence,,,,,,,,,,,,Retirement Home,,,,,100 Island Lodge Rd,,,Ottawa,,,ON,,K1N 0A2,Canada,45.4375552,-75.6815168,,True
Chartwell Duke of Devonshire Retirement Residence,,,,,,,,,,,,,,,,,,613-688-1882,,,,http://chartwell.com/Retirement-Homes/Chartwell-Duke-of-Devonshire-Retirement-Residence,,,,,,,,,,,,Retirement Home,,,,,1095 Carling Ave,,,Ottawa,,,ON,,K1Y 4P6,Canada,45.390423,-75.7245568,Civic Hospital - Experimental Farm - Central Park,True
Assisted Living at Chartwell Duke of Devonshire,,,,,,,,,,,,,,,,,,613-366-0737,,,,http://chartwell.com/Retirement-Homes/Assisted-Living-at-Chartwell-Duke-of-Devonshire,,,,,,,,,,,,Retirement Home,,,,,1095 Carling Ave,,,Ottawa,,,ON,,K1Y 4P6,Canada,45.390423,-75.7245568,Civic Hospital - Experimental Farm - Central Park,True
Memory Care at Chartwell Empress Kanata,,,,,,,,,,,,,,,,,,613-366-0726,,,,http://chartwell.com/Retirement-Homes/Memory-Care-at-Chartwell-Empress-Kanata,,,,,,,,,,,,Retirement Home,,,,,170 McGibbon Dr,,,Kanata,,,ON,,K2L 4H5,Canada,45.30735689999999,-75.9068211,,True
Chartwell Wedgewood Retirement Residence,,,,,,,,,,,,,,,,,,613-499-9635,,,,http://chartwell.com/Retirement-Homes/Chartwell-Wedgewood-Retirement-Residence,,,,,,,,,,,,Retirement Home,,,,,15 Market St E,,,Brockville,,,ON,,K6V 0A6,Canada,44.5898935,-75.68175699999999,,True
Assisted Living at Chartwell Wedgewood,,,,,,,,,,,,,,,,,,613-499-9388,,,,http://chartwell.com/Retirement-Homes/Assisted-Living-at-Chartwell-Wedgewood,,,,,,,,,,,,Retirement Home,,,,,15 Market St E,,,Brockville,,,ON,,K6V 0A6,Canada,44.5898935,-75.68175699999999,,True
Chartwell Lord Lansdowne Retirement Residence,,,,,,,,,,,,,,,,,,613-688-1884,,,,http://chartwell.com/Retirement-Homes/Chartwell-Lord-Lansdowne-Retirement-Residence,,,,,,,,,,,,Retirement Home,,,,,920 Bank St,,,Ottawa,,,ON,,K1S 1M8,Canada,45.3994801,-75.68679639999999,The Glebe,True
Assisted Living at Chartwell Lord Lansdowne Retirement Residence,,,,,,,,,,,,,,,,,,613-366-0739,,,,http://chartwell.com/Retirement-Homes/Assisted-Living-at-Chartwell-Lord-Lansdowne-Retirement-Residence,,,,,,,,,,,,Retirement Home,,,,,920 Bank St,,,Ottawa,,,ON,,K1S 1M8,Canada,45.3994801,-75.68679639999999,The Glebe,True
The Sumach by Chartwell,,,,,,,,,,,,,,,,,,416-644-8911,,,,http://chartwell.com/Retirement-Homes/The-Sumach-by-Chartwell,,,,,,,,,,,,Retirement Home,,,,,146 Sumach St,,,Toronto,,,ON,,M5A 1X6,Canada,43.659602,-79.3600345,,True
Chartwell Waterford Retirement Residence,,,,,,,,,,,,,,,,,,289-644-2950,,,,http://chartwell.com/Retirement-Homes/Chartwell-Waterford-Retirement-Residence,,,,,,,,,,,,Retirement Home,,,,,2160 Baronwood Dr,,,Oakville,,,ON,,L6M 4V6,Canada,43.4276978,-79.76342369999999,West Oak Trails,True
Memory Care at Chartwell Waterford Retirement Residence,,,,,,,,,,,,,,,,,,289-644-2915,,,,http://chartwell.com/Retirement-Homes/Memory-Care-at-Chartwell-Waterford-Retirement-Residence,,,,,,,,,,,,Retirement Home,,,,,2160 Baronwood Dr,,,Oakville,,,ON,,L6M 4V6,Canada,43.4276978,-79.76342369999999,West Oak Trails,True
Memory Care at Chartwell Tiffin Retirement Residence,,,,,,,,,,,,,,,,,,705-540-9422,,,,http://chartwell.com/Retirement-Homes/Memory-Care-at-Chartwell-Tiffin-Retirement-Residence,,,,,,,,,,,,Retirement Home,,,,,105 Pillsbury Dr,,,Midland,,,ON,,L4R 0E7,Canada,44.7379729,-79.8587307,,True
Assisted Living at Chartwell Tiffin Retirement Residence,,,,,,,,,,,,,,,,,,705-540-9422,,,,http://chartwell.com/Retirement-Homes/Assisted-Living-at-Chartwell-Tiffin-Retirement-Residence,,,,,,,,,,,,Retirement Home,,,,,105 Pillsbury Dr,,,Midland,,,ON,,L4R 0E7,Canada,44.7379729,-79.8587307,,True
Chartwell Tiffin Retirement Residence,,,,,,,,,,,,,,,,,,705-540-9422,,,,http://chartwell.com/Retirement-Homes/Chartwell-Tiffin-Retirement-Residence,,,,,,,,,,,,Retirement Home,,,,,105 Pillsbury Dr,,,Midland,,,ON,,L4R 0E7,Canada,44.7379729,-79.8587307,,True
Chartwell Bankside Senior Apartments,,,,,,,,,,,,,,,,,,519-804-0561,,,,http://chartwell.com/Retirement-Homes/Chartwell-Bankside-Senior-Apartments,,,,,,,,,,,,Retirement Home,,,,,71B Bankside Dr,,,Kitchener,,,ON,,N2N 3L1,Canada,43.4315108,-80.52859850000002,Highland West,True
Chartwell Hilldale Retirement Residence,,,,,,,,,,,,,,,,,,807-700-5773,,,,http://chartwell.com/Retirement-Homes/Chartwell-Hilldale-Retirement-Residence,,,,,,,,,,,,Retirement Home,,,,,309 Hilldale Rd,,,Thunder Bay,,,ON,,P7G 0A2,Canada,48.46208,-89.258966,,True
Chartwell Heritage Glen Senior Apartments,,,,,,,,,,,,,,,,,,289-652-3491,,,,http://chartwell.com/Retirement-Homes/Chartwell-Heritage-Glen-Senior-Apartments,,,,,,,,,,,,Retirement Home,,,,,6515 Glen Erin Dr,,,Mississauga,,,ON,,L5N 8P9,Canada,43.5829587,-79.75255849999999,,True
Chartwell Pine Grove Retirement Residence,,,,,,,,,,,,,,,,,,905-850-3605,,,,http://chartwell.com/Retirement-Homes/Chartwell-Pine-Grove-Retirement-Residence,,,,,,,,,,,,Retirement Home,,,,,8403 Islington Ave N,,,Woodbridge,,,ON,,L4L 1X3,Canada,43.79772570000001,-79.5841875,Woodbridge,True
Chartwell Pine Grove Long Term Care Residence,,,,,,,,,,,,,,,,,,905-850-3605,,,,http://chartwell.com/Long-Term-Care-Homes/Chartwell-Pine-Grove-Long-Term-Care-Residence,,,,,,,,,,,,Long-Term Care,,,,,2018 Robertson Rd,,,Woodbridge,,,ON,,K2H 1C6,Canada,43.8615126,-79.5224455,Maple,True
Independent Living at Chartwell Stillwater Creek,,,,,,,,,,,,,,,,,,613-366-6161,,,,http://chartwell.com/Retirement-Homes/Independent-Living-at-Chartwell-Stillwater-Creek,,,,,,,,,,,,Retirement Home,,,,,2018 Robertson Rd,,,Nepean,,,ON,,K2H 1C6,Canada,45.3231601,-75.8280295,,True
Chartwell Stillwater Creek Retirement Residence,,,,,,,,,,,,,,,,,,613-366-6161,,,,http://chartwell.com/Retirement-Homes/Chartwell-Stillwater-Creek-Retirement-Residence,,,,,,,,,,,,Retirement Home,,,,,2018 Robertson Rd,,,Nepean,,,ON,,K2H 1C6,Canada,45.3231601,-75.8280295,,True
Assisted Living at Chartwell Stillwater Creek,,,,,,,,,,,,,,,,,,613-366-6090,,,,http://chartwell.com/Retirement-Homes/Assisted-Living-at-Chartwell-Stillwater-Creek,,,,,,,,,,,,Retirement Home,,,,,2018 Robertson Rd,,,Nepean,,,ON,,K2H 1C6,Canada,45.3231601,-75.8280295,,True
Chartwell Riverpark Retirement Residence,,,,,,,,,,,,,,,,,,(613) 366-6187,,,,http://chartwell.com/Retirement-Homes/Chartwell-Riverpark-Retirement-Residence,,,,,,,,,,,,Retirement Home,,,,,1 Corkstown Rd,,,Nepean,,,ON,,K2H 1B6,Canada,45.34838560000001,-75.8217726,,True
Assisted Living at Chartwell Riverpark,,,,,,,,,,,,,,,,,,(613) 366-6091,,,,http://chartwell.com/Retirement-Homes/Assisted-Living-at-Chartwell-Riverpark,,,,,,,,,,,,Retirement Home,,,,,1 Corkstown Rd,,,Nepean,,,ON,,K2H 1B6,Canada,45.34838560000001,-75.8217726,,True
Chartwell Lakeshore Retirement Residence,,,,,,,,,,,,,,,,,,(289) 635-3172,,,,http://chartwell.com/Retirement-Homes/Chartwell-Lakeshore-Retirement-Residence,,,,,,,,,,,,Retirement Home,,,,,5314 Lakeshore Rd,,,Burlington,,,ON,,L7L 6L8,Canada,43.3664169,-79.73256529999999,,True
Assisted Living at Chartwell Lakeshore,,,,,,,,,,,,,,,,,,(289) 635-3168,,,,http://chartwell.com/Retirement-Homes/Assisted-Living-at-Chartwell-Lakeshore,,,,,,,,,,,,Retirement Home,,,,,5314 Lakeshore Rd,,,Burlington,,,ON,,L7L 6L8,Canada,43.3664169,-79.73256529999999,,True
Chartwell Orchards Retirement Residence,,,,,,,,,,,,,,,,,,289-438-2542,,,,http://chartwell.com/Retirement-Homes/Chartwell-Orchards-Retirement-Residence,,,,,,,,,,,,Retirement Home,,,,,3421 Frederick Avenue,,,Vineland,,,ON,,L0R 2C0,Canada,43.158994,-79.3957801,,True
Assisted Living at Chartwell Orchards Retirement Residence,,,,,,,,,,,,,,,,,,289-438-2545,,,,http://chartwell.com/Retirement-Homes/Assisted-Living-at-Chartwell-Orchards-Retirement-Residence,,,,,,,,,,,,Retirement Home,,,,,3421 Frederick Ave,,,Vineland,,,ON,,L0R 2C0,Canada,43.158994,-79.3957801,,True
Memory Care at Chartwell Orchards Retirement Residence,,,,,,,,,,,,,,,,,,289-438-2544,,,,http://chartwell.com/Retirement-Homes/Memory-Care-at-Chartwell-Orchards-Retirement-Residence,,,,,,,,,,,,Retirement Home,,,,,3421 Frederick Ave,,,Vineland,,,ON,,L0R 2C0,Canada,43.158994,-79.3957801,,True
Chartwell Isabella Retirement Residence,,,,,,,,,,,,,,,,,,807-333-0381,,,,http://chartwell.com/Retirement-Homes/Chartwell-Isabella-Retirement-Residence,,,,,,,,,,,,Retirement Home,,,,,1350 Isabella St E,,,Thunder Bay,,,ON,,P7E 0A5,Canada,48.3769386,-89.2557588,,True
Chartwell Tranquility Place Apartments,,,,,,,,,,,,,,,,,,226-227-9610,,,,http://chartwell.com/Retirement-Homes/Chartwell-Tranquility-Place-Apartments,,,,,,,,,,,,Retirement Home,,,,,436 Powerline Rd,,,Brantford,,,ON,,N3T 5L8,Canada,43.1856514,-80.27884639999999,,True
Memory Care at Chartwell Deerview Crossing,,,,,,,,,,,,,,,,,,289-309-6498,,,,http://chartwell.com/Retirement-Homes/Memory-Care-at-Chartwell-Deerview-Crossing,,,,,,,,,,,,Retirement Home,,,,,460 Rymal Rd W,,,Hamilton,,,ON,,L9B 0B2,Canada,43.20787109999999,-79.9132288,Falkirk East,True
Memory Care at Chartwell Georgian Traditions,,,,,,,,,,,,,,,,,,705-532-9975,,,,http://chartwell.com/Retirement-Homes/Memory-Care-at-Chartwell-Georgian-Traditions,,,,,,,,,,,,Retirement Home,,,,,57 Trott Blvd,,,Collingwood,,,ON,,L9Y 0A3,Canada,44.51014319999999,-80.2392354,,True
Chartwell Le Yamaska appartements,,,,,,,,,,,,,,,,,,450-768-6704,,,,http://chartwell.com/Retirement-Homes/Chartwell-Le-Yamaska-appartements,,,,,,,,,,,,Retirement Home,,,,,1480 Delorme St,,,Saint-Hyacinthe,,,QC,,J2S 5C8,Canada,45.6284506,-72.9502435,Quartier Sacré-Cœur,True
Chartwell Greenfield Park Retirement Residence,,,,,,,,,,,,,,,,,,855-461-0685,,,,http://chartwell.com/Retirement-Homes/Chartwell-Greenfield-Park-Retirement-Residence,,,,,,,,,,,,Retirement Home,,,,,2999 Boulevard Taschereau,,,Greenfield Park,,,QC,,J4V 2H2,Canada,45.498668,-73.48525699999999,,False
Chartwell Villa Jonquière résidence de soins,,,,,,,,,,,,,,,,,,(581) 684-8472,,,,http://chartwell.com/Retirement-Homes/Chartwell-Villa-Jonquière-résidence-de-soins,,,,,,,,,,,,Retirement Home,,,,,3978 Harvey Blvd,,,Saguenay,,,QC,,G8A 2J9,Canada,48.41528839999999,-71.25826090000001,,True
Chartwell Oasis Saint-Jean résidence de soins,,,,,,,,,,,,,,,,,,(514) 940-3530,,,,http://chartwell.com/Retirement-Homes/Chartwell-Oasis-Saint-Jean-résidence-de-soins,,,,,,,,,,,,Retirement Home,,,,,1050 Stéfoni Rd,,,Saint-Jean-sur-Richelieu,,,QC,,J3A 1T5,Canada,45.3377451,-73.28057059999999,Normandie,True
Chartwell Ste-Marthe résidence de soins,,,,,,,,,,,,,,,,,,(450) 768-6702,,,,http://chartwell.com/Retirement-Homes/Chartwell-Ste-Marthe-résidence-de-soins,,,,,,,,,,,,Retirement Home,,,,,675 Saint-Pierre St W,,,Saint-Hyacinthe,,,QC,,J2T 1N7,Canada,45.6239969,-72.9352315,Quartier Saint-Joseph,True
Chartwell Monastère d'Aylmer résidence de soins,,,,,,,,,,,,,,,,,,(613) 688-3383,,,,http://chartwell.com/Retirement-Homes/Chartwell-Monastère-d'Aylmer-résidence-de-soins,,,,,,,,,,,,Retirement Home,,,,,161 Principale St,,,Gatineau,,,QC,,J9H 7H4,Canada,45.3963974,-75.8396637,Aylmer,True
Chartwell Manoir et Cours de l'Atrium résidence de soins,,,,,,,,,,,,,,,,,,(581) 781-8696,,,,http://chartwell.com/Retirement-Homes/Chartwell-Manoir-et-Cours-de-l'Atrium-résidence-de-soins,,,,,,,,,,,,Retirement Home,,,,,545 Francis-Byrne St,,,Quebec,,,QC,,G1H 7L3,Canada,46.84467540000001,-71.2672736,,True
Chartwell Villa Saguenay résidence de soins,,,,,,,,,,,,,,,,,,(418) 579-1256,,,,http://chartwell.com/Retirement-Homes/Chartwell-Villa-Saguenay-résidence-de-soins,,,,,,,,,,,,Retirement Home,,,,,1901 Des Roitelets St,,,Saguenay,,,QC,,G7H 7L7,Canada,48.3931669,-71.04983,,True
Chartwell Manoir Archer résidence de soins,,,,,,,,,,,,,,,,,,(581) 781-8698,,,,http://chartwell.com/Retirement-Homes/Chartwell-Manoir-Archer-résidence-de-soins,,,,,,,,,,,,Retirement Home,,,,,1217 De l'Église Rd,,,Quebec,,,QC,,G1W 3P2,Canada,46.7661788,-71.2869589,,True
Assisted Living at Chartwell Le Teasdale,,,,,,,,,,,,,,,,,,450-914-2181,,,,http://chartwell.com/Retirement-Homes/Assisted-Living-at-Chartwell-Le-Teasdale,,,,,,,,,,,,Retirement Home,,,,,950 Lucille-Teasdale Blvd,,,Terrebonne,,,QC,,J6V 0A7,Canada,45.724743,-73.5072787,,True
Chartwell Les Monarques résidence de soins,,,,,,,,,,,,,,,,,,579-379-8905,,,,http://chartwell.com/Retirement-Homes/Chartwell-Les-Monarques-résidence-de-soins,,,,,,,,,,,,Retirement Home,,,,,495 Bibeau St,,,Saint-Eustache,,,QC,,J7R 0B9,Canada,45.5700158,-73.9151586,,True
Memory Care at Chartwell Les Monarques,,,,,,,,,,,,,,,,,,579-379-8905,,,,http://chartwell.com/Retirement-Homes/Memory-Care-at-Chartwell-Les-Monarques,,,,,,,,,,,,Retirement Home,,,,,495 Bibeau St,,,Saint-Eustache,,,QC,,J7R 0B9,Canada,45.5700158,-73.9151586,,True
Chartwell Le St-Gabriel résidence pour retraités,,,,,,,,,,,,,,,,,,579-880-8910,,,,http://chartwell.com/Retirement-Homes/Chartwell-Le-St-Gabriel-résidence-pour-retraités,,,,,,,,,,,,Retirement Home,,,,,5885 chemin de Chambly,,,Longueuil,,,QC,,J3Y 3R4,Canada,45.4986079,-73.4095498,,False
Chartwell L'Unique résidence pour retraités phase III,,,,,,,,,,,,,,,,,,579-379-8903,,,,http://chartwell.com/Retirement-Homes/Chartwell-L'Unique-résidence-pour-retraités-phase-III,,,,,,,,,,,,Retirement Home,,,,,435 Bibeau St,,,Saint-Eustache,,,QC,,J7R 0C7,Canada,45.5687673,-73.91385629999999,,True
Chartwell Le Prescott résidence pour retraités,,,,,,,,,,,,,,,,,,438-338-9853,,,,http://chartwell.com/Retirement-Homes/Chartwell-Le-Prescott-résidence-pour-retraités,,,,,,,,,,,,Retirement Home,,,,,1335 rue Émile-Bouchard,,,Vaudreuil-Dorion,,,QC,,J7V 0Y2,Canada,45.3935551,-74.0491448,,False
Chartwell Le Montcalm résidence pour retraités,,,,,,,,,,,,,,,,,,579-886-8891,,,,http://chartwell.com/Retirement-Homes/Chartwell-Le-Montcalm-résidence-pour-retraités,,,,,,,,,,,,Retirement Home,,,,,95 Montcalm Nord,,,Candiac,,,QC,,J5R 0R8,Canada,45.39430389999999,-73.51809399999999,,False
Chartwell Belvédères de Lachine résidence pour retraités,,,,,,,,,,,,,,,,,,438-819-8466,,,,http://chartwell.com/Retirement-Homes/Chartwell-Belvédères-de-Lachine-résidence-pour-retraités,,,,,,,,,,,,Retirement Home,,,,,3000 Notre-Dame St,,,Montreal,,,QC,,H8S 2H1,Canada,45.480752,-73.578503,,True
Chartwell Le Wellesley résidence pour retraités,,,,,,,,,,,,,,,,,,438-538-8473,,,,http://chartwell.com/Retirement-Homes/Chartwell-Le-Wellesley-résidence-pour-retraités,,,,,,,,,,,,Retirement Home,,,,,230 Hymus Blvd,,,Pointe-Claire,,,QC,,H9R 5P5,Canada,45.4582138,-73.82435319999999,,True
Chartwell Villa de l'Estrie résidence pour retraités,,,,,,,,,,,,,,,,,,819-416-1714,,,,http://chartwell.com/Retirement-Homes/Chartwell-Villa-de-l'Estrie-résidence-pour-retraités,,,,,,,,,,,,Retirement Home,,,,,3320 Des Chênes St,,,Sherbrooke,,,QC,,J1L 0A6,Canada,45.3994716,-71.9572984,,True
Chartwell Seigneuries du Carrefour résidence pour retraités,,,,,,,,,,,,,,,,,,819-416-1712,,,,http://chartwell.com/Retirement-Homes/Chartwell-Seigneuries-du-Carrefour-résidence-pour-retraités,,,,,,,,,,,,Retirement Home,,,,,445 Des Érables St,,,Sherbrooke,,,QC,,J1L 0C2,Canada,45.4059866,-71.9486687,,True
Chartwell Résidence Principale résidence pour retraités,,,,,,,,,,,,,,,,,,450-306-6094,,,,http://chartwell.com/Retirement-Homes/Chartwell-Résidence-Principale-résidence-pour-retraités,,,,,,,,,,,,Retirement Home,,,,,339 Principale St,,,Cowansville,,,QC,,J2K 1J4,Canada,45.2100274,-72.7363774,,True
Chartwell Appartements de Bordeaux résidence pour retraités,,,,,,,,,,,,,,,,,,581-781-8692,,,,http://chartwell.com/Retirement-Homes/Chartwell-Appartements-de-Bordeaux-résidence-pour-retraités,,,,,,,,,,,,Retirement Home,,,,,2142 Saint-Louis Rd,,,Quebec,,,QC,,G1T 1P7,Canada,46.7762141,-71.2557114,,True
Chartwell Cite Jardin résidence de soins,,,,,,,,,,,,,,,,,,819-282-8449,,,,http://chartwell.com/Retirement-Homes/Chartwell-Cite-Jardin-résidence-de-soins,,,,,,,,,,,,Retirement Home,,,,,60 De la Futaie St,,,Gatineau,,,QC,,J8T 8P5,Canada,45.48648359999999,-75.68715739999999,District du Versant,True
Chartwell Jardins Notre-Dame résidence pour retraités,,,,,,,,,,,,,,,,,,819-815-9988,,,,http://chartwell.com/Retirement-Homes/Chartwell-Jardins-Notre-Dame-résidence-pour-retraités,,,,,,,,,,,,Retirement Home,,,,,195 Saint-Joseph Blvd,,,Gatineau,,,QC,,J8Y 0A3,Canada,45.4339325,-75.7334277,,True
Chartwell L'Unique résidence pour retraités,,,,,,,,,,,,,,,,,,579-379-8903,,,,http://chartwell.com/Retirement-Homes/Chartwell-L'Unique-résidence-pour-retraités,,,,,,,,,,,,Retirement Home,,,,,435 Bibeau St,,,Saint-Eustache,,,QC,,J7R 0C7,Canada,45.5687673,-73.91385629999999,,True
Chartwell Le Teasdale résidence pour retraités,,,,,,,,,,,,,,,,,,450-914-2181,,,,http://chartwell.com/Retirement-Homes/Chartwell-Le-Teasdale-résidence-pour-retraités,,,,,,,,,,,,Retirement Home,,,,,950 Lucille-Teasdale Blvd,,,Terrebonne,,,QC,,J6V 0G5,Canada,45.724743,-73.5072787,,True
Chartwell L'Ermitage résidence pour retraités,,,,,,,,,,,,,,,,,,819-870-2278,,,,http://chartwell.com/Retirement-Homes/Chartwell-L'Ermitage-résidence-pour-retraités,,,,,,,,,,,,Retirement Home,,,,,540 Berol St,,,Drummondville,,,QC,,J2B 8H4,Canada,45.8768286,-72.4824733,,True
Chartwell Villa Rive-Sud résidence pour retraités,,,,,,,,,,,,,,,,,,450-876-1424,,,,http://chartwell.com/Retirement-Homes/Chartwell-Villa-Rive-Sud-résidence-pour-retraités,,,,,,,,,,,,Retirement Home,,,,,3460 De Chambly Rd,,,Longueuil,,,QC,,J4L 4S1,Canada,45.5136401,-73.44570209999999,,True
Chartwell Villa Saguenay résidence pour retraités,,,,,,,,,,,,,,,,,,418-579-1256,,,,http://chartwell.com/Retirement-Homes/Chartwell-Villa-Saguenay-résidence-pour-retraités,,,,,,,,,,,,Retirement Home,,,,,1901 Des Roitelets St,,,Saguenay,,,QC,,G7H 7L7,Canada,48.3931669,-71.04983,,True
Chartwell Jardins de la Gare résidence pour retraités,,,,,,,,,,,,,,,,,,450-768-6704,,,,http://chartwell.com/Retirement-Homes/Chartwell-Jardins-de-la-Gare-résidence-pour-retraités,,,,,,,,,,,,Retirement Home,,,,,2025 Moreau St,,,Saint-Hyacinthe,,,QC,,J2S 5C8,Canada,45.6279459,-72.9510787,Quartier Sacré-Cœur,True
Chartwell Jardins Laviolette résidence pour retraités,,,,,,,,,,,,,,,,,,819-415-0763,,,,http://chartwell.com/Retirement-Homes/Chartwell-Jardins-Laviolette-résidence-pour-retraités,,,,,,,,,,,,Retirement Home,,,,,2975 Laviolette Blvd,,,Trois-Rivières,,,QC,,G8Z 1E8,Canada,46.3572459,-72.5656815,,True
Chartwell Les écores résidence pour retraités,,,,,,,,,,,,,,,,,,450-903-0295,,,,http://chartwell.com/Retirement-Homes/Chartwell-Les-écores-résidence-pour-retraités,,,,,,,,,,,,Retirement Home,,,,,1800 Cartier Blvd E,,,Laval,,,QC,,H7G 4R6,Canada,45.5729174,-73.6705381,,True
Chartwell Le Duplessis résidence pour retraités,,,,,,,,,,,,,,,,,,819-415-0761,,,,http://chartwell.com/Retirement-Homes/Chartwell-Le-Duplessis-résidence-pour-retraités,,,,,,,,,,,,Retirement Home,,,,,20 Duplessis Rd,,,Trois-Rivières,,,QC,,G8T 9P2,Canada,46.3634265,-72.5324092,Cap-de-la-Madeleine,True
Chartwell Manoir Archer résidence pour retraités,,,,,,,,,,,,,,,,,,581-781-8698,,,,http://chartwell.com/Retirement-Homes/Chartwell-Manoir-Archer-résidence-pour-retraités,,,,,,,,,,,,Retirement Home,,,,,1217 De l'Église Rd,,,Quebec,,,QC,,G1W 3P2,Canada,46.7661788,-71.2869589,,True
Chartwell Manoir et Cours de l'Atrium résidence pour retraités,,,,,,,,,,,,,,,,,,581-781-8696,,,,http://chartwell.com/Retirement-Homes/Chartwell-Manoir-et-Cours-de-l'Atrium-résidence-pour-retraités,,,,,,,,,,,,Retirement Home,,,,,545 Francis-Byrne St,,,Quebec,,,QC,,G1H 7L3,Canada,46.84467540000001,-71.2672736,,True
Chartwell Manoir Pointe-aux-Trembles résidence pour retraités,,,,,,,,,,,,,,,,,,438-228-9298,,,,http://chartwell.com/Retirement-Homes/Chartwell-Manoir-Pointe-aux-Trembles-résidence-pour-retraités,,,,,,,,,,,,Retirement Home,,,,,3478 32nd Ave,,,Montreal,,,QC,,H1A 3M1,Canada,45.6585114,-73.5121893,,True
Chartwell Manoir Kirkland résidence pour retraités,,,,,,,,,,,,,,,,,,438-538-8471,,,,http://chartwell.com/Retirement-Homes/Chartwell-Manoir-Kirkland-résidence-pour-retraités,,,,,,,,,,,,Retirement Home,,,,,2 Canvin Rd,,,Kirkland,,,QC,,H9H 4B5,Canada,45.4500034,-73.8349312,,True
Chartwell Domaine des Trembles résidence pour retraités,,,,,,,,,,,,,,,,,,819-282-8453,,,,http://chartwell.com/Retirement-Homes/Chartwell-Domaine-des-Trembles-résidence-pour-retraités,,,,,,,,,,,,Retirement Home,,,,,250 Saint-Raymond Blvd,,,Gatineau,,,QC,,J9A 0B1,Canada,45.4288713,-75.7630499,,True
Chartwell Domaine Harmonie résidence pour retraités,,,,,,,,,,,,,,,,,,450-868-0930,,,,http://chartwell.com/Retirement-Homes/Chartwell-Domaine-Harmonie-résidence-pour-retraités,,,,,,,,,,,,Retirement Home,,,,,1024 Charcot Rd,,,Boucherville,,,QC,,J4B 8R5,Canada,45.5931501,-73.4301746,,True
Chartwell Villa Chicoutimi résidence pour retraités,,,,,,,,,,,,,,,,,,418-579-1254,,,,http://chartwell.com/Retirement-Homes/Chartwell-Villa-Chicoutimi-résidence-pour-retraités,,,,,,,,,,,,Retirement Home,,,,,220 Don Bosco St,,,Saguenay,,,QC,,G7N 7P6,Canada,48.4087283,-71.063501,,True
Chartwell Faubourg Giffard résidence pour retraités,,,,,,,,,,,,,,,,,,581-781-8694,,,,http://chartwell.com/Retirement-Homes/Chartwell-Faubourg-Giffard-résidence-pour-retraités,,,,,,,,,,,,Retirement Home,,,,,2321 De la Canardière,,,Quebec,,,QC,,G1J 0A3,Canada,46.84380160000001,-71.2215204,,False
Chartwell Villa Jonquière résidence pour retraités,,,,,,,,,,,,,,,,,,581-684-8472,,,,http://chartwell.com/Retirement-Homes/Chartwell-Villa-Jonquière-résidence-pour-retraités,,,,,,,,,,,,Retirement Home,,,,,3978 Harvey Blvd,,,Saguenay,,,QC,,G8A 2J9,Canada,48.41528839999999,-71.25826090000001,,True
Chartwell Villa Jonquière résidence pour retraités,,,,,,,,,,,,,,,,,,581-684-8472,,,,http://chartwell.com/Retirement-Homes/Chartwell-Villa-Jonquière-résidence-pour-retraités,,,,,,,,,,,,Retirement Home,,,,,3978 Harvey Blvd,,,Saguenay,,,QC,,G8A 2J9,Canada,48.41528839999999,-71.25826090000001,,True
Chartwell Villa Jonquière résidence pour retraités,,,,,,,,,,,,,,,,,,581-684-8472,,,,http://chartwell.com/Retirement-Homes/Chartwell-Villa-Jonquière-résidence-pour-retraités,,,,,,,,,,,,Retirement Home,,,,,3978 Harvey Blvd,,,Saguenay,,,QC,,G8A 2J9,Canada,48.41528839999999,-71.25826090000001,,True
Chartwell Résidence St-Pierre résidence pour retraités,,,,,,,,,,,,,,,,,,866-245-1652,,,,http://chartwell.com/Retirement-Homes/Chartwell-Résidence-St-Pierre-résidence-pour-retraités,,,,,,,,,,,,Retirement Home,,,,,175 Notre-Dame St,,,Rouyn-Noranda,,,QC,,J9X 3A2,Canada,48.2326321,-79.0264579,,True
Chartwell Ste-Geneviève résidence pour retraités,,,,,,,,,,,,,,,,,,418-210-2063,,,,http://chartwell.com/Retirement-Homes/Chartwell-Ste-Geneviève-résidence-pour-retraités,,,,,,,,,,,,Retirement Home,,,,,4855 Sainte-Geneviève Rd,,,Quebec,,,QC,,G2B 4W3,Canada,46.8425044,-71.3893568,,True
Chartwell Ste-Marthe résidence pour retraités,,,,,,,,,,,,,,,,,,450-768-6702,,,,http://chartwell.com/Retirement-Homes/Chartwell-Ste-Marthe-résidence-pour-retraités,,,,,,,,,,,,Retirement Home,,,,,675 Saint-Pierre St W,,,Saint-Hyacinthe,,,QC,,J2T 1N7,Canada,45.6239969,-72.9352315,Quartier Saint-Joseph,True
Chartwell Cite Jardin résidence pour retraités,,,,,,,,,,,,,,,,,,819-282-8449,,,,http://chartwell.com/Retirement-Homes/Chartwell-Cite-Jardin-résidence-pour-retraités,,,,,,,,,,,,Retirement Home,,,,,60 De la Futaie St,,,Gatineau,,,QC,,J8T 8P5,Canada,45.48648359999999,-75.68715739999999,District du Versant,True
Chartwell Domaine Cascade résidence pour retraités,,,,,,,,,,,,,,,,,,819-805-0278,,,,http://chartwell.com/Retirement-Homes/Chartwell-Domaine-Cascade-résidence-pour-retraités,,,,,,,,,,,,Retirement Home,,,,,695 7th Street de la Pointe,,,Shawinigan,,,QC,,G9N 8K2,Canada,46.5416302,-72.7504439,,False
Chartwell Domaine de Bordeaux résidence pour retraités,,,,,,,,,,,,,,,,,,581-781-8690,,,,http://chartwell.com/Retirement-Homes/Chartwell-Domaine-de-Bordeaux-résidence-pour-retraités,,,,,,,,,,,,Retirement Home,,,,,2140 Saint-Louis Rd,,,Quebec,,,QC,,G1T 1P8,Canada,46.7754598,-71.2551509,,True
Chartwell Château Vincent d'Indy résidence pour retraités,,,,,,,,,,,,,,,,,,438-228-9294,,,,http://chartwell.com/Retirement-Homes/Chartwell-Château-Vincent-d'Indy-résidence-pour-retraités,,,,,,,,,,,,Retirement Home,,,,,60 Willowdale Ave,,,Outremont,,,QC,,H3T 2A3,Canada,45.50972890000001,-73.6139828,,True
Chartwell Manoir Saint-Jérôme résidence pour retraités,,,,,,,,,,,,,,,,,,450-710-0695,,,,http://chartwell.com/Retirement-Homes/Chartwell-Manoir-Saint-Jérôme-résidence-pour-retraités,,,,,,,,,,,,Retirement Home,,,,,335 des Pins St,,,Saint-Jérôme,,,QC,,J7Z 0A2,Canada,45.79171369999999,-73.99823760000001,,True
Chartwell Monastère d'Aylmer résidence pour retraités ,,,,,,,,,,,,,,,,,,613-688-3383,,,,http://chartwell.com/Retirement-Homes/Chartwell-Monastère-d'Aylmer-résidence-pour-retraités,,,,,,,,,,,,Retirement Home,,,,,161 Principale St,,,Gatineau,,,QC,,J9H 7H4,Canada,45.3963974,-75.8396637,Aylmer,True
Chartwell Bois-de-Boulogne résidence pour retraités,,,,,,,,,,,,,,,,,,438-228-9296,,,,http://chartwell.com/Retirement-Homes/Chartwell-Bois-de-Boulogne-résidence-pour-retraités,,,,,,,,,,,,Retirement Home,,,,,10 005 Bois-de-Boulogne Ave,,,Montreal,,,QC,,H4N 3B2,Canada,45.536788,-73.669613,,True
Chartwell Domaine Notre-Dame résidence pour retraités,,,,,,,,,,,,,,,,,,819-282-8451,,,,http://chartwell.com/Retirement-Homes/Chartwell-Domaine-Notre-Dame-résidence-pour-retraités,,,,,,,,,,,,Retirement Home,,,,,39 Amherst St,,,Gatineau,,,QC,,J8Y 2W1,Canada,45.4339869,-75.7345711,,True
Chartwell Notre-Dame Victoriaville résidence pour retraités,,,,,,,,,,,,,,,,,,819-809-0520,,,,http://chartwell.com/Retirement-Homes/Chartwell-Notre-Dame-Victoriaville-résidence-pour-retraités,,,,,,,,,,,,Retirement Home,,,,,222 Notre-Dame West Rd,,,Victoriaville,,,QC,,G6P 1R9,Canada,46.0583492,-71.9633569,,True
Chartwell Oasis Saint-Jean résidence pour retraités,,,,,,,,,,,,,,,,,,514-940-3530,,,,http://chartwell.com/Retirement-Homes/Chartwell-Oasis-Saint-Jean-résidence-pour-retraités,,,,,,,,,,,,Retirement Home,,,,,1050 Stéfoni Rd,,,Saint-Jean-sur-Richelieu,,,QC,,J3A 1T5,Canada,45.3377451,-73.28057059999999,Normandie,True
Chartwell Monastère d'Aylmer résidence de soins,,,,,,,,,,,,,,,,,,(613) 688-3383,,,,http://chartwell.com/Retirement-Homes/Chartwell-Monastère-d'Aylmer-résidence-de-soins,,,,,,,,,,,,Retirement Home,,,,,161 Principale St,,,Gatineau,,,QC,,J9H 7H4,Canada,45.3963974,-75.8396637,Aylmer,True
Chartwell Manoir et Cours de l'Atrium résidence de soins,,,,,,,,,,,,,,,,,,(581) 781-8696,,,,http://chartwell.com/Retirement-Homes/Chartwell-Manoir-et-Cours-de-l'Atrium-résidence-de-soins,,,,,,,,,,,,Retirement Home,,,,,545 Francis-Byrne St,,,Quebec,,,QC,,G1H 7L3,Canada,46.84467540000001,-71.2672736,,True
Chartwell Villa Saguenay résidence de soins,,,,,,,,,,,,,,,,,,(418) 579-1256,,,,http://chartwell.com/Retirement-Homes/Chartwell-Villa-Saguenay-résidence-de-soins,,,,,,,,,,,,Retirement Home,,,,,1901 Des Roitelets St,,,Saguenay,,,QC,,G7H 7L7,Canada,48.3931669,-71.04983,,True
Chartwell Manoir Archer résidence de soins,,,,,,,,,,,,,,,,,,(581) 781-8698,,,,http://chartwell.com/Retirement-Homes/Chartwell-Manoir-Archer-résidence-de-soins,,,,,,,,,,,,Retirement Home,,,,,1217 De l'Église Rd,,,Quebec,,,QC,,G1W 3P2,Canada,46.7661788,-71.2869589,,True
Assisted Living at Chartwell Le Teasdale,,,,,,,,,,,,,,,,,,450-914-2181,,,,http://chartwell.com/Retirement-Homes/Assisted-Living-at-Chartwell-Le-Teasdale,,,,,,,,,,,,Retirement Home,,,,,950 Lucille-Teasdale Blvd,,,Terrebonne,,,QC,,J6V 0A7,Canada,45.724743,-73.5072787,,True
Chartwell Les Monarques résidence de soins,,,,,,,,,,,,,,,,,,579-379-8905,,,,http://chartwell.com/Retirement-Homes/Chartwell-Les-Monarques-résidence-de-soins,,,,,,,,,,,,Retirement Home,,,,,495 Bibeau St,,,Saint-Eustache,,,QC,,J7R 0B9,Canada,45.5700158,-73.9151586,,True
Memory Care at Chartwell Les Monarques,,,,,,,,,,,,,,,,,,579-379-8905,,,,http://chartwell.com/Retirement-Homes/Memory-Care-at-Chartwell-Les-Monarques,,,,,,,,,,,,Retirement Home,,,,,495 Bibeau St,,,Saint-Eustache,,,QC,,J7R 0B9,Canada,45.5700158,-73.9151586,,True
Chartwell Le St-Gabriel résidence pour retraités,,,,,,,,,,,,,,,,,,579-880-8910,,,,http://chartwell.com/Retirement-Homes/Chartwell-Le-St-Gabriel-résidence-pour-retraités,,,,,,,,,,,,Retirement Home,,,,,5885 chemin de Chambly,,,Longueuil,,,QC,,J3Y 3R4,Canada,45.4986079,-73.4095498,,False
Chartwell L'Unique résidence pour retraités phase III,,,,,,,,,,,,,,,,,,579-379-8903,,,,http://chartwell.com/Retirement-Homes/Chartwell-L'Unique-résidence-pour-retraités-phase-III,,,,,,,,,,,,Retirement Home,,,,,435 Bibeau St,,,Saint-Eustache,,,QC,,J7R 0C7,Canada,45.568909,-73.913668,,True
Chartwell Le Prescott résidence pour retraités,,,,,,,,,,,,,,,,,,438-338-9853,,,,http://chartwell.com/Retirement-Homes/Chartwell-Le-Prescott-résidence-pour-retraités,,,,,,,,,,,,Retirement Home,,,,,1335 rue Émile-Bouchard,,,Vaudreuil-Dorion,,,QC,,J7V 0Y2,Canada,45.3935551,-74.0491448,,False
Chartwell Le Montcalm résidence pour retraités,,,,,,,,,,,,,,,,,,579-886-8891,,,,http://chartwell.com/Retirement-Homes/Chartwell-Le-Montcalm-résidence-pour-retraités,,,,,,,,,,,,Retirement Home,,,,,95 Montcalm Nord,,,Candiac,,,QC,,J5R 0R8,Canada,45.39430389999999,-73.51809399999999,,False
Chartwell Belvédères de Lachine résidence pour retraités,,,,,,,,,,,,,,,,,,438-819-8466,,,,http://chartwell.com/Retirement-Homes/Chartwell-Belvédères-de-Lachine-résidence-pour-retraités,,,,,,,,,,,,Retirement Home,,,,,3000 Notre-Dame St,,,Montreal,,,QC,,H8S 2H1,Canada,45.480752,-73.578503,,True
Chartwell Le Wellesley résidence pour retraités,,,,,,,,,,,,,,,,,,438-538-8473,,,,http://chartwell.com/Retirement-Homes/Chartwell-Le-Wellesley-résidence-pour-retraités,,,,,,,,,,,,Retirement Home,,,,,230 Hymus Blvd,,,Pointe-Claire,,,QC,,H9R 5P5,Canada,45.4582138,-73.82435319999999,,True
Chartwell Villa de l'Estrie résidence pour retraités,,,,,,,,,,,,,,,,,,819-416-1714,,,,http://chartwell.com/Retirement-Homes/Chartwell-Villa-de-l'Estrie-résidence-pour-retraités,,,,,,,,,,,,Retirement Home,,,,,3320 Des Chênes St,,,Sherbrooke,,,QC,,J1L 0A6,Canada,45.3994716,-71.9572984,,True
Chartwell Seigneuries du Carrefour résidence pour retraités,,,,,,,,,,,,,,,,,,819-416-1712,,,,http://chartwell.com/Retirement-Homes/Chartwell-Seigneuries-du-Carrefour-résidence-pour-retraités,,,,,,,,,,,,Retirement Home,,,,,445 Des Érables St,,,Sherbrooke,,,QC,,J1L 0C2,Canada,45.4059866,-71.9486687,,True
Chartwell Résidence Principale résidence pour retraités,,,,,,,,,,,,,,,,,,450-306-6094,,,,http://chartwell.com/Retirement-Homes/Chartwell-Résidence-Principale-résidence-pour-retraités,,,,,,,,,,,,Retirement Home,,,,,339 Principale St,,,Cowansville,,,QC,,J2K 1J4,Canada,45.2100274,-72.7363774,,True
Chartwell Appartements de Bordeaux résidence pour retraités,,,,,,,,,,,,,,,,,,581-781-8692,,,,http://chartwell.com/Retirement-Homes/Chartwell-Appartements-de-Bordeaux-résidence-pour-retraités,,,,,,,,,,,,Retirement Home,,,,,2142 Saint-Louis Rd,,,Quebec,,,QC,,G1T 1P7,Canada,46.7762141,-71.2557114,,True
Chartwell Cite Jardin résidence de soins,,,,,,,,,,,,,,,,,,819-282-8449,,,,http://chartwell.com/Retirement-Homes/Chartwell-Cite-Jardin-résidence-de-soins,,,,,,,,,,,,Retirement Home,,,,,60 De la Futaie St,,,Gatineau,,,QC,,J8T 8P5,Canada,45.48648359999999,-75.68715739999999,District du Versant,True
Chartwell Jardins Notre-Dame résidence pour retraités,,,,,,,,,,,,,,,,,,819-815-9988,,,,http://chartwell.com/Retirement-Homes/Chartwell-Jardins-Notre-Dame-résidence-pour-retraités,,,,,,,,,,,,Retirement Home,,,,,195 Saint-Joseph Blvd,,,Gatineau,,,QC,,J8Y 0A3,Canada,45.4339325,-75.7334277,,True
Chartwell L'Unique résidence pour retraités,,,,,,,,,,,,,,,,,,579-379-8903,,,,http://chartwell.com/Retirement-Homes/Chartwell-L'Unique-résidence-pour-retraités,,,,,,,,,,,,Retirement Home,,,,,435 Bibeau St,,,Saint-Eustache,,,QC,,J7R 0C7,Canada,45.568909,-73.913668,,True
Chartwell Le Teasdale résidence pour retraités,,,,,,,,,,,,,,,,,,450-914-2181,,,,http://chartwell.com/Retirement-Homes/Chartwell-Le-Teasdale-résidence-pour-retraités,,,,,,,,,,,,Retirement Home,,,,,950 Lucille-Teasdale Blvd,,,Terrebonne,,,QC,,J6V 0G5,Canada,45.724743,-73.5072787,,True
Chartwell L'Ermitage résidence pour retraités,,,,,,,,,,,,,,,,,,819-870-2278,,,,http://chartwell.com/Retirement-Homes/Chartwell-L'Ermitage-résidence-pour-retraités,,,,,,,,,,,,Retirement Home,,,,,540 Berol St,,,Drummondville,,,QC,,J2B 8H4,Canada,45.8768286,-72.4824733,,True
Chartwell Villa Rive-Sud résidence pour retraités,,,,,,,,,,,,,,,,,,450-876-1424,,,,http://chartwell.com/Retirement-Homes/Chartwell-Villa-Rive-Sud-résidence-pour-retraités,,,,,,,,,,,,Retirement Home,,,,,3460 De Chambly Rd,,,Longueuil,,,QC,,J4L 4S1,Canada,45.5136401,-73.44570209999999,,True
Chartwell Villa Saguenay résidence pour retraités,,,,,,,,,,,,,,,,,,418-579-1256,,,,http://chartwell.com/Retirement-Homes/Chartwell-Villa-Saguenay-résidence-pour-retraités,,,,,,,,,,,,Retirement Home,,,,,1901 Des Roitelets St,,,Saguenay,,,QC,,G7H 7L7,Canada,48.3931669,-71.04983,,True
Chartwell Jardins de la Gare résidence pour retraités,,,,,,,,,,,,,,,,,,450-768-6704,,,,http://chartwell.com/Retirement-Homes/Chartwell-Jardins-de-la-Gare-résidence-pour-retraités,,,,,,,,,,,,Retirement Home,,,,,2025 Moreau St,,,Saint-Hyacinthe,,,QC,,J2S 5C8,Canada,45.6279459,-72.9510787,Quartier Sacré-Cœur,True
Chartwell Jardins Laviolette résidence pour retraités,,,,,,,,,,,,,,,,,,819-415-0763,,,,http://chartwell.com/Retirement-Homes/Chartwell-Jardins-Laviolette-résidence-pour-retraités,,,,,,,,,,,,Retirement Home,,,,,2975 Laviolette Blvd,,,Trois-Rivières,,,QC,,G8Z 1E8,Canada,46.3572459,-72.5656815,,True
Chartwell Les écores résidence pour retraités,,,,,,,,,,,,,,,,,,450-903-0295,,,,http://chartwell.com/Retirement-Homes/Chartwell-Les-écores-résidence-pour-retraités,,,,,,,,,,,,Retirement Home,,,,,1800 Cartier Blvd E,,,Laval,,,QC,,H7G 4R6,Canada,45.5729174,-73.6705381,,True
Chartwell Le Duplessis résidence pour retraités,,,,,,,,,,,,,,,,,,819-415-0761,,,,http://chartwell.com/Retirement-Homes/Chartwell-Le-Duplessis-résidence-pour-retraités,,,,,,,,,,,,Retirement Home,,,,,20 Duplessis Rd,,,Trois-Rivières,,,QC,,G8T 9P2,Canada,46.3634265,-72.5324092,Cap-de-la-Madeleine,True
Chartwell Manoir Archer résidence pour retraités,,,,,,,,,,,,,,,,,,581-781-8698,,,,http://chartwell.com/Retirement-Homes/Chartwell-Manoir-Archer-résidence-pour-retraités,,,,,,,,,,,,Retirement Home,,,,,1217 De l'Église Rd,,,Quebec,,,QC,,G1W 3P2,Canada,46.7661788,-71.2869589,,True
Chartwell Manoir et Cours de l'Atrium résidence pour retraités,,,,,,,,,,,,,,,,,,581-781-8696,,,,http://chartwell.com/Retirement-Homes/Chartwell-Manoir-et-Cours-de-l'Atrium-résidence-pour-retraités,,,,,,,,,,,,Retirement Home,,,,,545 Francis-Byrne St,,,Quebec,,,QC,,G1H 7L3,Canada,46.84467540000001,-71.2672736,,True
Chartwell Manoir Pointe-aux-Trembles résidence pour retraités,,,,,,,,,,,,,,,,,,438-228-9298,,,,http://chartwell.com/Retirement-Homes/Chartwell-Manoir-Pointe-aux-Trembles-résidence-pour-retraités,,,,,,,,,,,,Retirement Home,,,,,3478 32nd Ave,,,Montreal,,,QC,,H1A 3M1,Canada,45.6585114,-73.5121893,,True
Chartwell Manoir Kirkland résidence pour retraités,,,,,,,,,,,,,,,,,,438-538-8471,,,,http://chartwell.com/Retirement-Homes/Chartwell-Manoir-Kirkland-résidence-pour-retraités,,,,,,,,,,,,Retirement Home,,,,,2 Canvin Rd,,,Kirkland,,,QC,,H9H 4B5,Canada,45.4500034,-73.8349312,,True
Chartwell Domaine des Trembles résidence pour retraités,,,,,,,,,,,,,,,,,,819-282-8453,,,,http://chartwell.com/Retirement-Homes/Chartwell-Domaine-des-Trembles-résidence-pour-retraités,,,,,,,,,,,,Retirement Home,,,,,250 Saint-Raymond Blvd,,,Gatineau,,,QC,,J9A 0B1,Canada,45.4288713,-75.7630499,,True
Chartwell Domaine Harmonie résidence pour retraités,,,,,,,,,,,,,,,,,,450-868-0930,,,,http://chartwell.com/Retirement-Homes/Chartwell-Domaine-Harmonie-résidence-pour-retraités,,,,,,,,,,,,Retirement Home,,,,,1024 Charcot Rd,,,Boucherville,,,QC,,J4B 8R5,Canada,45.5931501,-73.4301746,,True
Chartwell Villa Chicoutimi résidence pour retraités,,,,,,,,,,,,,,,,,,418-579-1254,,,,http://chartwell.com/Retirement-Homes/Chartwell-Villa-Chicoutimi-résidence-pour-retraités,,,,,,,,,,,,Retirement Home,,,,,220 Don Bosco St,,,Saguenay,,,QC,,G7N 7P6,Canada,48.4087283,-71.063501,,True
Chartwell Faubourg Giffard résidence pour retraités,,,,,,,,,,,,,,,,,,581-781-8694,,,,http://chartwell.com/Retirement-Homes/Chartwell-Faubourg-Giffard-résidence-pour-retraités,,,,,,,,,,,,Retirement Home,,,,,2321 De la Canardière,,,Quebec,,,QC,,G1J 0A3,Canada,46.84380160000001,-71.2215204,,False
Chartwell Villa Jonquière résidence pour retraités,,,,,,,,,,,,,,,,,,581-684-8472,,,,http://chartwell.com/Retirement-Homes/Chartwell-Villa-Jonquière-résidence-pour-retraités,,,,,,,,,,,,Retirement Home,,,,,3978 Harvey Blvd,,,Saguenay,,,QC,,G8A 2J9,Canada,48.41528839999999,-71.25826090000001,,True
Chartwell Villa Jonquière résidence pour retraités,,,,,,,,,,,,,,,,,,581-684-8472,,,,http://chartwell.com/Retirement-Homes/Chartwell-Villa-Jonquière-résidence-pour-retraités,,,,,,,,,,,,Retirement Home,,,,,3978 Harvey Blvd,,,Saguenay,,,QC,,G8A 2J9,Canada,48.41528839999999,-71.25826090000001,,True
Chartwell Villa Jonquière résidence pour retraités,,,,,,,,,,,,,,,,,,581-684-8472,,,,http://chartwell.com/Retirement-Homes/Chartwell-Villa-Jonquière-résidence-pour-retraités,,,,,,,,,,,,Retirement Home,,,,,3978 Harvey Blvd,,,Saguenay,,,QC,,G8A 2J9,Canada,48.41528839999999,-71.25826090000001,,True
Chartwell Résidence St-Pierre résidence pour retraités,,,,,,,,,,,,,,,,,,866-245-1652,,,,http://chartwell.com/Retirement-Homes/Chartwell-Résidence-St-Pierre-résidence-pour-retraités,,,,,,,,,,,,Retirement Home,,,,,175 Notre-Dame St,,,Rouyn-Noranda,,,QC,,J9X 3A2,Canada,48.2326321,-79.0264579,,True
Chartwell Ste-Geneviève résidence pour retraités,,,,,,,,,,,,,,,,,,418-210-2063,,,,http://chartwell.com/Retirement-Homes/Chartwell-Ste-Geneviève-résidence-pour-retraités,,,,,,,,,,,,Retirement Home,,,,,4855 Sainte-Geneviève Rd,,,Quebec,,,QC,,G2B 4W3,Canada,46.8425044,-71.3893568,,True
Chartwell Ste-Marthe résidence pour retraités,,,,,,,,,,,,,,,,,,450-768-6702,,,,http://chartwell.com/Retirement-Homes/Chartwell-Ste-Marthe-résidence-pour-retraités,,,,,,,,,,,,Retirement Home,,,,,675 Saint-Pierre St W,,,Saint-Hyacinthe,,,QC,,J2T 1N7,Canada,45.6239969,-72.9352315,Quartier Saint-Joseph,True
Chartwell Cite Jardin résidence pour retraités,,,,,,,,,,,,,,,,,,819-282-8449,,,,http://chartwell.com/Retirement-Homes/Chartwell-Cite-Jardin-résidence-pour-retraités,,,,,,,,,,,,Retirement Home,,,,,60 De la Futaie St,,,Gatineau,,,QC,,J8T 8P5,Canada,45.48648359999999,-75.68715739999999,District du Versant,True
Chartwell Domaine Cascade résidence pour retraités,,,,,,,,,,,,,,,,,,819-805-0278,,,,http://chartwell.com/Retirement-Homes/Chartwell-Domaine-Cascade-résidence-pour-retraités,,,,,,,,,,,,Retirement Home,,,,,695 7th Street de la Pointe,,,Shawinigan,,,QC,,G9N 8K2,Canada,46.5416302,-72.7504439,,False
Chartwell Domaine de Bordeaux résidence pour retraités,,,,,,,,,,,,,,,,,,581-781-8690,,,,http://chartwell.com/Retirement-Homes/Chartwell-Domaine-de-Bordeaux-résidence-pour-retraités,,,,,,,,,,,,Retirement Home,,,,,2140 Saint-Louis Rd,,,Quebec,,,QC,,G1T 1P8,Canada,46.7754598,-71.2551509,,True
Chartwell Château Vincent d'Indy résidence pour retraités,,,,,,,,,,,,,,,,,,438-228-9294,,,,http://chartwell.com/Retirement-Homes/Chartwell-Château-Vincent-d'Indy-résidence-pour-retraités,,,,,,,,,,,,Retirement Home,,,,,60 Willowdale Ave,,,Outremont,,,QC,,H3T 2A3,Canada,45.50972890000001,-73.6139828,,True
Chartwell Manoir Saint-Jérôme résidence pour retraités,,,,,,,,,,,,,,,,,,450-710-0695,,,,http://chartwell.com/Retirement-Homes/Chartwell-Manoir-Saint-Jérôme-résidence-pour-retraités,,,,,,,,,,,,Retirement Home,,,,,335 des Pins St,,,Saint-Jérôme,,,QC,,J7Z 0A2,Canada,45.79171369999999,-73.99823760000001,,True
Chartwell Monastère d'Aylmer résidence pour retraités ,,,,,,,,,,,,,,,,,,613-688-3383,,,,http://chartwell.com/Retirement-Homes/Chartwell-Monastère-d'Aylmer-résidence-pour-retraités,,,,,,,,,,,,Retirement Home,,,,,161 Principale St,,,Gatineau,,,QC,,J9H 7H4,Canada,45.3963974,-75.8396637,Aylmer,True
Chartwell Bois-de-Boulogne résidence pour retraités,,,,,,,,,,,,,,,,,,438-228-9296,,,,http://chartwell.com/Retirement-Homes/Chartwell-Bois-de-Boulogne-résidence-pour-retraités,,,,,,,,,,,,Retirement Home,,,,,10 005 Bois-de-Boulogne Ave,,,Montreal,,,QC,,H4N 3B2,Canada,45.536788,-73.669613,,True
Chartwell Domaine Notre-Dame résidence pour retraités,,,,,,,,,,,,,,,,,,819-282-8451,,,,http://chartwell.com/Retirement-Homes/Chartwell-Domaine-Notre-Dame-résidence-pour-retraités,,,,,,,,,,,,Retirement Home,,,,,39 Amherst St,,,Gatineau,,,QC,,J8Y 2W1,Canada,45.4339869,-75.7345711,,True
Chartwell Notre-Dame Victoriaville résidence pour retraités,,,,,,,,,,,,,,,,,,819-809-0520,,,,http://chartwell.com/Retirement-Homes/Chartwell-Notre-Dame-Victoriaville-résidence-pour-retraités,,,,,,,,,,,,Retirement Home,,,,,222 Notre-Dame West Rd,,,Victoriaville,,,QC,,G6P 1R9,Canada,46.0583492,-71.9633569,,True
Chartwell Oasis Saint-Jean résidence pour retraités,,,,,,,,,,,,,,,,,,514-940-3530,,,,http://chartwell.com/Retirement-Homes/Chartwell-Oasis-Saint-Jean-résidence-pour-retraités,,,,,,,,,,,,Retirement Home,,,,,1050 Stéfoni Rd,,,Saint-Jean-sur-Richelieu,,,QC,,J3A 1T5,Canada,45.3377451,-73.28057059999999,Normandie,True
