name,contact_first_name,contact_last_name,contact_name,email,contact_email,fax,mailing_address_line_1,mailing_address_line_2,mailing_city,mailing_contact_first_name,mailing_contact_last_name,mailing_contact_name,mailing_country,mailing_county,mailing_postalcode,mailing_province,provider_name,primary_phone,secondary_phone,twitter,website,source,contact_occupation,dsgne_first_name,dsgne_last_name,admin_name,co_address_line_1,co_address_line_2,co_company,co_city,co_postalcode,co_province,ombudsman_phone,typeofcare,typeofcare2,low_high_rate,low_rate,high_rate,address_line_1,address_line_2,address_directions,city,municipality,region,province,state_id,postal_code,country,latitude,longitude,neighborhood,addr_valid
CENTRE DE SERVICES-RESEAU SERVICES CHALEUR,,,LISE BOULANGER,,,,,,,,,,,,,,,(506) 542-9406,,,,,,,,,,,,,,,,,Special Care Home,,,,68 RUE BOUDREAU,,,BERESFORD,,CHALEUR,NB,,E8K 2G2,Canada,47.7044714,-65.7062406,,False
FOYER ALVINA ALLAIN,,,ALVINA ALLAIN,,,,,,,,,,,,,,,(506) 548-3229,,,,,,,,,,,,,,,,,Special Care Home,,,,2 CHAMBERLAIN SETTLEMENT Rd,,,CHAMBERLAIN SETTLEMENT,,CHALEUR,NB,,E2A 6G4,Canada,47.5761225,-65.6415702,,True
FOYER CHEZ ANNIE  DE ROBERTVILLE,,,ANNIE FRENETTE ET STEVEN SISK,,,,,,,,,,,,,,,(506) 430-5600,,,,,,,,,,,,,,,,,Special Care Home,,,,741 ROUTE 322,,,ROBERTVILLE,,CHALEUR,NB,,E8K 2T6,Canada,47.7110253,-65.7060032,,True
FOYER CHEZ ANNIE FRENETTE,,,ANNIE FRENETTE ET STEVEN SISK,,,,,,,,,,,,,,,(506) 350-5600,,,,,,,,,,,,,,,,,Special Care Home,,,,60 MURRAY Ave,,,BATHURST,,CHALEUR,NB,,E2A 1T7,Canada,47.615466,-65.64836,,True
FOYER CHEZ JENNY INC.,,,ARSENEAU JENNY,,,,,,,,,,,,,,,(506) 430-4300,,,,,,,,,,,,,,,,,Special Care Home,,,,14 CHAMPLAIN St,,,PETIT-ROCHER,,CHALEUR,NB,,E8J 1R7,Canada,47.7844582,-65.7205827,,True
FOYER CHEZ LINE MORRISON,,,LINE MORRISON,,,,,,,,,,,,,,,(506) 542-7161,,,,,,,,,,,,,,,,,Special Care Home,,,,40 STREET DOUCET,,,BERESFORD,,CHALEUR,NB,,E8K 0A9,Canada,47.7031105,-65.7005281,,False
FOYER CHEZ MONICK,,,MONIQUE BOUCHARD,,,,,,,,,,,,,,,(506) 783-3050,,,,,,,,,,,,,,,,,Special Care Home,,,,39 STREET PRINCIPALE,,,PETIT-ROCHER,,CHALEUR,NB,,E8J 1L9,Canada,47.7860126,-65.7197472,,False
FOYER DENISE AUBIE,,,DENISE AUBIE,,,,,,,,,,,,,,,(506) 548-4705,,,,,,,,,,,,,,,,,Special Care Home,,,,85 RUE COUTURE,,,BATHURST,,CHALEUR,NB,,E2A 2E8,Canada,47.6091131,-65.6265201,,False
FOYER LA BERCEUSE,,,MONIQUE GUIGNARD,,,,,,,,,,,,,,,(506) 783-4614,,,,,,,,,,,,,,,,,Special Care Home,,,,0 CHEMIN LAPLANTE,,,LAPLANTE,,CHALEUR,NB,,E8J 1Z4,Canada,47.7691577,-65.7742704,,False
FOYER LISE & JACQUES ROY,,,LISE ROY,,,,,,,,,,,,,,,(506) 783-2878,,,,,,,,,,,,,,,,,Special Care Home,,,,34 RUE PRINCIPALE,,,POINTE-VERTE,,CHALEUR,NB,,E8J 3A1,Canada,47.8720869,-65.7930756,,False
FOYER LUCIE SAVOIE,,,LUCIE SAVOIE,,,,,,,,,,,,,,,(506) 725-5583,,,,,,,,,,,,,,,,,Special Care Home,,,,003 ROUTE 134,,,ALLARDVILLE,,CHALEUR,NB,,E8L 1S3,Canada,47.474508,-65.492277,,True
FOYER MARIE-MAY PITRE,,,MARIE-MAY PITRE,,,,,,,,,,,,,,,(506) 548-5343,,,,,,,,,,,,,,,,,Special Care Home,,,,22 STREET MAPLE ST,APT 1,,BATHURST,,CHALEUR,NB,,E2A 1J2,Canada,47.6410251,-65.7324314,,False
FOYER NOTRE-DAME DU SOURIRE (2015) INC.,,,REJEANNE DUGUAY-DAVID,,,,,,,,,,,,,,,(506) 725-5493,,,,,,,,,,,,,,,,,Special Care Home,,,,65 ROUTE 160,,,ALLARVILLE,,CHALEUR,NB,,E8L 1J9,Canada,47.4747771,-65.4924606,,True
FOYER ROBICHAUD LA MAISON BLANCHE (2016) LTEE,,,MELISSA OR DINO SIMONE,,,,,,,,,,,,,,,(506) 548-3773,,,,,,,,,,,,,,,,,Special Care Home,,,,75 ARCHIBALD St,,,BATHURST,,CHALEUR,NB,,E2A 4E1,Canada,47.633949,-65.6740999,,True
L & B RESIDENCE INC,,,LUCILLE LAVIOLETTE,,,,,,,,,,,,,,,(506) 226-0436,,,,,,,,,,,,,,,,,Special Care Home,,,,20 ST-ANNE St,,,BATHURST,,CHALEUR,NB,,E2A 2N4,Canada,47.6261151,-65.6920122,,True
MAISON ROY-DUGUAY,,,NADIA ROY-DUGUAY,,,,,,,,,,,,,,,(506) 783-3524,,,,,,,,,,,,,,,,,Special Care Home,,,,5 STREET LAPLANTE NORD,,,LAPLANTE,,CHALEUR,NB,,E8J 2A1,Canada,47.7690965,-65.775123,,False
MANOIR BIENVEILLANCE INC.,,,MARCELLA HINTON,,,,,,,,,,,,,,,(506) 542-2094,,,,,,,,,,,,,,,,,Special Care Home,,,,31 RUE DU PARC EST,,,BERESFORD,,CHALEUR,NB,,E8K 1V9,Canada,47.7404854,-65.7138067,,False
MANOIR BRISE DE L'OASIS,,,KEVIN ET LINDA VIENNEAU,,,,,,,,,,,,,,,(506) 547-1100,,,,,,,,,,,,,,,,,Special Care Home,,,,90 RUE UNION,,,BATHURST,,CHALEUR,NB,,E2A 1H4,Canada,47.6120219,-65.651224,,False
MANOIR DU ROCHER,,,ANNIK GUITARD,,,,,,,,,,,,,,,(506) 783-8879,,,,,,,,,,,,,,,,,Special Care Home,,,,72 RUE PRINCIPALE,,,PETIT-ROCHER,,CHALEUR,NB,,E8J 1N4,Canada,47.7860126,-65.7197472,,False
MANOIR OASIS DE LA BAIE,,,GUY TREMBLAY,,,,,,,,,,,,,,,(506) 548-3077,,,,,,,,,,,,,,,,,Special Care Home,,,,60 RUE QUEEN,,,BATHURST,,CHALEUR,NB,,E2A 2J7,Canada,47.6203004,-65.6576868,,False
MELANSON SPECIAL CARE HOME,,,MARY MELANSON,,,,,,,,,,,,,,,(506) 548-8546,,,,,,,,,,,,,,,,,Special Care Home,,,,15 ST PATRICK St,,,BATHURST,,CHALEUR,NB,,E2A 1C9,Canada,47.6173231,-65.649659,,True
RESIDENCE ARSENEAU LTEE,,,ERIC ARSENEAU,,,,,,,,,,,,,,,(506) 783-9009,,,,,,,,,,,,,,,,,Special Care Home,,,,30 PRINCIPALE St,,,POINTE-VERTE,,CHALEUR,NB,,E8J 2Z6,Canada,47.87226,-65.793338,,True
RESIDENCE CHEZ CHANTAL LTEE,,,CHANTAL LAVIGNE,,,,,,,,,,,,,,,(506) 542-9399,,,,,,,,,,,,,,,,,Special Care Home,,,,89 RUE SUNSET,,,BERESFORD,,CHALEUR,NB,,E8K 2G5,Canada,47.7023588,-65.7066035,,False
RÉSIDENCE CHEZ SYLVIE INC.,,,SYLVIE LAGACÉ,,,,,,,,,,,,,,,(506) 543-2975,,,,,,,,,,,,,,,,,Special Care Home,,,,62 PRINCIPALE St,,,PETIT-ROCHER,,CHALEUR,NB,,E8J 1N8,Canada,47.7860126,-65.7197472,,True
RESIDENCE D.M. BOUDREAU (2013) LIMITEE,,,RACHEL CORMIER,,,,,,,,,,,,,,,(506) 548-5538,,,,,,,,,,,,,,,,,Special Care Home,,,,80 COLLEGE St,,,BATHURST,,CHALEUR,NB,,E2A 2T6,Canada,47.6228375,-65.6719498,,True
RESIDENCE LISA GUIGNARD,,,LISA GUIGNARD,,,,,,,,,,,,,,,(506) 548-9423,,,,,,,,,,,,,,,,,Special Care Home,,,,15 RUE CHALEUR,,,BATHURST,,CHALEUR,NB,,E2A 3H9,Canada,47.6311659,-65.6711695,,False
RESIDENCE MCGRAW LTEE,,,NATHALIE BLANCHARD,,,,,,,,,,,,,,,(506) 546-2483,,,,,,,,,,,,,,,,,Special Care Home,,,,60 RIVERSIDE Dr,,,BATHURST,,CHALEUR,NB,,E2A 2M6,Canada,47.6140127,-65.668762,,True
RESIDENCE ROSS,,,SONIA ANNE ROSS,,,,,,,,,,,,,,,(506) 783-8847,,,,,,,,,,,,,,,,,Special Care Home,,,,50 RUE JEAN-LOUIS,,,TREMBLAY,,CHALEUR,NB,,E8J 3B7,Canada,47.7478397,-65.7591231,,False
RESIDENCE ROSS-BATHURST,,,SONIA ANNE ROSS,,,,,,,,,,,,,,,(506) 350-1772,,,,,,,,,,,,,,,,,Special Care Home,,,,250 OCEAN RIDGE St,,,BATHURST,,CHALEUR,NB,,E2A 4R7,Canada,47.638297,-65.673973,,True
RESIDENCE STEVER,,,CLAUDIA STEVER,,,,,,,,,,,,,,,(506) 430-0515,,,,,,,,,,,,,,,,,Special Care Home,,,,143 ALCIDA Rd,,,ALCIDA,,CHALEUR,NB,,E8J 2C2,Canada,47.762164,-65.824335,,True
RESIDENCE VERO,,,SUSIE PITRE,,,,,,,,,,,,,,,(506) 783-9115,,,,,,,,,,,,,,,,,Special Care Home,,,,224 ROAD ALCIDA,,,ALCIDA,,CHALEUR,NB,,E8J 2B4,Canada,47.762164,-65.824335,,False
RESIDENCE VIENNEAU INC.,,,KEVIN VIENNEAU,,,,,,,,,,,,,,,(506) 544-5185,,,,,,,,,,,,,,,,,Special Care Home,,,,00 RUE CHALEUR,,,BATHURST,,CHALEUR,NB,,E2A 3J2,Canada,47.6311659,-65.6711695,,False
SOUTHERN COMFORT VILLA,,,LILLIAN DRAPEAU,,,,,,,,,,,,,,,(506) 350-9000,,,,,,,,,,,,,,,,,Special Care Home,,,,394 KING Ave,,,BATHURST,,CHALEUR,NB,,E2A 1S8,Canada,47.6181806,-65.653038,,True
ANNE DIONNE,,,ANNE DIONNE,,,,,,,,,,,,,,,(506) 445-2755,,,,,,,,,,,,,,,,,Special Care Home,,,,RUE ST JOSEPH,,,ST-ANNE -DE MADAWASKA,,EDMUNDSTON,NB,,E7E1L1,Canada,47.2489459,-68.0288967,,False
AUBERGE DES GOUVERNEURS,,,MICHAEL KIRBY,,,,,,,,,,,,,,,(506) 735-5727,,,,,,,,,,,,,,,,,Special Care Home,,,,3 RUE DES GOUVERNEURS,,,EDMUNDSTON,,EDMUNDSTON,NB,,E3V 4E8,Canada,47.3784378,-68.310548,,False
AUBERGE LE MONTAGNARD,,,MICHAEL KIRBY,,,,,,,,,,,,,,,(506) 737-4120,,,,,,,,,,,,,,,,,Special Care Home,,,,5 RUE LE MONTAGNARD,,,EDMUNDSTON,,EDMUNDSTON,NB,,E3V 0B2,Canada,47.3861508,-68.3145052,,False
BARD SOLANGE,,,SOLANGE BARD,,,,,,,,,,,,,,,(506) 258-1994,,,,,,,,,,,,,,,,,Special Care Home,,,,RUE DES ORMES,,,BAKER BROOK,,EDMUNDSTON,NB,,E7A 1T4,Canada,47.3118749,-68.5139394,,False
BERUBE DANNY ET SYLVIE,,,SYLVIE BERUBE,,,,,,,,,,,,,,,(506) 992-2646,,,,,,,,,,,,,,,,,Special Care Home,,,,355 ROUTE 205,,,CLAIR,,EDMUNDSTON,NB,,E7A 1Y1,Canada,47.2534292,-68.6052922,,True
BLAQUIERE PARISE,,,PARISE BLAQUIERE,,,,,,,,,,,,,,,(506) 735-7715,,,,,,,,,,,,,,,,,Special Care Home,,,,4 RUE PRINCIPALE,,,SAINT-JACQUES,,EDMUNDSTON,NB,,E7B 1V7,Canada,47.437359,-68.3921592,,False
BOUCHARD DIANE,,,DIANE BOUCHARD,,,,,,,,,,,,,,,(506) 992-2566,,,,,,,,,,,,,,,,,Special Care Home,,,,9 CHEMIN LEVASSEUR,,,CLAIR,,EDMUNDSTON,NB,,E7A 1Y9,Canada,47.2441371,-68.6511237,,False
CARON YVON,,,HUGUETTE CARON,,,,,,,,,,,,,,,(506) 473-5235,,,,,,,,,,,,,,,,,Special Care Home,,,,01 AVENUE 2E,,,GRAND-SAULT,,EDMUNDSTON,NB,,E3Z 1A2,Canada,47.0713165,-67.7526172,,False
CHEZ SOI,,,ALLEN BOUCHARD,,,,,,,,,,,,,,,(506) 263-5542,,,,,,,,,,,,,,,,,Special Care Home,,,,61 RUE PRINCIPALE,,,SAINT-BASILE,,EDMUNDSTON,NB,,E7C 1K9,Canada,47.3544066,-68.2181699,,False
CORMIER THERESE,,,THERESE CORMIER,,,,,,,,,,,,,,,(506) 473-4434,,,,,,,,,,,,,,,,,Special Care Home,,,,35 CHEMIN PRICE,,,DRUMMOND,,EDMUNDSTON,NB,,E3Y 2A7,Canada,47.0500042,-67.7150939,,False
COUTURIER DORIANNE,,,DORIANNE COUTURIER,,,,,,,,,,,,,,,(506) 263-8713,,,,,,,,,,,,,,,,,Special Care Home,,,,68 RUE RINGUETTE,,,SAINT-BASILE,,EDMUNDSTON,NB,,E7C 2G6,Canada,47.3443098,-68.2058619,,False
CYR KARINE,,,KARINE CYR,,,,,,,,,,,,,,,(506) 423-6910,,,,,,,,,,,,,,,,,Special Care Home,,,,308 ROUTE 17,,,SAINT-LEONARD PARENT,,EDMUNDSTON,NB,,E7E 2N8,Canada,47.148455,-67.903532,,True
DENISE LEVESQUE,,,DENISE LEVESQUE,,,,,,,,,,,,,,,(506) 473-5756,,,,,,,,,,,,,,,,,Special Care Home,,,,10 RUE LEVESQUE,,,SAINT-ANDRE,,EDMUNDSTON,NB,,E3Y 3C7,Canada,47.0862061,-67.7572208,,False
FOYER A. RINGUETTE INC.,,,LISE CYR ET LINDA RINGUETTE,,,,,,,,,,,,,,,(506) 445-2168,,,,,,,,,,,,,,,,,Special Care Home,,,,73 RUE PRINCIPALE,,,SAINTE-ANNE-DE-MADAWASKA,,EDMUNDSTON,NB,,E7E 1B1,Canada,47.2452201,-68.0259584,,False
FOYER BERTIN BOSSE,,,BERTIN BOSSE,,,,,,,,,,,,,,,(506) 739-8202,,,,,,,,,,,,,,,,,Special Care Home,,,,30 RUE PRINCIPAL,,,ST-JACQUES,,EDMUNDSTON,NB,,E7B1V9,Canada,47.437359,-68.3921592,,False
FOYER BRENDA PELLETIER,,,BRENDA PELLETIER,,,,,,,,,,,,,,,(506) 473-2143,,,,,,,,,,,,,,,,,Special Care Home,,,,9 CHEMIN DESPRES,,,SAINT-ANDRE,,EDMUNDSTON,NB,,E3Y 2Y8,Canada,47.0792191,-67.787748,,False
FOYER CHEZ MÉLANIE,,,MELANIE MICHAUD,,,,,,,,,,,,,,,(506) 735-4418,,,,,,,,,,,,,,,,,Special Care Home,,,,1 RUE DU PARC,,,SAINT-BASILE,,EDMUNDSTON,NB,,E7C 1R9,Canada,47.365467,-68.274096,,False
FOYER CINDY ROY,,,CINDY ROY,,,,,,,,,,,,,,,(506) 473-2337,,,,,,,,,,,,,,,,,Special Care Home,,,,94 CHEMIN TOBIQUE,,,GRAND-SAULT,,EDMUNDSTON,NB,,E3Y 1E9,Canada,47.0510948,-67.7325749,,False
FOYER DENISE PAGE,,,DENISE PAGE,,,,,,,,,,,,,,,(506) 473-2735,,,,,,,,,,,,,,,,,Special Care Home,,,,07 RUE STEPHEN,,,GRAND-SAULT,,EDMUNDSTON,NB,,E3Z 3B2,Canada,47.0403939,-67.7483513,,False
FOYER JACINTHE LECLERC,,,JACINTHE LECLERC,,,,,,,,,,,,,,,(506) 473-5194,,,,,,,,,,,,,,,,,Special Care Home,,,,13 RUE VICTORIA,,,GRAND-SAULT,,EDMUNDSTON,NB,,E3Z 3C3,Canada,47.0460633,-67.734402,,False
FOYER L & L LAFORGE NO 2,,,LISA ET LUC LAFORGE,,,,,,,,,,,,,,,(506) 475-8846,,,,,,,,,,,,,,,,,Special Care Home,,,,78 AVENUE 3E,,,GRAND-SAULT,,EDMUNDSTON,NB,,E3Z 1A4,Canada,47.0721516,-67.7517986,,False
FOYER L'OASIS DE PAIX,,,JANIE BOSSÉ-MORIN,,,,,,,,,,,,,,,(506) 263-8511,,,,,,,,,,,,,,,,,Special Care Home,,,,RUE MONTREUIL,,,RIVIERE-VERTE,,EDMUNDSTON,NB,,E7C2S6,Canada,47.3235162,-68.149731,,False
FOYER MARC MICHAUD,,,MARC MICHAUD,,,,,,,,,,,,,,,(506) 473-5457,,,,,,,,,,,,,,,,,Special Care Home,,,,5 RUE BELAIR,,,GRAND-SAULT,,EDMUNDSTON,NB,,E3Z 3E9,Canada,47.0538485,-67.7207703,,False
FOYER MARIETTE LADOUCEUR,,,MARIETTE LADOUCEUR,,,,,,,,,,,,,,,(506) 473-5763,,,,,,,,,,,,,,,,,Special Care Home,,,,6 CHEMIN DESJARDINS,,,SAINT-ANDRE,,EDMUNDSTON,NB,,E3Y 3A2,Canada,47.0835567,-67.7580531,,False
FOYER SONIA LISA INC,,,SONIA THIBODEAU,,,,,,,,,,,,,,,(506) 258-3322,,,,,,,,,,,,,,,,,Special Care Home,,,,741 RUE PRINCIPALE,,,BAKER BROOK,,EDMUNDSTON,NB,,E7A 2A5,Canada,47.3030616,-68.4986418,,False
FOYER ST JACQUES,,,LINE LEMIEUX SIROIS,,,,,,,,,,,,,,,(506) 735-5765,,,,,,,,,,,,,,,,,Special Care Home,,,,RUE DEMERS,,,ST JACQUES,,EDMUNDSTON,NB,,E7B 1E8,Canada,47.4271025,-68.3827311,,False
FOYER SYLVIE AUBUT,,,,,,,,,,,,,,,,,,(506) 473-8101,,,,,,,,,,,,,,,,,Special Care Home,,,,5830 ROUTE 105,,,DSL DE DRUMMOND,,EDMUNDSTON,NB,,E3Y 2H6,Canada,47.029704,-67.7259857,,True
GRONDIN RAYMONDE,,,RAYMONDE GRONDIN,,,,,,,,,,,,,,,(506) 735-4970,,,,,,,,,,,,,,,,,Special Care Home,,,,6 CHEMIN RIVIERE-A-LA-TRUITE,,,SAINT-JACQUES,,EDMUNDSTON,NB,,E7B 1Y5,Canada,47.427491,-68.3853249,,False
LE PAVILLON LE ROYER,,,MME MANON SOUCY,,,,,,,,,,,,,,,(506) 263-9023,,,,,,,,,,,,,,,,,Special Care Home,,,,29 RUE PRINCIPALE,,,ST BASILE,,EDMUNDSTON,NB,,E7C1J2,Canada,47.3535413,-68.2171294,,False
LECLERC PAGE GINETTE A,,,GINETTE A PAGE LECLERC,,,,,,,,,,,,,,,(506) 473-3305,,,,,,,,,,,,,,,,,Special Care Home,,,,351 CHEMIN TOBIQUE,,,DRUMMOND,,EDMUNDSTON,NB,,E3Y 2P4,Canada,47.0514874,-67.7235508,,False
MAISON BELLE VUE,,,GUY LONG,,,,,,,,,,,,,,,(506) 739-3663,,,,,,,,,,,,,,,,,Special Care Home,,,,AVENUE BATEMAN Ave,,,EDMUNDSTON,,EDMUNDSTON,NB,,E3V4A9,Canada,47.3777343,-68.3140198,,False
MAISON LEMIEUX,,,MICHAEL KIRBY,,,,,,,,,,,,,,,(506) 735-8098,,,,,,,,,,,,,,,,,Special Care Home,,,,5 RUE DES GOUVERNEURS,,,EDMUNDSTON,,EDMUNDSTON,NB,,E3V 4E8,Canada,47.3784378,-68.310548,,False
MANOIR ANNE LEMIEUX,,,MICHAEL KIRBY,,,,,,,,,,,,,,,(506) 739-0103,,,,,,,,,,,,,,,,,Special Care Home,,,,5 RUE DES GOUVERNEURS,,,EDMUNDSTON,,EDMUNDSTON,NB,,E3V 4E8,Canada,47.3784378,-68.310548,,False
MANOIR BELLE VUE INC,,,GUY LONG,,,,,,,,,,,,,,,(506) 739-3663,,,,,,,,,,,,,,,,,Special Care Home,,,,AVENUE BATEMAN Ave,,,EDMUNDSTON,,EDMUNDSTON,NB,,E3V4A9,Canada,47.3777343,-68.3140198,,False
MICHAUD LYNN,,,LYNN MICHAUD,,,,,,,,,,,,,,,(506) 473-6041,,,,,,,,,,,,,,,,,Special Care Home,,,,98 AVENUE 2E,,,GRAND-SAULT,,EDMUNDSTON,NB,,E3Z 1A4,Canada,47.0724462,-67.7531778,,False
OUELLETTE MONIQUE,,,MONIQUE OUELLETTE,,,,,,,,,,,,,,,(506) 473-5307,,,,,,,,,,,,,,,,,Special Care Home,,,,56 RUE ANDRE SUD,,,SAINT-ANDRE,,EDMUNDSTON,NB,,E3Y 2V9,Canada,47.101047,-67.759266,,False
PAULETTE ALBERT,,,PAULETTE ALBERT,,,,,,,,,,,,,,,(506) 992-2330,,,,,,,,,,,,,,,,,Special Care Home,,,,85 CHEMIN CHEMIN DE L'ÉGLISE,,,LAC BAKER,,EDMUNDSTON,NB,,E7A 1L1,Canada,47.3378206,-68.6388703,,False
PAVILLON BELLE VUE,,,GUY LONG,,,,,,,,,,,,,,,(506) 739-3663,,,,,,,,,,,,,,,,,Special Care Home,,,,AVENUE AVENUE BATEMAN,,,EDMUNDSTON,,EDMUNDSTON,NB,,E3V4A9,Canada,47.3777343,-68.3140198,,False
RÉSIDENCE DU BONHEUR,,,APRIL ROUSSIE,,,,,,,,,,,,,,,(506) 473-7272,,,,,,,,,,,,,,,,,Special Care Home,,,,89 CHEMIN OLD ROUTE 2,,,DSL DE SAINT-ANDRE,,EDMUNDSTON,NB,,E3Y 3S5,Canada,47.1000228,-67.76987930000001,,True
RESIDENCE ROLANDE LONG,,,ROLANDE LONG,,,,,,,,,,,,,,,(506) 735-4276,,,,,,,,,,,,,,,,,Special Care Home,,,,20 CHEMIN CANADA,,,EDMUNDSTON,,EDMUNDSTON,NB,,E3V 1W4,Canada,47.3625704,-68.3256441,,False
RESIDENCES ISABELLE,,,ISABELLE OUELLET,,,,,,,,,,,,,,,(506) 736-0891,,,,,,,,,,,,,,,,,Special Care Home,,,,17 AVENUE 39E,,,EDMUNDSTON,,EDMUNDSTON,NB,,E3V 2X4,Canada,47.371965,-68.3251669,,False
THERIAULT DENISE,,,DENISE THERIAULT,,,,,,,,,,,,,,,(506) 473-5772,,,,,,,,,,,,,,,,,Special Care Home,,,,15 RUE LAFRANCE,,,GRAND SAULT,,EDMUNDSTON,NB,,E3Z 1B1,Canada,47.0447906,-67.7627225,,False
ALL NEEDS SPECIAL CARE HOME,,,,,,,,,,,,,,,,,,(506) 459-2186,,,,,,,,,,,,,,,,,Special Care Home,,,,52 DOUGLAS Ave,,,FREDERICTON,,FREDERICTON,NB,,E3A 2N9,Canada,45.972971,-66.643131,,True
ALLEIRA FREDERICTON,,,KATHY ARSENEAU,,,,,,,,,,,,,,,(506) 459-2273,,,,,,,,,,,,,,,,,Special Care Home,,,,1 HAROLD DOHERTY Ct,,,FREDERICTON,,FREDERICTON,NB,,E3A 5P2,Canada,45.9812552,-66.614485,,True
B&T COUNTRY HAVEN INC,,,TARA BEALE,,,,,,,,,,,,,,,(506) 488-2017,,,,,,,,,,,,,,,,,Special Care Home,,,,816 ROUTE RTE 105,,,MILL COVE,,FREDERICTON,NB,,E4C 3A6,Canada,45.882497,-66.004704,,True
BARRIE'S SPECIAL CARE HOME LTD,,,RENEE BOWERING,,,,,,,,,,,,,,,(506) 454-8177,,,,,,,,,,,,,,,,,Special Care Home,,,,459 ROUTE 101,,,NASONWORTH,,FREDERICTON,NB,,E3C 2C8,Canada,45.839452,-66.679761,,True
BARTLETT GARDENS CARE HOME,,,WENDY SYMONDS,,,,,,,,,,,,,,,(506) 206-1111,,,,,,,,,,,,,,,,,Special Care Home,,,,4 CRAIG St,,,RICHIBUCTO ROAD,,FREDERICTON,NB,,E3A6S9,Canada,45.9621495,-66.5800049,,True
BIRCH HAVEN SPECIAL CARE HOME,,,DARLENE OR BRIAN MURRAY,,,,,,,,,,,,,,,(506) 392-1801,,,,,,,,,,,,,,,,,Special Care Home,,,,263 ROUTE 560,,,LAKEVILLE,,FREDERICTON,NB,,E7K 1T5,Canada,46.3372822,-67.68596649999999,,True
BOONE HOME,,,LORRAINE BOONE,,,,,,,,,,,,,,,(506) 277-6328,,,,,,,,,,,,,,,,,Special Care Home,,,,MCGANN Rd,,,LIMESTONE,,FREDERICTON,NB,,E7N 2S9,Canada,46.0444677,-67.6646815,,False
BRUNSWICK HALL,,,BOWEN PAMELA,,,,,,,,,,,,,,,(506) 460-8803,,,,,,,,,,,,,,,,,Special Care Home,,,,5 PATIENCE Ln,,,FREDERICTON,,FREDERICTON,NB,,E3B 0K4,Canada,45.9543287,-66.6968322,,True
BURPEE RESIDENTIAL CENTER,,,LELAH BURPEE,,,,,,,,,,,,,,,(506) 328-6827,,,,,,,,,,,,,,,,,Special Care Home,,,,45 ROUTE 560,,,JACKSONVILLE,,FREDERICTON,NB,,E7M 3H4,Canada,46.2,-67.61666699999999,,True
COLFORDS SENIOR CARE,,,WILLIAMS ELISHA,,,,,,,,,,,,,,,(506) 459-7494,,,,,,,,,,,,,,,,,Special Care Home,,,,126 ROUTE ROUTE 148,,,NASHWAAK VILLAGE,,FREDERICTON,NB,,E6C 1L2,Canada,46.09567200000001,-66.611553,,True
COZY INN SPECIAL CARE HOME,,,COLLEEN BROSNAN,,,,,,,,,,,,,,,(506) 463-6244,,,,,,,,,,,,,,,,,Special Care Home,,,,200 CENTRAL HAINESVILLE Rd,,,UPPER HAINESVILLE,,FREDERICTON,NB,,E6E 1K1,Canada,46.0872195,-67.0199355,,True
CRESCENT GARDEN GUEST HOME,,,DALE SHAW,,,,,,,,,,,,,,,(506) 375-9113,,,,,,,,,,,,,,,,,Special Care Home,,,,1 CRESCENT GARDEN,,,HARTLAND,,FREDERICTON,NB,,E7P 1L9,Canada,46.3021045,-67.5257493,,False
CURTIS SPECIAL CARE HOME,,,MICHELLE CURTIS,,,,,,,,,,,,,,,(506) 450-3957,,,,,,,,,,,,,,,,,Special Care Home,,,,73 CARLISLE Rd,,,DOUGLAS,,FREDERICTON,NB,,E3G 7M7,Canada,45.9829469,-66.7437156,,True
DIANE'S VILLA SPECIAL CARE HOME LTD.,,,DIANE MURPHY,,,,,,,,,,,,,,,(506) 356-8327,,,,,,,,,,,,,,,,,Special Care Home,,,,587 ROUTE 109,,,THREE BROOKS,,FREDERICTON,NB,,E7G 2W6,Canada,45.7345003,-65.5220986,,True
DICKINSON RESIDENCE,,,HAROLD DICKINSON,,,,,,,,,,,,,,,(506) 784-2630,,,,,,,,,,,,,,,,,Special Care Home,,,,1 CLIFFORD St,,,MCADAM,,FREDERICTON,NB,,E6J 1J7,Canada,45.5954158,-67.3253827,,True
DONNELLY HOME,,,TANYA DONNELLY,,,,,,,,,,,,,,,(506) 472-1504,,,,,,,,,,,,,,,,,Special Care Home,,,,9 JAFFREY St,,,FREDERICTON,,FREDERICTON,NB,,E3A 2R2,Canada,45.9711594,-66.6366649,,True
DOWNING PLACE,,,SAMANTHA DAVENPORT,,,,,,,,,,,,,,,(506) 452-1996,,,,,,,,,,,,,,,,,Special Care Home,,,,1 DOWNING St,,,FREDERICTON,,FREDERICTON,NB,,E3A4M8,Canada,45.9791661,-66.5854163,,True
DOW'S SPECIAL CARE HOME,,,CARA ENGLISH,,,,,,,,,,,,,,,(506) 279-2963,,,,,,,,,,,,,,,,,Special Care Home,,,,09 SCOTT SIDING Rd,,,SCOTT SIDING,,FREDERICTON,NB,,E6H 1W3,Canada,45.915564,-67.540589,,True
EDEN'S GARDEN SPECIAL CARE HOME LTD,,,RENEE BOWERING,,,,,,,,,,,,,,,(506) 367-3342,,,,,,,,,,,,,,,,,Special Care Home,,,,001 ROUTE 620,,,TAY CREEK,,FREDERICTON,NB,,E6B 1J7,Canada,46.230579,-66.814374,,True
EMILY'S SPECIAL CARE HOME,,,EMILY PELKEY,,,,,,,,,,,,,,,(506) 273-2190,,,,,,,,,,,,,,,,,Special Care Home,,,,4 TITUS Dr,,,PERTH-ANDOVER,,FREDERICTON,NB,,E7H 5B1,Canada,46.7374204,-67.7117766,,True
GAGETOWN SPECIAL CARE HOME (2007) LTD,,,MARTY HOOD,,,,,,,,,,,,,,,(506) 488-2620,,,,,,,,,,,,,,,,,Special Care Home,,,,42 TILLEY Rd,,,GAGETOWN,,FREDERICTON,NB,,E5M 1H6,Canada,45.7820386,-66.145542,,True
HANWELL SPECIAL CARE & SENIORS HOME,,,KARLA ROBERTS,,,,,,,,,,,,,,,(506) 451-9814,,,,,,,,,,,,,,,,,Special Care Home,,,,434 HIGHWAY 640 Hwy,,,HANWELL,,FREDERICTON,NB,,E3E 2C7,Canada,45.925603,-66.722381,,True
HEARNE STREET RESIDENCE,,,SMITH MELINDA,,,,,,,,,,,,,,,(506) 450-0909,,,,,,,,,,,,,,,,,Special Care Home,,,,10 HEARNE St,,,FREDERICTON,,FREDERICTON,NB,,E3B 6M3,Canada,45.9220417,-66.6217929,Southwood,True
HILLSIDE LODGE,,,SARAH JENKINS,,,,,,,,,,,,,,,(506) 450-7600,,,,,,,,,,,,,,,,,Special Care Home,,,,55 TILLEY Dr,,,FREDERICTON,,FREDERICTON,NB,,E3B 5L2,Canada,45.921662,-66.6286158,Southwood,True
HILLSLEY CARE HOME,,,GILLIES  GLENNA,,,,,,,,,,,,,,,(506) 457-1953,,,,,,,,,,,,,,,,,Special Care Home,,,,34 DOBIE St,,,FREDERICTON,,FREDERICTON,NB,,E3A 2Z4,Canada,45.96621,-66.6243445,,True
KEETCH'S SPECIAL CARE HOME,,,SHERRY KEETCH,,,,,,,,,,,,,,,(506) 488-3319,,,,,,,,,,,,,,,,,Special Care Home,,,,4 LOCKWOOD Rd,,,MILL COVE,,FREDERICTON,NB,,E4C 3E2,Canada,45.8755267,-66.0088128,,True
KOZE CORNER SPECIAL CARE HOME,,,ADA SHARPE,,,,,,,,,,,,,,,(506) 575-2902,,,,,,,,,,,,,,,,,Special Care Home,,,,92 ROUTE 605,,,TEMPERANCE VALE,,FREDERICTON,NB,,E6G 2C4,Canada,46.063059,-67.24795390000001,,True
LANG LODGE GRAFTON,,,LYDIA LANG,,,,,,,,,,,,,,,(506) 328-4699,,,,,,,,,,,,,,,,,Special Care Home,,,,495 ROUTE 585,,,GRAFTON,,FREDERICTON,NB,,E7N 1H7,Canada,46.147661,-67.56334199999999,,True
LANSDOWNE SPECIAL CARE HOME,,,LORRAINE THOMAS,,,,,,,,,,,,,,,(506) 375-4229,,,,,,,,,,,,,,,,,Special Care Home,,,,56 MELVILLE Rd,,,LANSDOWNE,,FREDERICTON,NB,,E7L 3W5,Canada,46.397641,-67.511838,,True
LASKEY HOME,,,CATHY LASKEY,,,,,,,,,,,,,,,(506) 328-3422,,,,,,,,,,,,,,,,,Special Care Home,,,,95 HOULTON Rd,,,WOODSTOCK,,FREDERICTON,NB,,E7M 6B7,Canada,46.141131,-67.5804991,,True
LOHNES SPECIAL CARE HOME,,,FRANCES LOHNES,,,,,,,,,,,,,,,(506) 455-4744,,,,,,,,,,,,,,,,,Special Care Home,,,,34 SMYTHE St,,,FREDERICTON,,FREDERICTON,NB,,E3B 3C8,Canada,45.9639461,-66.6514016,Downtown,True
LOIS'S SPECIAL CARE,,,LOIS PELKEY,,,,,,,,,,,,,,,(506) 458-5718,,,,,,,,,,,,,,,,,Special Care Home,,,,4 EATON Ct,,,HANWELL,,FREDERICTON,NB,,E3C 1M7,Canada,45.9012727,-66.7505063,,True
MAPLE VILLA SPECIAL CARE HOME,,,CINDY BOONE,,,,,,,,,,,,,,,(506) 575-8260,,,,,,,,,,,,,,,,,Special Care Home,,,,88 ROUTE 605,,,TEMPERANCE VALE,,FREDERICTON,NB,,E6G 2C8,Canada,46.063059,-67.24795390000001,,True
MCKAY RESIDENCE,,,GLADYS MCKAY,,,,,,,,,,,,,,,(506) 472-8499,,,,,,,,,,,,,,,,,Special Care Home,,,,19 CANADA St,,,FREDERICTON,,FREDERICTON,NB,,E3A 4A3,Canada,45.9663165,-66.6027085,,True
MERCY'S RESIDENCE,,,,,,,,,,,,,,,,,,(506) 327-3394,,,,,,,,,,,,,,,,,Special Care Home,,,,4 KING St,,,MINTO,,FREDERICTON,NB,,E4B 3N5,Canada,46.0756426,-66.0732395,,True
MOSS RESIDENCE,,,JEAN MOSS,,,,,,,,,,,,,,,(506) 488-3132,,,,,,,,,,,,,,,,,Special Care Home,,,,0 LOCKWOOD Rd,,,MILLCOVE,,FREDERICTON,NB,,E4C 3E2,Canada,45.8755276,-66.0088135,,True
MOUNT HAVEN RESIDENTIAL HOME CARE INC.,,,CHRISTINA COX,,,,,,,,,,,,,,,(506) 246-1015,,,,,,,,,,,,,,,,,Special Care Home,,,,215 ROUTE ROUTE 107,,,GLASSVILLE,,FREDERICTON,NB,,E7L 1B9,Canada,46.480562,-67.42209500000001,,True
MOUNTAIN VIEW CARE HOME,,,ROWENA SMITH,,,,,,,,,,,,,,,(506) 273-9598,,,,,,,,,,,,,,,,,Special Care Home,,,,754 ROUTE 109,,,ARTHURETTE,,FREDERICTON,NB,,E7H 4A9,Canada,46.7861843,-67.4972748,,True
NEW BEGINNINGS,,,SUSAN OAKES,,,,,,,,,,,,,,,(506) 503-0289,,,,,,,,,,,,,,,,,Special Care Home,,,,300 ROUTE ROUTE 560,,,RIVER DE CHUTE,,FREDERICTON,NB,,E7H 4S8,Canada,46.593155,-67.7261429,,True
NEW BRUNSWICK COMMUNITY RESIDENCE,,,STEPHANIE BREWER,,,,,,,,,,,,,,,(506) 454-9580,,,,,,,,,,,,,,,,,Special Care Home,,,,30 NEEDHAM ST,,,FREDERICTON,,FREDERICTON,NB,,E3B 1P3,Canada,45.9575727,-66.6447486,,False
NORTH MINTO RESIDENCE LTD,,,PETITPAS MARIE,,,,,,,,,,,,,,,(506) 327-9000,,,,,,,,,,,,,,,,,Special Care Home,,,,81 NORTHSIDE Dr,,,MINTO,,FREDERICTON,NB,,E4B 3C7,Canada,46.1080886,-66.0545497,,True
OROMOCTO SPECIAL CARE HOME,,,MARTY HOOD,,,,,,,,,,,,,,,(506) 422-8600,,,,,,,,,,,,,,,,,Special Care Home,,,,25 MITCHELL St,,,OROMOCTO,,FREDERICTON,NB,,E2V 0H3,Canada,45.8491983,-66.48003,,True
PARADISE VILLA INC.,,,LOUISE PETITPAS,,,,,,,,,,,,,,,(506) 443-8000,,,,,,,,,,,,,,,,,Special Care Home,,,,65 CLEMENTS Dr,,,FREDERICTON,,FREDERICTON,NB,,E3G 7J2,Canada,45.9783235,-66.7289308,,True
PRINCE ALBERT LODGE,,,LOCKE PERRY,,,,,,,,,,,,,,,(506) 328-3184,,,,,,,,,,,,,,,,,Special Care Home,,,,12 PRINCE ALBERT St,,,WOODSTOCK,,FREDERICTON,NB,,E7M 2M1,Canada,46.1527479,-67.5752722,,True
PRINCE WILLIAM SPECIAL CARE HOME,,,KATHARINA GERE,,,,,,,,,,,,,,,(506) 366-3592,,,,,,,,,,,,,,,,,Special Care Home,,,,2 GIBSON SETTLEMENT Rd,,,PRINCE WILLIAM,,FREDERICTON,NB,,E6K 3J8,Canada,45.8768122,-67.0836513,,True
RIPPLES CARE HOME,,,CHERYL SMITH,,,,,,,,,,,,,,,(506) 385-2914,,,,,,,,,,,,,,,,,Special Care Home,,,,19 ROUTE 670,,,RIPPLES,,FREDERICTON,NB,,E4B 1E6,Canada,40.7347376,-73.9806777,,True
RIVERSIDE COURT RETIREMENT RESIDENCE INC.,,,RIVERSIDE COURT RETIREMENT RESIDENCE INC. BOARD,,,,,,,,,,,,,,,(506) 325-7200,,,,,,,,,,,,,,,,,Special Care Home,,,,70 MAIN St,,,WOODSTOCK,,FREDERICTON,NB,,E7M 0B2,Canada,45.9958918,-67.4862756,,True
RIVERVIEW COMFORT SPECIAL CARE HOME,,,WAYNE EATMON,,,,,,,,,,,,,,,(506) 488-9015,,,,,,,,,,,,,,,,,Special Care Home,,,,4 FRONT St,,,GAGETOWN,,FREDERICTON,NB,,E5M 1A1,Canada,45.7800716,-66.143306,,True
RUTH ANNA'S LADIES' HOME CARE,,,RUTH SAWLER,,,,,,,,,,,,,,,(506) 375-9193,,,,,,,,,,,,,,,,,Special Care Home,,,,7 CLARK St,,,HARTLAND,,FREDERICTON,NB,,E7P 1L3,Canada,46.3006805,-67.5181494,,True
SCOTT'S SPECIAL CARE HOME INC.,,,ANITA SCOTT,,,,,,,,,,,,,,,(506) 328-2997,,,,,,,,,,,,,,,,,Special Care Home,,,,095 ROUTE ROUTE 103,,,UPPER WOODSTOCK,,FREDERICTON,NB,,E7M 3C7,Canada,46.15026599999999,-67.6033952,,True
SHAW'S SPECIAL CARE HOME,,,TERRY OR VALERIE SLIPP,,,,,,,,,,,,,,,(506) 375-8865,,,,,,,,,,,,,,,,,Special Care Home,,,,08 ROUTE 590,,,WATERVILLE,,FREDERICTON,NB,,E7P 1C3,Canada,46.26796299999999,-67.58126500000002,,True
SOUTHSIDE SPECIAL NEEDS HOME INC,,,ANGELA RAMSAY,,,,,,,,,,,,,,,(506) 206-3588,,,,,,,,,,,,,,,,,Special Care Home,,,,56 BEACONSFIELD St,,,FREDERICTON,,FREDERICTON,NB,,E3B 5H2,Canada,45.9288854,-66.6425452,Skyline Acres,True
STEVENSON'S SPECIAL CARE HOME,,,KAREN CARSON,,,,,,,,,,,,,,,(506) 488-2017,,,,,,,,,,,,,,,,,Special Care Home,,,,816 ROUTE 105 Hwy,,,MILLCOVE,,FREDERICTON,NB,,E4C 3A8,Canada,45.8871115,-66.0081272,,True
SWANHAVEN ADULT RESIDENTIAL FACILITY LTD.,,,MALCOLM CAIRNS,,,,,,,,,,,,,,,(506) 366-2950,,,,,,,,,,,,,,,,,Special Care Home,,,,915 ROUTE 3,,,HARVEY STATION,,FREDERICTON,NB,,E6K 3K1,Canada,45.7297822,-67.0065717,,True
SWIM'S ADULT RESIDENTIAL FACILITY,,,EMILY SWIM,,,,,,,,,,,,,,,(506) 375-6613,,,,,,,,,,,,,,,,,Special Care Home,,,,48 WHITE Rd,,,AVONDALE,,FREDERICTON,NB,,E7K 1E5,Canada,46.3195516,-67.6802104,,True
THE GUARDIANS SPECIAL CARE HOME,,,VIRGINIA GERVAIS & LEONARD GERVAIS,,,,,,,,,,,,,,,(506) 458-8968,,,,,,,,,,,,,,,,,Special Care Home,,,,03 MACFARLANE St,,,FREDERICTON,,FREDERICTON,NB,,E3A 1V7,Canada,45.9805951,-66.6528276,,True
UNDERHILL RESIDENCE,,,MARION UNDERHILL,,,,,,,,,,,,,,,(506) 472-1762,,,,,,,,,,,,,,,,,Special Care Home,,,,18 LINDEN Cr,,,FREDERICTON,,FREDERICTON,NB,,E3A 4Z9,Canada,45.980657,-66.6427354,,True
VICTORIA VILLA INC.,,,JENNIFER EAGAN,,,,,,,,,,,,,,,(506) 273-9394,,,,,,,,,,,,,,,,,Special Care Home,,,,66 EAST RIVERSIDE Dr,,,PERTH-ANDOVER,,FREDERICTON,NB,,E7H 1Z4,Canada,46.7230358,-67.7156552,,True
VICTORY HOUSE,,,JODY KEITH MUNN,,,,,,,,,,,,,,,(506) 260-3354,,,,,,,,,,,,,,,,,Special Care Home,,,,0 VICTORY Ave,,,FREDERICTON,,FREDERICTON,NB,,E3A 3V5,Canada,45.9531306,-66.6113007,,True
WILLIAMS COZY MANOR INC.,,,LAURA SAUNDERS,,,,,,,,,,,,,,,(506) 392-1801,,,,,,,,,,,,,,,,,Special Care Home,,,,263 ROUTE ROUTE 560,,,LAKEVILLE,,FREDERICTON,NB,,E7K 3G2,Canada,46.3372822,-67.68596649999999,,True
YOUR AT HOME RETREAT LTD.,,,RHONDA REID,,,,,,,,,,,,,,,(506) 357-6835,,,,,,,,,,,,,,,,,Special Care Home,,,,1 CHRISTOPHER Dr,,,BURTON,,FREDERICTON,NB,,E2V 3H4,Canada,45.8738671,-66.3766392,,True
ABBOTT RESIDENCE,,,CHERYL CRAIG,,,,,,,,,,,,,,,(506) 352-0069,,,,,,,,,,,,,,,,,Special Care Home,,,,7 LOBBAN Ave,,,MIRAMICHI,,MIRAMICHI,NB,,E1N 2W8,Canada,47.0263103,-65.4710915,,True
BAYSIDE SPECIAL CARE HOME INC.,,,"MAUREEN STEWART (773-9300, 778-1857)",,,,,,,,,,,,,,,(506) 228-4704,,,,,,,,,,,,,,,,,Special Care Home,,,,310 ROUTE 117,,,MIRAMICHI BAY,,MIRAMICHI,NB,,E1N 5M1,Canada,47.0295709,-65.50590609999999,,True
BLACKVILLE SPECIAL CARE HOME 1,,,ERIC WALLS,,,,,,,,,,,,,,,(506) 843-6724,,,,,,,,,,,,,,,,,Special Care Home,,,,78 MAIN ST,,,BLACKVILLE,,MIRAMICHI,NB,,E9B 1S4,Canada,46.7279327,-65.831844,,False
BLACKVILLE SPECIAL CARE HOME 2,,,ERIC WALLS,,,,,,,,,,,,,,,(506) 843-9919,,,,,,,,,,,,,,,,,Special Care Home,,,,STATION Rd,,,BLACKVILLE,,MIRAMICHI,NB,,E9B 1R2,Canada,46.7281393,-65.8262908,,False
CLARK'S CARE HOME LTD.,,,MONIQUE CLARK,,,,,,,,,,,,,,,(506) 622-1006,,,,,,,,,,,,,,,,,Special Care Home,,,,94 EDWARD St,,,MIRAMICHI,,MIRAMICHI,NB,,E1V 2Y8,Canada,46.9980817,-65.5749821,Newcastle,True
COZY LODGE COMPLEX,,,ANGELE MANUEL,,,,,,,,,,,,,,,(506) 624-9849,,,,,,,,,,,,,,,,,Special Care Home,,,,2 FERRY Ct,,,MIRAMICHI,,MIRAMICHI,NB,,E1V 6Y5,Canada,47.0362812,-65.478901,,True
"DOUBLE ""H"" SPECIAL CARE HOME INC.",,,HEATHER HOGAN,,,,,,,,,,,,,,,(506) 836-7598,,,,,,,,,,,,,,,,,Special Care Home,,,,31 OLD KING GEORGE Hwy,,,MIRAMICHI,,MIRAMICHI,NB,,E1V 1K4,Canada,47.0138999,-65.5592822,Newcastle,True
EASTSIDE SPECIAL CARE HOME INC.,,,GERALDINE MCINTYRE,,,,,,,,,,,,,,,(506) 773-7397,,,,,,,,,,,,,,,,,Special Care Home,,,,44 WELLINGTON St,,,MIRAMICHI,,MIRAMICHI,NB,,E1N 3L6,Canada,47.0255642,-65.4728952,,True
ENCLOSURE SPECIAL CARE HOME,,,SARAH AND MARK HARRIS,,,,,,,,,,,,,,,(506) 773-3783,,,,,,,,,,,,,,,,,Special Care Home,,,,6 ENCLOSURE Rd,,,DERBY JUNCTION,,MIRAMICHI,NB,,E1V 5B2,Canada,46.9624163,-65.5944242,,True
FOYER CARMEL BREAU,,,CARMEL BREAU,,,,,,,,,,,,,,,(506) 776-8877,,,,,,,,,,,,,,,,,Special Care Home,,,,70 RUE PRINCIPALE,,,NEGUAC,,MIRAMICHI,NB,,E9G 1M7,Canada,47.2323509,-65.1175645,,False
FOYER CLAIRE INC.,,,CLAIRE GALLANT,,,,,,,,,,,,,,,(506) 775-0189,,,,,,,,,,,,,,,,,Special Care Home,,,,1091 RUE PRINCIPALE,,,ROGERSVILLE,,MIRAMICHI,NB,,E4Y 2L9,Canada,46.7332259,-65.428168,,False
FOYER CLAUDETTE DOIRON,,,CLAUDETTE DOIRON,,,,,,,,,,,,,,,(506) 775-9018,,,,,,,,,,,,,,,,,Special Care Home,,,,00 CHEMIN OUEST COLLETTE,,,COLLETTE,,MIRAMICHI,NB,,E4Y 1K2,Canada,46.7783166,-65.4600093,,False
FOYER PRIME BREAU,,,ROSE ANNA BREAU,,,,,,,,,,,,,,,(506) 779-4445,,,,,,,,,,,,,,,,,Special Care Home,,,,4 CHEMIN COVEDELL,,,TABUSINTAC,,MIRAMICHI,NB,,E9H 1E6,Canada,47.3145008,-65.0134737,,False
FOYER ST BERNARD LTEE,,,JOANNE STRANG,,,,,,,,,,,,,,,(506) 776-3774,,,,,,,,,,,,,,,,,Special Care Home,,,,50 RUE PRINCIPALE,,,NEGUAC,,MIRAMICHI,NB,,E9G 1M7,Canada,47.2321256,-65.1184584,,False
HARVEY VALERIE,,,VALERIE HARVEY,,,,,,,,,,,,,,,(506) 836-7906,,,,,,,,,,,,,,,,,Special Care Home,,,,337 ROUTE 420,,,CASSILIS,,MIRAMICHI,NB,,E9E 2A7,Canada,46.9487698,-65.7506535,,True
ISLANDVIEW SPECIAL CARE HOME,,,CHERYL CRAIG,,,,,,,,,,,,,,,(506) 836-7759,,,,,,,,,,,,,,,,,Special Care Home,,,,O'TOOLE Cr,,,MIRAMICHI,,MIRAMICHI,NB,,E1N 6C1,Canada,46.9552844,-65.5814501,,False
KELLY'S SPECIAL CARE HOME INC.,,,DAIGNEAULT MELANIE,,,,,,,,,,,,,,,(506) 622-7169,,,,,,,,,,,,,,,,,Special Care Home,,,,553 ROUTE 108,,,QUARRYVILLE,,MIRAMICHI,NB,,E9E 2J6,Canada,46.8343231,-65.7816411,,True
KING STREET SPECIAL CARE HOME (2016) INC.,,,"MAUREEN STEWART (773-9300, 778-1857)",,,,,,,,,,,,,,,(506) 778-1857,,,,,,,,,,,,,,,,,Special Care Home,,,,3 KING St,,,MIRMICHI,,MIRAMICHI,NB,,E1N 2N4,Canada,47.0320521,-65.4674777,,True
LA MAISON DES COLOMBES,,,ADNA LEBOUTHILLIER,,,,,,,,,,,,,,,(506) 779-8032,,,,,,,,,,,,,,,,,Special Care Home,,,,20 ROUTE 460,,,STYMIEST,,MIRAMICHI,NB,,E9G 3C5,Canada,47.302102,-65.094407,,True
NINA MIZUIK,,,NINA MIZUIK,,,,,,,,,,,,,,,(506) 622-8661,,,,,,,,,,,,,,,,,Special Care Home,,,,27 HANSEN Rd,,,MIRAMICHI,,MIRAMICHI,NB,,E1V 3T7,Canada,47.0002272,-65.5808806,Newcastle,True
RESIDENCE COMMUNAUTAIRE DE L'ARC INC II,,,MELISSA CORMIER,,,,,,,,,,,,,,,(506) 775-6396,,,,,,,,,,,,,,,,,Special Care Home,,,,9 RUE TÉLÉSPHORE,,,ROGERSVILLE,,MIRAMICHI,NB,,E4Y 0A4,Canada,46.7252217,-65.4206983,,False
RÉSIDENCE DE PATTERSON INC.,,,LINDA & SYLVIO MORRIS,,,,,,,,,,,,,,,(506) 622-6365,,,,,,,,,,,,,,,,,Special Care Home,,,,189 BEAVERBROOK Rd,,,BEAVERBROOK,,MIRAMICHI,NB,,E1V 4R7,Canada,47.0073742,-65.5901481,Newcastle,True
RESIDENCE LA BELLE VIE INC,,,TRACY WALSH,,,,,,,,,,,,,,,(506) 228-4647,,,,,,,,,,,,,,,,,Special Care Home,,,,1 LABRANCHE CHEMIN,,,BAIE SAINTE-ANNE,,MIRAMICHI,NB,,E9A 1M3,Canada,47.05259,-64.9524579,,False
RESIDENCE LE SOLEIL LEVANT INC.,,,NICOLE BAISLEY,,,,,,,,,,,,,,,(506) 776-4838,,,,,,,,,,,,,,,,,Special Care Home,,,,5 RUE DE L'EGLISE,,,NEGUAC,,MIRAMICHI,NB,,E9G 1B9,Canada,47.2457577,-65.0797425,,False
ROSS RESIDENCE,,,CHERYL CRAIG,,,,,,,,,,,,,,,(506) 352-3525,,,,,,,,,,,,,,,,,Special Care Home,,,,96 NEWCASTLE Blvd,,,MIRAMICHI,,MIRAMICHI,NB,,E1V 2L3,Canada,47.0011615,-65.5639782,Newcastle,True
ROUSSEL LISE,,,LISE ROUSSEL,,,,,,,,,,,,,,,(506) 776-8494,,,,,,,,,,,,,,,,,Special Care Home,,,,55 RUE SAVOIE,,,NEGUAC,,MIRAMICHI,NB,,E9G 1X2,Canada,47.263733,-65.0673781,,False
THE HOWE RESIDENCE,,,LOIS FORAN,,,,,,,,,,,,,,,(506) 622-1471,,,,,,,,,,,,,,,,,Special Care Home,,,,1 HARPER Rd,,,MIRAMICHI,,MIRAMICHI,NB,,E1N 4R7,Canada,47.0123483,-65.521229,,True
THE TLC FAMILY CARE HOME (MIRAMICHI) INC,,,MARGARET (PEGGY) SAVOY,,,,,,,,,,,,,,,(506) 624-9366,,,,,,,,,,,,,,,,,Special Care Home,,,,45 FRANCES St,,,MIRAMICHI,,MIRAMICHI,NB,,E1V 2V8,Canada,47.0012334,-65.5730549,Newcastle,True
THIBODEAU'S SPECIAL CARE HOME,,,ELIZABETH & ANDRE THIBODEAU,,,,,,,,,,,,,,,(506) 836-1010,,,,,,,,,,,,,,,,,Special Care Home,,,,876 PO BOX 377 ROUTE 420,,,RED BANK,,MIRAMICHI,NB,,E9E 1A2,Canada,47.0595467,-65.4127496,,True
VILLA DU PORTAGE INC.,,,GEORGINA GIROUARD/ULYSSE BOUCHARD,,,,,,,,,,,,,,,(506) 393-1197,,,,,,,,,,,,,,,,,Special Care Home,,,,02 CHEMIN HACHE,,,HAUT-RIVIERE-DU-PORTAGE,,MIRAMICHI,NB,,E9H 1P5,Canada,47.4052227,-64.9624698,,False
VILLA NEGUAC,,,JOANNE STRANG,,,,,,,,,,,,,,,(506) 776-4405,,,,,,,,,,,,,,,,,Special Care Home,,,,15 RUE HECTOR,,,NEGUAC,,MIRAMICHI,NB,,E9G 1H9,Canada,47.2546432,-65.0820799,,False
WILLIAM RESIDENCE,,,CHERYL CRAIG,,,,,,,,,,,,,,,(506) 352-3505,,,,,,,,,,,,,,,,,Special Care Home,,,,98 NEWCASTLE Blvd,,,MIRAMICHI,,MIRAMICHI,NB,,E1V 2L3,Canada,47.0011615,-65.5639782,Newcastle,True
ALOUETTE SPECIAL CARE HOME/FOYER DE SOINS SPECIAUX,,,ARTHUR MCDONOUGH,,,,,,,,,,,,,,,(506) 857-9200,,,,,,,,,,,,,,,,,Special Care Home,,,,100 AMIRAULT St,,,DIEPPE,,MONCTON,NB,,E1A 7K4,Canada,46.0617363,-64.7035772,,True
AUBERGE DU SOLEIL,,,MARC & PIERRE OUELLETTE,,,,,,,,,,,,,,,(506) 858-8558,,,,,,,,,,,,,,,,,Special Care Home,,,,25 AUCOIN St,,,DIEPPE,,MONCTON,NB,,E1A 0W5,Canada,46.0781163,-64.6929101,,True
AUTUMN LEE RETIREMENT HOME II,,,WANDA PENNEY,,,,,,,,,,,,,,,(506) 384-7658,,,,,,,,,,,,,,,,,Special Care Home,,,,031 MOUNTAIN Rd,,,MONCTON,,MONCTON,NB,,E1B 1G1,Canada,46.0945774,-64.7757406,,True
AUTUMN LEE RETIREMENT HOME SACKVILLE,,,AMANDA BETTS,,,,,,,,,,,,,,,(506) 536-0033,,,,,,,,,,,,,,,,,Special Care Home,,,,6 CHARLOTTE St,,,SACKVILLE,,MONCTON,NB,,E4L 2Y7,Canada,45.8947505,-64.371762,,True
BIRCHMOUNT LODGE,,,,,,,,,,,,,,,,,,(506) 384-7573,,,,,,,,,,,,,,,,,Special Care Home,,,,44 BIRCHMOUNT Dr,,,MONCTON,,MONCTON,NB,,E1C 8E7,Canada,46.1041925,-64.8281791,,True
BRAE MANOR,,,DINA MARCHETTI-GIROUARD,,,,,,,,,,,,,,,(506) 383-9228,,,,,,,,,,,,,,,,,Special Care Home,,,,01 ELLERDALE Ave,,,MONCTON,,MONCTON,NB,,E1A 3M8,Canada,46.1184291,-64.7709993,,True
BURNS MANOR,,,JENNIFER BURNS,,,,,,,,,,,,,,,(506) 852-3554,,,,,,,,,,,,,,,,,Special Care Home,,,,6 BROMLEY Ave,,,MONCTON,,MONCTON,NB,,E1C 5T9,Canada,46.0961528,-64.790226,,True
CAREY HOUSE (THE),,,PATRICIA ANN MCCARTHY,,,,,,,,,,,,,,,(506) 388-2868,,,,,,,,,,,,,,,,,Special Care Home,,,,37 CAMERON St,,,MONCTON,,MONCTON,NB,,E1C 5Z5,Canada,46.086636,-64.7876426,,True
CASTEL DES FLOTS BLEUS,,,JACQUES LAFOREST & RONALD LEBLANC,,,,,,,,,,,,,,,(506) 577-8558,,,,,,,,,,,,,,,,,Special Care Home,,,,3 RUE DE L'ESPOIR,,,CAP-PELE,,MONCTON,NB,,E4N 0B5,Canada,46.231764,-64.2677704,,False
CEDARWOOD LODGE,,,JOAN LEBLANC,,,,,,,,,,,,,,,(506) 536-9097,,,,,,,,,,,,,,,,,Special Care Home,,,,8 MILTON Ln,,,SACKVILLE,,MONCTON,NB,,E4L 3B7,Canada,45.9128229,-64.3783818,,True
CHATEAU DU BEL AGE INC.,,,ELIZABETH AND ANDRE HEBERT,,,,,,,,,,,,,,,(506) 743-8340,,,,,,,,,,,,,,,,,Special Care Home,,,,2 MCLAUGHLIN St,,,BOUCTOUCHE,,MONCTON,NB,,E4S 3P9,Canada,46.4698622,-64.7264578,,True
COUNTRY CARE,,,NANCY BRACE,,,,,,,,,,,,,,,(506) 756-8985,,,,,,,,,,,,,,,,,Special Care Home,,,,7 STEEVES Rd,,,INTERVALE,,MONCTON,NB,,E4Z 4Y9,Canada,45.9836895,-65.1932759,,True
COUNTRYSIDE RESIDENCE,,,CRYSTAL L SNOWDON,,,,,,,,,,,,,,,(506) 538-2968,,,,,,,,,,,,,,,,,Special Care Home,,,,4 WEST MAIN St,,,PORT ELGIN,,MONCTON,NB,,E4M1M1,Canada,46.0481731,-64.0892042,,True
DALY'S HOME CARE INC.,,,ROBERTA BUCHANAN,,,,,,,,,,,,,,,(506) 874-0757,,,,,,,,,,,,,,,,,Special Care Home,,,,8 TRIDER Ct,,,RIVERVIEW,,MONCTON,NB,,E1B 4T9,Canada,46.0494597,-64.8046346,,True
DIXSON SPECIAL CARE HOME,,,LYNN DIXSON,,,,,,,,,,,,,,,(506) 882-2667,,,,,,,,,,,,,,,,,Special Care Home,,,,1 ROUTE 915 DIXSON Rd,,,HARVEY,,MONCTON,NB,,E4H 3P9,Canada,45.724158,-64.711168,,True
DOMAINE LA VALLEE DE MEMRAMCOOK,,,MARC BOUDREAU,,,,,,,,,,,,,,,(506) 758-2110,,,,,,,,,,,,,,,,,Special Care Home,,,,8 RUE MARCELLIN,,,MEMRAMCOOK,,MONCTON,NB,,E4K 2J7,Canada,45.97544,-64.5638419,,False
EMERY HOUSE,,,JEFF HUNTER,,,,,,,,,,,,,,,(506) 387-4518,,,,,,,,,,,,,,,,,Special Care Home,,,,8 EMERY St,,,RIVERVIEW,,MONCTON,NB,,E1B 1B1,Canada,46.0756856,-64.7585803,,True
FAIRFIELD SPECIAL  CARE HOME,,,RANDY MCCULLY & VICKI M,,,,,,,,,,,,,,,(506) 939-2127,,,,,,,,,,,,,,,,,Special Care Home,,,,42 FAIRFIELD Rd,,,SACKVILLE,,MONCTON,NB,,E4L 2X9,Canada,45.887884,-64.3896376,,True
FAWCETT'S REST HOME,,,BERNICE FAWCETT,,,,,,,,,,,,,,,(506) 756-2115,,,,,,,,,,,,,,,,,Special Care Home,,,,5 UNIT 1,CHURCH STREET,,PETITCODIAC,,MONCTON,NB,,E4Z 4C9,Canada,45.9339094,-65.1747546,,True
FOWNES MANOR INC,,,DONNA BARNETT,,,,,,,,,,,,,,,(506) 882-4663,,,,,,,,,,,,,,,,,Special Care Home,,,,5482 ROUTE 114,,,HOPEWELL HILL,,MONCTON,NB,,E4H 3N4,Canada,45.7633266,-64.7002679,,True
FOYER BOIS-JOLI INC.,,,LUCILLE JOHNSON,,,,,,,,,,,,,,,(506) 876-4335,,,,,,,,,,,,,,,,,Special Care Home,,,,30 CHEMIN SAINT-IGNACE,,,SAINT-LOUIS-DE-KENT,,MONCTON,NB,,E4X 2L9,Canada,46.720865,-64.999995,,False
FOYER CHEZ JEANNINE,,,JEANNINE CARROLL,,,,,,,,,,,,,,,(506) 743-5803,,,,,,,,,,,,,,,,,Special Care Home,,,,6 CHEMIN DU COUVENT,,,BOUCTOUCHE,,MONCTON,NB,,E4S 3C1,Canada,46.4751055,-64.7183793,,False
FOYER CHEZ NOUS MONCTON,,,DONALD B. VOSBURGH SR.,,,,,,,,,,,,,,,(506) 857-9863,,,,,,,,,,,,,,,,,Special Care Home,,,,0 BURLINGTON Ave,,,MONCTON,,MONCTON,NB,,E1E 1Y7,Canada,46.0863031,-64.7944461,,True
FOYER COTE D'OR INC.,,,M. GUY ARSENAULT,,,,,,,,,,,,,,,(506) 576-9140,,,,,,,,,,,,,,,,,Special Care Home,,,,CP 1091,,,COCAGNE,,MONCTON,NB,,E4R 1N6,Canada,46.3309173,-64.612708,,True
FOYER DOMINIQUE SAVIO,,,LORRAINE LEBLANC,,,,,,,,,,,,,,,(506) 743-6892,,,,,,,,,,,,,,,,,Special Care Home,,,,5 BOULEVARD IRVING,,,BOUCTOUCHE,,MONCTON,NB,,E4S 3J7,Canada,46.473705,-64.7195007,,False
FOYER JEAN MARIE ALLAIN INC,,,JEAN MARIE ALLAIN,,,,,,,,,,,,,,,(506) 743-5397,,,,,,,,,,,,,,,,,Special Care Home,,,,9 BOULEVARD IRVING,,,BOUCTOUCHE,,MONCTON,NB,,E4S 3J8,Canada,46.4734333,-64.7195418,,False
FOYER JOE,,,JOE COLLETTE,,,,,,,,,,,,,,,(506) 743-6204,,,,,,,,,,,,,,,,,Special Care Home,,,,0 IRVING Blvd,,,BOUCTOUCHE,,MONCTON,NB,,E4S 3E3,Canada,46.4738804,-64.7186558,,True
FOYER LISA ALLAIN INC,,,GABRIEL ALLAIN & JULIE ALLAIN,,,,,,,,,,,,,,,(506) 743-8434,,,,,,,,,,,,,,,,,Special Care Home,,,,60 IRVING Blvd,,,BOUCTOUCHE,,MONCTON,NB,,E4S 3L5,Canada,46.4715921,-64.7212756,,True
FOYER MAILLET,,,JEANNITA MAILLET,,,,,,,,,,,,,,,(506) 955-3802,,,,,,,,,,,,,,,,,Special Care Home,,,,197 ROUTE 495,,,SAINTE-MARIE-DE-KENT,,MONCTON,NB,,E4S 1Z4,Canada,46.4163273,-64.8267971,,True
FOYER PAULINE 2012 INC.,,,MATHIEU CAISSIE,,,,,,,,,,,,,,,(506) 743-5695,,,,,,,,,,,,,,,,,Special Care Home,,,,1 PICARD Ave,,,BOUCTOUCHE,,MONCTON,NB,,E4S 3S9,Canada,46.4693232,-64.7259982,,True
FOYER P'TIT CHENOUS INC.,,,CAROLE BOURQUE,,,,,,,,,,,,,,,(506) 743-2213,,,,,,,,,,,,,,,,,Special Care Home,,,,723 CHEMIN ST-GABRIEL,,,STE-ANNE-DE-KENT,,MONCTON,NB,,E4S 1L5,Canada,46.540585,-64.783432,,False
FOYER SIMONNE,,,MME SIMONNE GALLANT,,,,,,,,,,,,,,,(506) 876-3630,,,,,,,,,,,,,,,,,Special Care Home,,,,0499 RUE PRINCIPALE,,,SAINT-LOUIS,,MONCTON,NB,,E4X 1E6,Canada,46.7398721,-64.978094,,False
FOYER ST-FRANCOIS,,,BERNADETTE MELANSON,,,,,,,,,,,,,,,(506) 342-2891,,,,,,,,,,,,,,,,,Special Care Home,,,,056 ROUTE ROUTE 134,,,BOUCTOUCHE,,MONCTON,NB,,E4S 2J2,Canada,46.5053647,-64.7581855,,True
FUNDY ROYAL MANOR,,,JASON MARTIN,,,,,,,,,,,,,,,(506) 734-8100,,,,,,,,,,,,,,,,,Special Care Home,,,,0 JERRY St,,,HILLSBOROUGH,,MONCTON,NB,,E4H 0A9,Canada,45.9236048,-64.6494701,,True
FUNDY ROYAL MANOR II,,,JASON MARTIN,,,,,,,,,,,,,,,(506) 734-8100,,,,,,,,,,,,,,,,,Special Care Home,,,,03 ACADEMY St,,,HILLSBOROUGH,,MONCTON,NB,,E4H 2R3,Canada,45.9274962,-64.6495814,,True
GOLDEN YEARS ESTATE LTD,,,JASON LANE,,,,,,,,,,,,,,,(506) 854-7464,,,,,,,,,,,,,,,,,Special Care Home,,,,5 JABEZ St,,,MONCTON,,MONCTON,NB,,E1E 0B4,Canada,46.0589233,-64.8623049,,True
GRASS HOME LTD.,,,JOHN OR LYNN GRASS,,,,,,,,,,,,,,,(506) 386-1740,,,,,,,,,,,,,,,,,Special Care Home,,,,74 COVERDALE Rd,,,RIVERVIEW,,MONCTON,NB,,E1B 3L5,Canada,46.0726738,-64.7830684,,True
KELS-LEIGH MANOR,,,KATHERYN NILES,,,,,,,,,,,,,,,(506) 384-2664,,,,,,,,,,,,,,,,,Special Care Home,,,,1 RIVERLEA Dr,,,RIVERVIEW,,MONCTON,NB,,E1B 3N4,Canada,46.0737054,-64.7551578,,True
LA RÉSIDENCE DANNY & DIANE,,,DANNY GOGUEN & DIANE LEBLANC,,,,,,,,,,,,,,,(506) 532-6147,,,,,,,,,,,,,,,,,Special Care Home,,,,448 ROUTE 132,,,SCOUDOUC,,MONCTON,NB,,E4P 3S8,Canada,46.16833399999999,-64.5615289,,True
LA RÉSIDENCE SIESTA LTÉE,,,CAROLE MELANSON,,,,,,,,,,,,,,,(506) 855-6736,,,,,,,,,,,,,,,,,Special Care Home,,,,08 ELMWOOD Dr,,,MONCTON,,MONCTON,NB,,E1A 2X3,Canada,46.1004216,-64.7720277,,True
LA VILLA D'AURÉLIE INC.,,,GISLAINE GIROUARD,,,,,,,,,,,,,,,(506) 775-6088,,,,,,,,,,,,,,,,,Special Care Home,,,,057 ROUTE 480,,,ACADIEVILLE,,MONCTON,NB,,E4Y 1Z3,Canada,46.72798,-65.267011,,True
LEFURGEY RESIDENCE,,,RENEE BOWERING,,,,,,,,,,,,,,,(506) 855-4622,,,,,,,,,,,,,,,,,Special Care Home,,,,0 LEFURGEY Ave,,,MONCTON,,MONCTON,NB,,E1C 7G3,Canada,46.1003648,-64.8081222,,True
LES RESIDENCES DU HAVRE,,,ADRIEN MAZEROLLE,,,,,,,,,,,,,,,(506) 523-9664,,,,,,,,,,,,,,,,,Special Care Home,,,,527 RUE MAIN,,,RICHIBUCTO,,MONCTON,NB,,E4W 4C2,Canada,46.6687249,-64.8687762,,False
LJ JAILLET RESIDENCE INC.,,,JACQUELINE JAILLET,,,,,,,,,,,,,,,(506) 830-8175,,,,,,,,,,,,,,,,,Special Care Home,,,,0 LOCKHART Ave,,,MONCTON,,MONCTON,NB,,E1C 6R1,Canada,46.0926968,-64.7967694,,True
MAISON BONHEUR,,,NORMAND GALLANT,,,,,,,,,,,,,,,(506) 854-3460,,,,,,,,,,,,,,,,,Special Care Home,,,,06 HIGH St,,,MONCTON,,MONCTON,NB,,E1C 6C8,Canada,46.0864636,-64.7897887,,True
MAISON RENAISSANCE LTEE,,,MARC LEGER,,,,,,,,,,,,,,,(506) 383-1280,,,,,,,,,,,,,,,,,Special Care Home,,,,2 BOTSFORD St,,,MONCTON,,MONCTON,NB,,E1C 4X1,Canada,46.0893609,-64.7763252,,True
MANOIR DE LA BUTTE,,,OMER GAUDET & PHILIPPE LEBLANC,,,,,,,,,,,,,,,(506) 577-2202,,,,,,,,,,,,,,,,,Special Care Home,,,,1 CHEMIN BUTTE A ELOI,,,CAP-PELE,,MONCTON,NB,,E4N 1N5,Canada,46.216323,-64.2683204,,False
MANOIR NOTRE-DAME MANOR,,,V. ROBICHAUD,,,,,,,,,,,,,,,(506) 857-9011,,,,,,,,,,,,,,,,,Special Care Home,,,,10 MURPHY Ave,,,MONCTON,,MONCTON,NB,,E1A 6Y2,Canada,46.114024,-64.776191,,True
MANOIR O'LEARY ART/CAFE INC.,,,CHARLYNE LAVOIE,,,,,,,,,,,,,,,(506) 524-3939,,,,,,,,,,,,,,,,,Special Care Home,,,,402 MAIN RUE,,,RICHIBUCTO,,MONCTON,NB,,E4W 4E1,Canada,46.5908075,-64.9745701,,False
MANOIR PASCAL POIRIER MANOR,,,MONIQUE LÉGER,,,,,,,,,,,,,,,(506) 533-9808,,,,,,,,,,,,,,,,,Special Care Home,,,,66 PASCAL POIRIER St,,,SHEDIAC,,MONCTON,NB,,E4P 2K9,Canada,46.2222908,-64.5334071,,True
MAZEROLLE SPECIAL CARE HOME LTD.,,,DARLENE MAZEROLLE,,,,,,,,,,,,,,,(506) 861-9011,,,,,,,,,,,,,,,,,Special Care Home,,,,48 GAUVIN Rd,,,DIEPPE,,MONCTON,NB,,E1A 1M1,Canada,46.0976494,-64.7312053,,True
MCNAIR MANAGEMENT INC. ( 11 BEECHWOOD),,,AMY KLASSEN,,,,,,,,,,,,,,,(506) 857-4883,,,,,,,,,,,,,,,,,Special Care Home,,,,1 BEECHWOOD Ave,,,MONCTON,,MONCTON,NB,,E1A 5P7,Canada,46.1153033,-64.7822899,,True
NANCY'S SPECIAL CARE HOME,,,,,,,,,,,,,,,,,,(506) 351-0612,,,,,,,,,,,,,,,,,Special Care Home,,,,21 CAISSIE Ave,,,SHEDIAC,,MONCTON,NB,,E4P1K5,Canada,46.2176727,-64.5429055,,True
OPEN ARMS SPECIAL CARE HOME,,,GEORGINA HUBBARD,,,,,,,,,,,,,,,(506) 204-8409,,,,,,,,,,,,,,,,,Special Care Home,,,,8 GLENGROVE Rd,,,MONCTON,,MONCTON,NB,,E1A 5X5,Canada,46.1134395,-64.7303168,,True
RESIDENCE AU BENAISE INC.,,,ANGELA SAULNIER,,,,,,,,,,,,,,,(506) 525-2354,,,,,,,,,,,,,,,,,Special Care Home,,,,6 AVENUE CLEMENT,,,SAINT-ANTOINE,,MONCTON,NB,,E4V 1E4,Canada,46.3596369,-64.7559831,,False
RESIDENCE AVENTURE - ELMWOOD,,,ROBERTA BUCHANAN,,,,,,,,,,,,,,,(506) 874-0757,,,,,,,,,,,,,,,,,Special Care Home,,,,076 ELMWOOD Dr,,,MONCTON,,MONCTON,NB,,E1E 2H2,Canada,46.1049329,-64.7745177,,True
RESIDENCE BELLEVUE,,,BERNIE OR LOUISE LEBLANC OR LIETTE LEBLANC-BREWER,,,,,,,,,,,,,,,(506) 857-2077,,,,,,,,,,,,,,,,,Special Care Home,,,,6 CHARTERSVILLE St,,,DIEPPE,,MONCTON,NB,,E1A 1K1,Canada,46.0847968,-64.7328435,,True
RÉSIDENCE CHÊNE DE MAMBRÉ,,,JASON MARTIN,,,,,,,,,,,,,,,(506) 532-2993,,,,,,,,,,,,,,,,,Special Care Home,,,,06 PROVIDENCE St,,,SHEDIAC,,MONCTON,NB,,E4P 2N1,Canada,46.216995,-64.535628,,True
RESIDENCE COLLETTE RESIDENCE INC.,,,CONNIE WHITMAN,,,,,,,,,,,,,,,(506) 874-0757,,,,,,,,,,,,,,,,,Special Care Home,,,,4 STEADMAN St,,,MONCTON,,MONCTON,NB,,E1C 9X5,Canada,46.0905348,-64.7726035,,True
RESIDENCE DU MARAIS LTEE,,,PHILIPPE J. LEBLANC ET OMER GAUDET,,,,,,,,,,,,,,,(506) 858-1318,,,,,,,,,,,,,,,,,Special Care Home,,,,71 RUE AMIRAULT,,,DIEPPE,,MONCTON,NB,,E1A 1G1,Canada,46.0617363,-64.7035772,,False
RESIDENCE HELENE RESIDENCE INC,,,ERIC BOURGOIN AND MARYSE AUBE,,,,,,,,,,,,,,,(506) 855-3366,,,,,,,,,,,,,,,,,Special Care Home,,,,6 WINNIPEG St,,,MONCTON,,MONCTON,NB,,E1C 7C4,Canada,46.0962701,-64.8050602,,True
RÉSIDENCE LE P'TIT CHEZ-NOUS,,,,,,,,,,,,,,,,,,(506) 532-6017,,,,,,,,,,,,,,,,,Special Care Home,,,,8 ROUTE 530,,,GRAND-DIGUE,,MONCTON,NB,,E4R 5J3,Canada,46.2939057,-64.5675775,,True
RESIDENCE MCDOUGALL,,,"MARC LEGER, MONETTE DUGUAY",,,,,,,,,,,,,,,(506) 382-7520,,,,,,,,,,,,,,,,,Special Care Home,,,,7 MCDOUGALL Ave,,,MONCTON,,MONCTON,NB,,E1C 6B1,Canada,46.0884511,-64.7897113,,True
RESIDENCE MONCTON - AILE CENTENNAIRE,,,MARC ET PIERRE OUELLETTE,,,,,,,,,,,,,,,(506) 389-0100,,,,,,,,,,,,,,,,,Special Care Home,,,,40 JOHN St,,,MONCTON,,MONCTON,NB,,E1C 0T5,Canada,46.094187,-64.787421,,True
RESIDENCE MONCTON RESIDENCE I,,,MARC ET PIERRE OUELLETTE,,,,,,,,,,,,,,,(506) 389-0100,,,,,,,,,,,,,,,,,Special Care Home,,,,70 JOHN St,,,MONCTON,,MONCTON,NB,,E1C 0T5,Canada,46.093933,-64.7885563,,True
RESIDENCE MONCTON RESIDENCE II,,,MARC ET PIERRE OUELLETTE,,,,,,,,,,,,,,,(506) 389-0100,,,,,,,,,,,,,,,,,Special Care Home,,,,70 JOHN St,,,MONCTON,,MONCTON,NB,,E1C 0T5,Canada,46.093933,-64.7885563,,True
RESIDENCE O BON SOINS,,,COLETTE DOUCETTE,,,,,,,,,,,,,,,(506) 533-8088,,,,,,,,,,,,,,,,,Special Care Home,,,,30 RUE PASCAL POIRIER,,,SHEDIAC,,MONCTON,NB,,E4P 2K9,Canada,46.2222908,-64.5334071,,False
RÉSIDENCE OASIS RESIDENCE INC,,,MARC & PIERRE OUELLETTE,,,,,,,,,,,,,,,(506) 855-6676,,,,,,,,,,,,,,,,,Special Care Home,,,,55 AMIRAULT St,,,DIEPPE,,MONCTON,NB,,E1A 1E1,Canada,46.0864136,-64.7338549,,True
RESIDENCE REINE DE LA PAIX,,,HECTORINE SAVOIE,,,,,,,,,,,,,,,(506) 859-8707,,,,,,,,,,,,,,,,,Special Care Home,,,,00 CHAMPLAIN St,,,DIEPPE,,MONCTON,NB,,E1A 1P5,Canada,46.0929405,-64.7625637,,True
RESIDENCE VIRGINIA INC,,,MARC LEGER,,,,,,,,,,,,,,,-506,,,,,,,,,,,,,,,,,Special Care Home,,,,75 AVENUE VIRGINIA,,,DIEPPE,,MONCTON,NB,,E1A 1L9,Canada,46.0924726,-64.7517519,,False
RESIDENCES AUSTIN INC,,,CHANTAL AUSTIN,,,,,,,,,,,,,,,(506) 382-5023,,,,,,,,,,,,,,,,,Special Care Home,,,,20 LATOUR St,,,DIEPPE,,MONCTON,NB,,E1A 2A6,Canada,46.1001624,-64.7513732,,True
RESTFUL REPOSE RESIDENCE INC.,,,MARISSA LEWIS,,,,,,,,,,,,,,,(506) 372-8993,,,,,,,,,,,,,,,,,Special Care Home,,,,6762 HOMESTEAD Rd,,,STEEVES MOUNTAIN,,MONCTON,NB,,E1Z 4N9,Canada,46.0722803,-65.0198384,,True
RIPLEY SPECIAL CARE,,,LILLIAN RIPLEY,,,,,,,,,,,,,,,(506) 382-5252,,,,,,,,,,,,,,,,,Special Care Home,,,,68 BOTSFORD St,,,MONCTON,,MONCTON,NB,,E1C 4X6,Canada,46.0907349,-64.7768542,,True
"SHANNEX RLC LIMITED, CANTERBURY HALL",,,JANICE COREY,,,,,,,,,,,,,,,(506) 387-7770,,,,,,,,,,,,,,,,,Special Care Home,,,,24 COVERDALE Rd,,,RIVERVIEW,,MONCTON,NB,,E1B 0H9,Canada,46.0726738,-64.7830684,,True
SHAR'S CARE,,,SHARON LEBLANC,,,,,,,,,,,,,,,(506) 858-9948,,,,,,,,,,,,,,,,,Special Care Home,,,,3/55 WELDON,,,MONCTON,,MONCTON,NB,,E1C 5V9,Canada,46.0874976,-64.7865658,,False
SHAR'S CARE II,,,SHARON LEBLANC,,,,,,,,,,,,,,,(506) 858-9948,,,,,,,,,,,,,,,,,Special Care Home,,,,2 BOTSFORD St,,,MONCTON,,MONCTON,NB,,E1C 4X1,Canada,46.0893609,-64.7763252,,True
SILVER FOX SPECIAL CARE HOME I,,,JASON WILSON,,,,,,,,,,,,,,,(506) 372-5645,,,,,,,,,,,,,,,,,Special Care Home,,,,4 VAUGHN St,,,SALISBURY,,MONCTON,NB,,E4J 2S8,Canada,46.0396084,-65.033689,,True
SILVER FOX SPECIAL CARE HOME LTD. II,,,JASON WILSON,,,,,,,,,,,,,,,(506) 215-1910,,,,,,,,,,,,,,,,,Special Care Home,,,,2 VAUGHN St,,,SALISBURY,,MONCTON,NB,,E4J 2S8,Canada,46.0396084,-65.033689,,True
SMITH SPECIAL CARE HOME LTD,,,CONNIE WHITMAN,,,,,,,,,,,,,,,(506) 874-0757,,,,,,,,,,,,,,,,,Special Care Home,,,,6 DORCHESTER St,,,MONCTON,,MONCTON,NB,,E1E 3A7,Canada,46.0789748,-64.7970118,,True
SUNSET VILLAGE,,,RENEE BOWERING,,,,,,,,,,,,,,,(506) 389-1335,,,,,,,,,,,,,,,,,Special Care Home,,,,5 LEOPOLD F BELLIVEAU Dr,,,MONCTON,,MONCTON,NB,,E1A 6S6,Canada,46.1218208,-64.7890345,,True
SUNSHINE HOUSE,,,PETER ROSSBACH & JULIA AGIR,,,,,,,,,,,,,,,-506,,,,,,,,,,,,,,,,,Special Care Home,,,,64 PARK St,,,MONCTON,,MONCTON,NB,,E1C 2B6,Canada,46.092124,-64.7840919,,True
T.J.MAILLET RESIDENCES LTD - COCAGNE,,,TINA MAILLET,,,,,,,,,,,,,,,(506) 345-0278,,,,,,,,,,,,,,,,,Special Care Home,,,,798 ROUTE 535,,,COCAGNE,,MONCTON,NB,,E4R 3R5,Canada,46.370854,-64.617202,,True
THE BRIARLEA,,,PIERRE BEAULIEU,,,,,,,,,,,,,,,(506) 857-8866,,,,,,,,,,,,,,,,,Special Care Home,,,,5 BRIARLEA Dr,,,MONCTON,,MONCTON,NB,,E1G2E9,Canada,46.1250657,-64.8575609,,True
TRUEMAN HOUSE,,,CARY MACDONALD,,,,,,,,,,,,,,,(506) 389-3138,,,,,,,,,,,,,,,,,Special Care Home,,,,65 CHURCH St,,,MONCTON,,MONCTON,NB,,E1C 5A7,Canada,46.0903383,-64.7785526,,True
TRULEIGH COUNTRY MANOR LTD.,,,JANET STEEVES,,,,,,,,,,,,,,,(506) 854-2695,,,,,,,,,,,,,,,,,Special Care Home,,,,202 MOUNTAIN Rd,,,MONCTON,,MONCTON,NB,,E1G 2W8,Canada,46.0945223,-64.7838631,,True
TWIN BIRCH LODGE,,,CAROLE GOGUEN,,,,,,,,,,,,,,,(506) 577-4554,,,,,,,,,,,,,,,,,Special Care Home,,,,571 ROUTE 15,,,SHEMOGUE,,MONCTON,NB,,E4N 2N6,Canada,46.155472,-64.188306,,True
WEST KENT SPECIAL CARE HOME,,,NANCY TREMBLAY,,,,,,,,,,,,,,,(506) 785-4238,,,,,,,,,,,,,,,,,Special Care Home,,,,065 ROUTE 126,,,ADAMSVILLE,,MONCTON,NB,,E4T 2C7,Canada,46.39675,-65.184161,,True
AUBERGE DES COMPAGNONS LTEE,,,DAVID CHIASSON ANNE,,,,,,,,,,,,,,,(506) 344-7766,,,,,,,,,,,,,,,,,Special Care Home,,,,1 RUE PRINCIPALE,,,LAMÈQUE,,ACADIAN PENINSULA,NB,,E8T1M9,Canada,47.7913375,-64.6411307,,False
BOUDREAU ELIZABETH,,,ELIZABETH BOUDREAU,,,,,,,,,,,,,,,(506) 395-2728,,,,,,,,,,,,,,,,,Special Care Home,,,,065 ROUTE 355,,,SAINTE-ROSE,,ACADIAN PENINSULA,NB,,E1X 2W6,Canada,47.62145,-64.956074,,True
DUGUAY ALMIDA,,,ALMIDA DUGUAY,,,,,,,,,,,,,,,(506) 358-2747,,,,,,,,,,,,,,,,,Special Care Home,,,,107 ROUTE 135,,,DUGUAYVILLE,,ACADIAN PENINSULA,NB,,E8M 1L1,Canada,47.5594329,-65.0496054,,True
FOYER BELLEFEUILLE,,,MURIELLE ROBICHAUD,,,,,,,,,,,,,,,(506) 336-8009,,,,,,,,,,,,,,,,,Special Care Home,,,,99 RUE BELLEFEUILLE,,,SHIPPAGAN,,ACADIAN PENINSULA,NB,,E8S 1G5,Canada,47.7402575,-64.7147871,,False
FOYER DENISE BOUDREAU,,,DENISE BOUDREAU,,,,,,,,,,,,,,,(506) 764-5222,,,,,,,,,,,,,,,,,Special Care Home,,,,393 CHEMIN VAL-DOUCET,,,VAL-DOUCET,,ACADIAN PENINSULA,NB,,E8R 2A3,Canada,47.6109683,-65.2168289,,False
FOYER MONIA CLEMENT,,,MONIA CLEMENT,,,,,,,,,,,,,,,(506) 732-3137,,,,,,,,,,,,,,,,,Special Care Home,,,,78 RUE DES BOIS FRANCS,,,SAINT-LÉOLIN,,ACADIAN PENINSULA,NB,,E8N 2R2,Canada,47.7680006,-65.1718571,,False
FOYER PIERRETTE GODIN,,,PIERRETTE GODIN,,,,,,,,,,,,,,,(506) 358-2259,,,,,,,,,,,,,,,,,Special Care Home,,,,867 A ROUTE 160,,,PONT-LANDRY,,ACADIAN PENINSULA,NB,,E1X 3E4,Canada,47.577309,-64.948751,,True
JEAN MARIA,,,MARIA JEAN,,,,,,,,,,,,,,,(506) 727-5476,,,,,,,,,,,,,,,,,Special Care Home,,,,962 RUE CHIASSON,,,BAS-CARAQUET,,ACADIAN PENINSULA,NB,,E1W 5V7,Canada,47.7984605,-64.822597,,False
LA RESIDENCE CHEZ LINDA,,,LINDA ALBERT,,,,,,,,,,,,,,,(506) 727-4122,,,,,,,,,,,,,,,,,Special Care Home,,,,966 CHATILLON EST,,,MAISONNETTE,,ACADIAN PENINSULA,NB,,E8N 2A2,Canada,47.8101131,-65.030758,,False
LA RESIDENCE CIEL,,,BLANCHARD FRANCE,,,,,,,,,,,,,,,(506) 727-2937,,,,,,,,,,,,,,,,,Special Care Home,,,,055 RUE CHATILLON,,,MAISONNETTE,,ACADIAN PENINSULA,NB,,E8N 2A4,Canada,47.8188249,-65.003884,,False
LE MANOIR BRIDEAU INC,,,ANDY BRIDEAU,,,,,,,,,,,,,,,(506) 395-4768,,,,,,,,,,,,,,,,,Special Care Home,,,,08 RUE DE L'EGLISE,,,TRACADIE-SHEILA,,ACADIAN PENINSULA,NB,,E1X 1B1,Canada,47.5103905,-64.9276961,,False
LE PAVILLON DES AMIS LTEE,,,IRMA BOUDREAU,,,,,,,,,,,,,,,(506) 395-2109,,,,,,,,,,,,,,,,,Special Care Home,,,,695 RUE PRINCIPALE,,,TRACADIE-SHEILA,,ACADIAN PENINSULA,NB,,E1X 1E3,Canada,47.5167261,-64.912034,,False
LES RESIDENCES LECLAIR,,,MARY CLARA ANN ET STEPHANE,,,,,,,,,,,,,,,(506) 395-9170,,,,,,,,,,,,,,,,,Special Care Home,,,,020 ROUTE 160,,,PONT-LANDRY,,ACADIAN PENINSULA,NB,,E1X 3E3,Canada,47.577309,-64.948751,,True
LES RESIDENCES NOEL INC (2015),,,MANON NOËL,,,,,,,,,,,,,,,(506) 727-0114,,,,,,,,,,,,,,,,,Special Care Home,,,,1 RUE GIONET,,,CARAQUET,,ACADIAN PENINSULA,NB,,E1W 1A3,Canada,47.7794064,-64.9821568,,False
LOSIER EDITH,,,EDITH LOSIER,,,,,,,,,,,,,,,(506) 764-2601,,,,,,,,,,,,,,,,,Special Care Home,,,,79 RUE PRINCIPALE,,,PAQUETVILLE,,ACADIAN PENINSULA,NB,,E8R 2C9,Canada,47.694198,-65.0656056,,False
MAISON JACINTHE ODETTE INC,,,ODETTE BEAUDIN & JACINTHE GUIGNARD,,,,,,,,,,,,,,,(506) 336-1113,,,,,,,,,,,,,,,,,Special Care Home,,,,12 RUE 1ERE,,,SHIPPAGAN,,ACADIAN PENINSULA,NB,,E8S 1A3,Canada,47.74392839999999,-64.7056928,,False
MANOIR AU SON DE LA VAGUE INC,,,ANGELA DUGUAY,,,,,,,,,,,,,,,(506) 336-2114,,,,,,,,,,,,,,,,,Special Care Home,,,,239 RUE PRINCIPALE,,,LEGOULET,,ACADIAN PENINSULA,NB,,E8S 2E8,Canada,47.7061456,-64.7051314,,False
MANOIR DE LA PASSERELLE LTEE,,,LEONARD LEBOUTHILLIER,,,,,,,,,,,,,,,(506) 336-8780,,,,,,,,,,,,,,,,,Special Care Home,,,,14 RUE 1ERE,,,SHIPPAGAN,,ACADIAN PENINSULA,NB,,E8S 1A3,Canada,47.74392839999999,-64.7056928,,False
MANOIR DU NORD INC,,,FRANCIS SONIER ET CATHY DUGUAY,,,,,,,,,,,,,,,(506) 395-5525,,,,,,,,,,,,,,,,,Special Care Home,,,,770 RUE LUCE,,,TRACADIE-SHEILA,,ACADIAN PENINSULA,NB,,E1X 1B5,Canada,47.511404,-64.910731,,False
MANOIR H D BASQUE,,,HECTOR BASQUE,,,,,,,,,,,,,,,(506) 395-5744,,,,,,,,,,,,,,,,,Special Care Home,,,,85 RUE BASQUE,,,TRACADIE-SHEILA,,ACADIAN PENINSULA,NB,,E1X 1B1,Canada,47.5102199,-64.915134,,False
MANOIR MARIE,,,PIERRETTE HACHE,,,,,,,,,,,,,,,(506) 727-1207,,,,,,,,,,,,,,,,,Special Care Home,,,,12 BOULEVARD SAINT-PIERRE EST,,,CARAQUET,,ACADIAN PENINSULA,NB,,E1W 1A9,Canada,47.7944095,-64.9353641,,False
MANOIR SAINT-SIMON INC,,,KARINE LAROCQUE,,,,,,,,,,,,,,,(506) 727-2472,,,,,,,,,,,,,,,,,Special Care Home,,,,62 CHEMIN LEBOUTHILLIER,,,ST-SIMON,,ACADIAN PENINSULA,NB,,E8P 1Z7,Canada,47.7353917,-64.8374737,,False
MANOIR SOLEIL LEVANT,,,SYLVIA SAVOIE,,,,,,,,,,,,,,,(506) 727-5989,,,,,,,,,,,,,,,,,Special Care Home,,,,72 ROUTE 345,,,EVANGELINE,,ACADIAN PENINSULA,NB,,E8P 1T9,Canada,47.69249,-64.845688,,True
MCLAUGHLIN ROSEMONDE,,,ROSEMONDE MCLAUGHLIN,,,,,,,,,,,,,,,(506) 395-5082,,,,,,,,,,,,,,,,,Special Care Home,,,,571 CHEMIN SAULNIER OUEST,,,SAINT-IRENEE,,ACADIAN PENINSULA,NB,,E1X 2C7,Canada,47.4981474,-65.0007706,,False
PAVILLON DU BEL-AGE LTEE,,,JOANNE BASQUE,,,,,,,,,,,,,,,(506) 395-3115,,,,,,,,,,,,,,,,,Special Care Home,,,,270 RUE BRIDEAU,,,TRACADIE-SHEILA,,ACADIAN PENINSULA,NB,,E1X 1A5,Canada,47.5248948,-64.9279419,,False
PAVILLON HACHE (2013),,,DOMINIQUE HACHE,,,,,,,,,,,,,,,(506) 336-8257,,,,,,,,,,,,,,,,,Special Care Home,,,,1 OCTAVE,,,INKERMAN,,ACADIAN PENINSULA,NB,,E8P 1B4,Canada,47.6695683,-64.8318202,,False
RESIDENCE AUX DOUCES MAREES INC,,,BLANCHARD GILBERT,,,,,,,,,,,,,,,(506) 702-0831,,,,,,,,,,,,,,,,,Special Care Home,,,,931 RUE MORAIS,,,BAS-CARAQUET,,ACADIAN PENINSULA,NB,,E1W 6E3,Canada,47.779197,-64.811738,,False
RESIDENCE BEATTIE-LANDRY LTEE,,,BEATTIE NANCY ET JEAN-JACQUES LANDRY,,,,,,,,,,,,,,,(506) 395-6784,,,,,,,,,,,,,,,,,Special Care Home,,,,424 RUE CENTENAIRE,,,TRACADIE,,ACADIAN PENINSULA,NB,,E1X 1A7,Canada,47.5164365,-64.9170735,,False
RESIDENCE BELLE RIVIERE INC,,,ULYSSE MCGRAW,,,,,,,,,,,,,,,(506) 395-6091,,,,,,,,,,,,,,,,,Special Care Home,,,,49 RUE BELLEVUE EST,,,RIVIÈRE À LA TRUITE,,ACADIAN PENINSULA,NB,,E1X 2M2,Canada,47.5120284,-64.9324833,,False
RESIDENCE DALAMIE INC.,,,ALPHONSINE ROBICHAUD,,,,,,,,,,,,,,,(506) 393-9092,,,,,,,,,,,,,,,,,Special Care Home,,,,764 RUE PRINCIPALE,,,TRACADIE-SHEILA,,ACADIAN PENINSULA,NB,,E1X 1G6,Canada,47.5167261,-64.912034,,False
RESIDENCE DIANNE,,,DIANNE DOIRON,,,,,,,,,,,,,,,(506) 764-2185,,,,,,,,,,,,,,,,,Special Care Home,,,,052 CHEMIN PAQUETVILLE,,,BAS-PAQUETVILLE,,ACADIAN PENINSULA,NB,,E8R 1E8,Canada,47.6820538,-65.0488526,,False
RESIDENCE FLORENCE INC,,,ULYSSE MCGRAW,,,,,,,,,,,,,,,(506) 727-1814,,,,,,,,,,,,,,,,,Special Care Home,,,,11 LANDRY CENTRE,,,LANDRY OFFICE,,ACADIAN PENINSULA,NB,,E8P 0B2,Canada,47.6739915,-64.9503545,,False
RESIDENCE GAGNON INC,,,MIREILLE GAGNON,,,,,,,,,,,,,,,(506) 764-1198,,,,,,,,,,,,,,,,,Special Care Home,,,,137 RUE DES FONDATEURS,,,PAQUETVILLE,,ACADIAN PENINSULA,NB,,E8R 1B3,Canada,47.6686269,-65.1060648,,False
RESIDENCE J COMEAU INC,,,COMEAU NANCY,,,,,,,,,,,,,,,(506) 395-4710,,,,,,,,,,,,,,,,,Special Care Home,,,,151 RUE FOSTER,,,TRACADIE-SHEILA,,ACADIAN PENINSULA,NB,,E1X 1C3,Canada,47.4808329,-64.942891,,False
RESIDENCE L'HERITAGE DE L'ACADIE INC,,,ROBICHAUD CINDY,,,,,,,,,,,,,,,(506) 395-6295,,,,,,,,,,,,,,,,,Special Care Home,,,,887 RUE PRINCIPALE,,,TRACADIE,,ACADIAN PENINSULA,NB,,E1X 1B6,Canada,47.5167261,-64.912034,,False
RESIDENCE MARTIN ALEXANDRE,,,LINDA DOIRON,,,,,,,,,,,,,,,(506) 395-6316,,,,,,,,,,,,,,,,,Special Care Home,,,,469 ROUTE 11,,,POINTE DES ROBICHAUD,,ACADIAN PENINSULA,NB,,E1X 4P8,Canada,47.4672865,-64.9102606,,True
RESIDENCE N. BRIDEAU,,,BRIDEAU NATHALIE,,,,,,,,,,,,,,,(506) 764-2771,,,,,,,,,,,,,,,,,Special Care Home,,,,26 CHEMIN PRINCIPAL,,,PETIT PAQUETVILLE,,ACADIAN PENINSULA,NB,,E8R 1H1,Canada,47.6772372,-65.0724906,,False
RESIDENCE SHANELLE ENRG,,,GAETANNE GODIN,,,,,,,,,,,,,,,(506) 395-9492,,,,,,,,,,,,,,,,,Special Care Home,,,,206 CHEMIN FOSTER,,,TRACADIE-SHEILA,,ACADIAN PENINSULA,NB,,E1X 1C3,Canada,47.4845675,-64.9529547,,False
RESIDENCE ST-ISIDORE 2013 LTEE,,,JEANNINE DUGUAY,,,,,,,,,,,,,,,(506) 598-0112,,,,,,,,,,,,,,,,,Special Care Home,,,,RUE BEAULIEU,,,ST-ISIDORE,,ACADIAN PENINSULA,NB,,E8M 0A2,Canada,47.5544511,-65.0388277,,False
RESIDENCE ST-PIERRE INC,,,MARC-ANDRE BOUDREAU ET JEAN-PAUL LANTEIGNE,,,,,,,,,,,,,,,(506) 727-5544,,,,,,,,,,,,,,,,,Special Care Home,,,,43 BOULEVARD ST-PIERRE OUEST,,,CARAQUET,,ACADIAN PENINSULA,NB,,E1W 1A3,Canada,47.7927293,-64.9445788,,False
RÉSIDENCES AUX MÉSANGES,,,GOSSELIN MONICA,,,,,,,,,,,,,,,(506) 395-5094,,,,,,,,,,,,,,,,,Special Care Home,,,,32 ROUTE 355,,,SAINTE-ROSE,,ACADIAN PENINSULA,NB,,E1X 2X1,Canada,40.7435175,-73.9768565,,True
RESIDENCES BEL  ACCUEIL LTEE,,,NADINE SAVOIE,,,,,,,,,,,,,,,(506) 344-5928,,,,,,,,,,,,,,,,,Special Care Home,,,,26 RUE DU PECHEUR NORD,,,LAMEQUE,,ACADIAN PENINSULA,NB,,E8T 1K2,Canada,47.7938659,-64.6479096,,False
VILLA BEAU RIVAGE (1998) LTEE,,,MARIE PAULE MCGRAW,,,,,,,,,,,,,,,(506) 336-8988,,,,,,,,,,,,,,,,,Special Care Home,,,,11 RUE 1 ERE,,,SHIPPAGAN,,ACADIAN PENINSULA,NB,,E8S 1A1,Canada,47.739689,-64.7234167,,False
VILLA BELLE RIVE INC,,,COMEAU NANCY,,,,,,,,,,,,,,,(506) 727-5344,,,,,,,,,,,,,,,,,Special Care Home,,,,83 ROUTE 345,,,EVANGELINE,,ACADIAN PENINSULA,NB,,E8P 1T3,Canada,47.69249,-64.845688,,True
VILLA ST-MICHEL (2001) LTEE,,,SONIA LAROCQUE-REID,,,,,,,,,,,,,,,(506) 336-8958,,,,,,,,,,,,,,,,,Special Care Home,,,,70 ROUTE 113,,,INKERMAN,,ACADIAN PENINSULA,NB,,E8P 1C7,Canada,47.6797216,-64.8000733,,True
CHARLENE'S SPECIAL CARE HOME,,,CHARLENE NOYE,,,,,,,,,,,,,,,(506) 753-6814,,,,,,,,,,,,,,,,,Special Care Home,,,,4 BOUCHER St,,,CAMPBELLTON,,RESTIGOUCHE,NB,,E3N 2P4,Canada,47.9968765,-66.6905851,,True
CHARLTON  LILIANE,,,LILIANE CHARLTON,,,,,,,,,,,,,,,(506) 759-7297,,,,,,,,,,,,,,,,,Special Care Home,,,,4 RUE DUNCAN,,,CAMPBELLTON,,RESTIGOUCHE,NB,,E3N 2K4,Canada,48.0012747,-66.6851407,,False
CORMIER SYLVIE,,,SYLVIE CORMIER,,,,,,,,,,,,,,,(506) 826-9897,,,,,,,,,,,,,,,,,Special Care Home,,,,28 ROUTE 280,,,DUNDEE,,RESTIGOUCHE,NB,,E8E 1Z2,Canada,47.99722,-66.4962279,,True
DUGUAY'S SPECIAL CARE HOME,,,SUSAN DUGUAY,,,,,,,,,,,,,,,(506) 789-1208,,,,,,,,,,,,,,,,,Special Care Home,,,,0 DOVER St,,,CAMPBELLTON,,RESTIGOUCHE,NB,,E3N 1P3,Canada,48.0027313,-66.6586615,,True
FOYER BERUBE,,,GERALD BERUBE,,,,,,,,,,,,,,,(506) 235-3430,,,,,,,,,,,,,,,,,Special Care Home,,,,63 ROUTE 260,,,SAINT-QUENTIN,,RESTIGOUCHE,NB,,E8A 2L7,Canada,47.5119159,-67.3921287,,True
FOYER DANIELLE,,,DANIELLE BERNARD-BUSQUE,,,,,,,,,,,,,,,(506) 753-5749,,,,,,,,,,,,,,,,,Special Care Home,,,,36 RUE LANSDOWNE,,,CAMPBELLTON,,RESTIGOUCHE,NB,,E3N 2M7,Canada,48.0026342,-66.6752497,,False
FOYER DE SOINS SPECIAUX BELLEVUE SPECIAL CARE HOME,,,MONIQUE DOUCET,,,,,,,,,,,,,,,(506) 753-5270,,,,,,,,,,,,,,,,,Special Care Home,,,,BELLEVIEW Cr,,,CAMPBELLTON,,RESTIGOUCHE,NB,,E3N 1M7,Canada,48.003687,-66.6646078,,False
FOYER JYD HOME (50 PLUS),,,PAULINE RANGER ET JEAN-YVES DESCHENES,,,,,,,,,,,,,,,(506) 759-7476,,,,,,,,,,,,,,,,,Special Care Home,,,,1 RUE BOUCHER,,,CAMPBELLTON,,RESTIGOUCHE,NB,,E3N 3J9,Canada,47.9970866,-66.6911406,,False
FOYER LINDA PARENT-BUJOLD,,,,,,,,,,,,,,,,,,(506) 759-7803,,,,,,,,,,,,,,,,,Special Care Home,,,,0387 ROUTE 134,,,MCLEODS,,RESTIGOUCHE,NB,,E3N 5V2,Canada,48.018471,-66.57320100000001,,True
FOYER MANON,,,MANON LEVESQUE,,,,,,,,,,,,,,,(506) 235-1986,,,,,,,,,,,,,,,,,Special Care Home,,,,064 ROUTE 17,,,SAINT-QUENTIN,,RESTIGOUCHE,NB,,E8A 2J4,Canada,47.5119159,-67.3921287,,True
FOYER MARIE,,,MARIE-PAULE SINCLAIR,,,,,,,,,,,,,,,(506) 235-2969,,,,,,,,,,,,,,,,,Special Care Home,,,,0 GRAND PRE,,,ST-QUENTIN,,RESTIGOUCHE,NB,,E8A 1N8,Canada,47.5119819,-67.3928669,,False
FOYER PAQUET,,,PIERRETTE PAQUET,,,,,,,,,,,,,,,(506) 826-3111,,,,,,,,,,,,,,,,,Special Care Home,,,,83 ROUTE 280,,,DUNDEE,,RESTIGOUCHE,NB,,E8E 1X5,Canada,47.99722,-66.4962279,,True
FOYER ROSE,,,ROSE ST-PIERRE,,,,,,,,,,,,,,,(506) 684-4326,,,,,,,,,,,,,,,,,Special Care Home,,,,89 STREET HOCQUARD,,,DALHOUSIE,,RESTIGOUCHE,NB,,E8C 1Y4,Canada,48.0594677,-66.372428,,False
FOYER SAVOIE INC.,,,ELISE SAVOIE,,,,,,,,,,,,,,,(506) 759-9633,,,,,,,,,,,,,,,,,Special Care Home,,,,2 LEBEL Ct,,,CAMPBELLTON,,RESTIGOUCHE,NB,,E3N 3Y3,Canada,47.9972588,-66.6889193,,True
GIRARD MARCELLA,,,MARCELLA,,,,,,,,,,,,,,,(506) 284-9085,,,,,,,,,,,,,,,,,Special Care Home,,,,082 ROUTE 260,,,KEDGWICK,,RESTIGOUCHE,NB,,E8B 1P5,Canada,47.6437885,-67.34323069999999,,True
LA VILLA,,,MELANIE DAIGNEAULT,,,,,,,,,,,,,,,(506) 235-1850,,,,,,,,,,,,,,,,,Special Care Home,,,,85 CANADA,,,ST-QUENTIN,,RESTIGOUCHE,NB,,E8A 2P5,Canada,47.5026446,-67.3926247,,False
LE VIEUX PRESBYTERE,,,NICOLE LEFORT,,,,,,,,,,,,,,,(506) 753-2020,,,,,,,,,,,,,,,,,Special Care Home,,,,88 RUE VANIER,,,CAMPBELLTON,,RESTIGOUCHE,NB,,E3N 1V5,Canada,48.0036242,-66.6327839,,False
LES FERMES DRAPEAU INC - MANOIR BALMORAL,,,JOCELYNE DRAPEAU,,,,,,,,,,,,,,,(506) 826-2336,,,,,,,,,,,,,,,,,Special Care Home,,,,80 DES PIONNIERS Ave,,,BALMORAL,,RESTIGOUCHE,NB,,E8E 1E5,Canada,47.9890239,-66.3814238,,True
LINDA CHAREST,,,CHRISTINA CHAREST,,,,,,,,,,,,,,,(506) 753-6115,,,,,,,,,,,,,,,,,Special Care Home,,,,3 ARRAN,,,CAMPBELLTON,,RESTIGOUCHE,NB,,E3N 1L3,Canada,48.0060218,-66.6631641,,False
MANOIR DARLINGTON MANOR LTD,,,ERIC LANDRY ET TANYA WINCHESTER,,,,,,,,,,,,,,,(506) 826-2988,,,,,,,,,,,,,,,,,Special Care Home,,,,19 DARLINGTON Dr,,,DALHOUSIE,,RESTIGOUCHE,NB,,E8C 1M7,Canada,48.0416464,-66.3999749,,True
MANOIR DE LA SAGESSE INC.,,,MARC CARRIÈRE / BRIGITTE ARSENAULT,,,,,,,,,,,,,,,(506) 759-8010,,,,,,,,,,,,,,,,,Special Care Home,,,,2 GEORGE,,,CAMPBELLTON,,RESTIGOUCHE,NB,,E3N 2Z7,Canada,48.0034571,-66.6832326,,False
MANOIR DE LA VALLEE,,,KEVIN VIENNEAU,,,,,,,,,,,,,,,(506) 753-0050,,,,,,,,,,,,,,,,,Special Care Home,,,,27 VAL D'AMOURS,,,ATHOLVILLE,,RESTIGOUCHE,NB,,E3N 4E1,Canada,47.9984514,-66.6848397,,False
MANOIR SUGARLOAF MANOR,,,KEVIN VIENNEAU,,,,,,,,,,,,,,,(506) 753-7305,,,,,,,,,,,,,,,,,Special Care Home,,,,2 RUE ALEXANDER,,,CAMPBELLTON,,RESTIGOUCHE,NB,,E3N 3C9,Canada,47.9994689,-66.6930214,,False
MANOIR SUNRISE,,,KEVIN VIENNEAU,,,,,,,,,,,,,,,(506) 508-1200,,,,,,,,,,,,,,,,,Special Care Home,,,,40 RUE BRUNSWICK,,,DALHOUSIE,,RESTIGOUCHE,NB,,E8C 1H3,Canada,48.0651966,-66.3719556,,False
OUELLETTE LILIANNE,,,LILIANNE OUELLETTE,,,,,,,,,,,,,,,(506) 753-0107,,,,,,,,,,,,,,,,,Special Care Home,,,,CRESCENT BEAUMONT,,,CAMPBELLTON,,RESTIGOUCHE,NB,,E3N 3X1,Canada,47.9986818,-66.6857225,,False
PAVILLON DE L'ANSE-GAETANNE,,,GAETANNE OUELLETTE,,,,,,,,,,,,,,,(506) 826-2275,,,,,,,,,,,,,,,,,Special Care Home,,,,6 RUE DE L'ANSE,,,EEL RIVER CROSSING,,RESTIGOUCHE,NB,,E8E1R4,Canada,48.0094553,-66.4196253,,False
RESIDENCE 4 SAISONS - 4 SEASONS RESIDENCE,,,DANIKA LEVESQUE & JEREMY THERIAULT,,,,,,,,,,,,,,,(506) 826-3034,,,,,,,,,,,,,,,,,Special Care Home,,,,12 RUE DRAPEAU,,,BALMORAL,,RESTIGOUCHE,NB,,E8E 1H4,Canada,47.987298,-66.4078569,,False
RESIDENCE AM (2016) INC.,,,ISABELLE BELANGER,,,,,,,,,,,,,,,(506) 235-3673,,,,,,,,,,,,,,,,,Special Care Home,,,,84 CANADA,,,ST-QUENTIN,,RESTIGOUCHE,NB,,E8A 2A7,Canada,47.5028758,-67.3919169,,False
RESIDENCE NOTRE-DAME - 647013 NB INC.,,,CHRISTIAN GALLIEN ET SYLVIE SAVOIE,,,,,,,,,,,,,,,(506) 284-3515,,,,,,,,,,,,,,,,,Special Care Home,,,,8 RUE RUE ST-PAUL,,,KEDGWICK,,RESTIGOUCHE,NB,,E8B 2A7,Canada,47.6466891,-67.344784,,False
SAUNDERS ANNE,,,ANNE SAUNDERS,,,,,,,,,,,,,,,(506) 759-8747,,,,,,,,,,,,,,,,,Special Care Home,,,,8 ABERDEEN St,,,CAMPBELLTON,,RESTIGOUCHE,NB,,E3N 2J7,Canada,48.00431,-66.6733719,,True
A MOMENT IN TIME,,,ROBERT CLARK,,,,,,,,,,,,,,,(506) 214-5585,,,,,,,,,,,,,,,,,Special Care Home,,,,24 MEADOWBANK Ave,,,SAINT JOHN,,SAINT JOHN,NB,,E2K 2C8,Canada,45.3014645,-66.1005826,,True
A.R. SANTOS CARING HOME LTD,,,ANGELES SANTOS,,,,,,,,,,,,,,,(506) 696-5794,,,,,,,,,,,,,,,,,Special Care Home,,,,6 CURRIE Ave,,,SAINT JOHN,,SAINT JOHN,NB,,E2K 1N8,Canada,45.2803971,-66.0756845,,True
AGAPE HOME LTD,,,FRAN COOKE,,,,,,,,,,,,,,,(506) 832-5935,,,,,,,,,,,,,,,,,Special Care Home,,,,90 ROUTE 121,,,BLOOMFIELD,,SAINT JOHN,NB,,E5N4V3,Canada,45.5747822,-65.7495,,True
ANDERSONVILLE SPECIAL CARE HOME,,,DARLENE MCLAUGHLIN,,,,,,,,,,,,,,,(506) 466-3799,,,,,,,,,,,,,,,,,Special Care Home,,,,002 ROUTE 3,,,ANDERSONVILLE,,SAINT JOHN,NB,,E5A 1G1,Canada,45.42362499999999,-67.2519861,,True
APOHAQUI HERITAGE RESIDENCE,,,CONNIE ARMSTRONG,,,,,,,,,,,,,,,(506) 433-2928,,,,,,,,,,,,,,,,,Special Care Home,,,,1 CAMPBELL Rd,,,APOHAQUI,,SAINT JOHN,NB,,E5P 3N9,Canada,45.699804,-65.5980953,,True
BAY CARE RESIDENTIAL FACILITY,,,BARBARA MCCARTHY,,,,,,,,,,,,,,,(506) 658-0991,,,,,,,,,,,,,,,,,Special Care Home,,,,9 PITT St,,,SAINT JOHN,,SAINT JOHN,NB,,E2L 2V7,Canada,45.2752686,-66.0521261,,True
BAYVIEW SPECIAL CARE HOME,,,CAROL JONES,,,,,,,,,,,,,,,(506) 485-2022,,,,,,,,,,,,,,,,,Special Care Home,,,,60 BELLEISLE SHORE,,,KARS,,SAINT JOHN,NB,,E5T 3E2,Canada,45.5936759,-65.9693876,,False
BELLEISLE CREEK MANOR,,,SAMANTHA LEBLANC,,,,,,,,,,,,,,,(506) 485-2004,,,,,,,,,,,,,,,,,Special Care Home,,,,199 EAST SCOTCH SETTLEMENT Rd,,,BELLEISLE CREEK,,SAINT JOHN,NB,,E5P 1N7,Canada,45.730562,-65.7514571,,True
BERWICK PLACE,,,PHYLLIS & DAVID ARSENEAU,,,,,,,,,,,,,,,(506) 433-1364,,,,,,,,,,,,,,,,,Special Care Home,,,,063 ROUTE 880,,,BERWICK,,SAINT JOHN,NB,,E5P 3B7,Canada,45.778461,-65.595984,,True
BICENTENNIAL HOME,,,MR. GREG HEBERT,,,,,,,,,,,,,,,(506) 652-6350,,,,,,,,,,,,,,,,,Special Care Home,,,,3 PARK Ave,,,SAINT JOHN,,SAINT JOHN,NB,,E2J 1R2,Canada,45.2819854,-66.0376267,,True
BOURGEOIS RESIDENCE,,,JOAN BOURGEOIS,,,,,,,,,,,,,,,(506) 657-6526,,,,,,,,,,,,,,,,,Special Care Home,,,,39 BRITAIN St,,,SAINT JOHN,,SAINT JOHN,NB,,E2L 1X3,Canada,45.267469,-66.0546649,,True
C & D MANOR,,,DENISE WHITTIER,,,,,,,,,,,,,,,(506) 466-5323,,,,,,,,,,,,,,,,,Special Care Home,,,,01 ROUTE 760,,,ROLLINGDAM,,SAINT JOHN,NB,,E5A 2X2,Canada,45.31364240000001,-67.0788294,,True
CARE-A-LOT CARE HOME INC,,,STEVEN ROBINSON,,,,,,,,,,,,,,,(506) 214-2983,,,,,,,,,,,,,,,,,Special Care Home,,,,1 ST COEUR Ct,,,SAINT JOHN,,SAINT JOHN,NB,,E2M 5R3,Canada,45.250137,-66.1155,,True
CARING MANNER,,,,,,,,,,,,,,,,,,(506) 635-2913,,,,,,,,,,,,,,,,,Special Care Home,,,,7 SEWELL St,,,SAINT JOHN,,SAINT JOHN,NB,,E2L 3A3,Canada,45.2768112,-66.0616236,,True
CARR RESIDENCE,,,BRENDA CARR,,,,,,,,,,,,,,,(506) 642-9911,,,,,,,,,,,,,,,,,Special Care Home,,,,59 KING St,,,SAINT JOHN,,SAINT JOHN,NB,,E2L 1G9,Canada,45.2735404,-66.060388,,True
CLEARVIEW SPECIAL CARE HOME,,,JEAN CRONIN,,,,,,,,,,,,,,,(506) 832-2585,,,,,,,,,,,,,,,,,Special Care Home,,,,98 MAIN St,,,HAMPTON,,SAINT JOHN,NB,,E5N 6C4,Canada,45.5061665,-65.8453676,,True
COLLINGWOOD SPECIAL CARE HOME,,,NANCY DROST,,,,,,,,,,,,,,,(506) 456-3533,,,,,,,,,,,,,,,,,Special Care Home,,,,49 ROUTE 176,,,PENNFIELD,,SAINT JOHN,NB,,E5H 1R9,Canada,45.1129316,-66.7412642,,True
COSY MANOR,,,MR. MICHAEL MONAHAN,,,,,,,,,,,,,,,(506) 657-1712,,,,,,,,,,,,,,,,,Special Care Home,,,,86-188 KING St,,,SAINT JOHN,,SAINT JOHN,NB,,E2L 1H1,Canada,45.2732218,-66.0594845,,True
COULTON'S SPECIAL CARE HOME,,,SANDRA FERRIS,,,,,,,,,,,,,,,(506) 214-1664,,,,,,,,,,,,,,,,,Special Care Home,,,,51 LOCH LOMOND Rd,,,SAINT JOHN,,SAINT JOHN,NB,,E2J 1Y6,Canada,45.2878791,-66.0403474,,True
CROW'S NEST MANOR,,,JACQUELINE LEVESQUE,,,,,,,,,,,,,,,(506) 214-6339,,,,,,,,,,,,,,,,,Special Care Home,,,,2 CROW'S NEST Ln,,,SAINT JOHN,,SAINT JOHN,NB,,E2K 4Z2,Canada,45.2821505,-66.0656951,,True
DAEKA CARE FACILITIES,,,ELISHA WILLIAMS,,,,,,,,,,,,,,,(506) 832-3618,,,,,,,,,,,,,,,,,Special Care Home,,,,0 NEIL Dr,,,HAMPTON,,SAINT JOHN,NB,,E5N 8H2,Canada,45.5088841,-65.8420292,,True
DOBBELSTEYN CARE HOME,,,JAMIE/PAULA DOBBELSTEYN,,,,,,,,,,,,,,,(506) 633-0883,,,,,,,,,,,,,,,,,Special Care Home,,,,45 MOUNT PLEASANT Ave,,,SAINT JOHN,,SAINT JOHN,NB,,E2J1T7,Canada,45.2823226,-66.0643885,,True
DOROTHY BROWN'S COUNTRY HOME,,,DOROTHY BROWN,,,,,,,,,,,,,,,(506) 466-5836,,,,,,,,,,,,,,,,,Special Care Home,,,,56 TOWER HILL Rd,,,TOWER HILL,,SAINT JOHN,NB,,E5A 2M8,Canada,45.3212956,-67.2038359,,True
FAIRVILLA SPECIAL CARE HOME,,,CARLA CLINE,,,,,,,,,,,,,,,(506) 674-1270,,,,,,,,,,,,,,,,,Special Care Home,,,,58 CHARLOTTE St,,,SAINT JOHN,,SAINT JOHN,NB,,E2M 1Y8,Canada,45.272908,-66.05868,,True
FOREST HILLS SPECIAL CARE HOME,,,JANET HEBERT,,,,,,,,,,,,,,,(506) 633-0743,,,,,,,,,,,,,,,,,Special Care Home,,,,0 MOUNTAIN Rd,,,SAINT JOHN,,SAINT JOHN,NB,,E2J 2W8,Canada,45.3119729,-66.0133758,,True
FOXGLOVE SPECIAL CARE HOME,,,BRENDA GARRISH,,,,,,,,,,,,,,,(506) 469-0908,,,,,,,,,,,,,,,,,Special Care Home,,,,61 SPUR # 1 Rd,,,BOCABEC,,SAINT JOHN,NB,,E5B 3K1,Canada,45.1814415,-66.9647933,,True
FUNDY BAY MANOR,,,KAREN DOUGHERTY-SEAMANS,,,,,,,,,,,,,,,(506) 755-2221,,,,,,,,,,,,,,,,,Special Care Home,,,,06 MAIN St,,,ST. GEORGE,,SAINT JOHN,NB,,E5C 3J9,Canada,45.1295489,-66.8244617,,True
GREAT OAKS,,,DOROTHY MCDONALD,,,,,,,,,,,,,,,(506) 485-8800,,,,,,,,,,,,,,,,,Special Care Home,,,,112 ROUTE 705,,,WICKHAM,,SAINT JOHN,NB,,E5T 4A1,Canada,45.64495400000001,-66.07247989999999,,True
GREEN MEADOWS,,,CHERYL SMITH,,,,,,,,,,,,,,,(506) 433-2502,,,,,,,,,,,,,,,,,Special Care Home,,,,74 ROUTE 880,,,LOWER MILLSTREAM,,SAINT JOHN,NB,,E5P 3K4,Canada,45.741978,-65.612444,,True
JOANN'S SPECIAL CARE HOME,,,JOANN LAPOINTE,,,,,,,,,,,,,,,(506) 652-3057,,,,,,,,,,,,,,,,,Special Care Home,,,,10 QUEEN St,,,SAINT JOHN,,SAINT JOHN,NB,,E2L 1S8,Canada,45.2684505,-66.060521,,True
JOSEPH'S CARING HOME,,,JOYCE MCGEE,,,,,,,,,,,,,,,(506) 649-5298,,,,,,,,,,,,,,,,,Special Care Home,,,,670 HICKEY Rd,,,SAINT JOHN,,SAINT JOHN,NB,,E2J 4E2,Canada,45.3018121,-65.9977873,,True
LAURA MANOR CARE HOME,,,SANDRA LENDORFF,,,,,,,,,,,,,,,(506) 634-7902,,,,,,,,,,,,,,,,,Special Care Home,,,,6 MECKLENBERG St,,,SAINT JOHN,,SAINT JOHN,NB,,E2L 1R3,Canada,45.2701105,-66.0555513,,True
LIGHT HOUSE VIEW,,,KELLY ESTABROOKS,,,,,,,,,,,,,,,(506) 468-2047,,,,,,,,,,,,,,,,,Special Care Home,,,,233 ROUTE RTE 102,,,HAMPSTEAD,,SAINT JOHN,NB,,E5M 2B5,Canada,40.6732512,-73.7379381,Rosedale,True
MANOR SAINT JUDE SPECIAL CARE HOME,,,BONNIE WHYNOT,,,,,,,,,,,,,,,(506) 632-1888,,,,,,,,,,,,,,,,,Special Care Home,,,,16 SANDY POINT Rd,,,SAINT JOHN,,SAINT JOHN,NB,,E2K 3R9,Canada,45.2866503,-66.063692,,True
MAPLE ROW SPECIAL CARE HOME INC.,,,JOSHUA REDFERN OR ANDREW ROUSE,,,,,,,,,,,,,,,(506) 672-5568,,,,,,,,,,,,,,,,,Special Care Home,,,,43/245 MAPLE ROW St,,,SAINT JOHN WEST,,SAINT JOHN,NB,,E2M2A7,Canada,45.2556086,-66.076477,,True
MARITIME MANOR SPECIAL CARE HOME LTD.,,,CRYSTAL POWELL,,,,,,,,,,,,,,,(506) 647-4087,,,,,,,,,,,,,,,,,Special Care Home,,,,99 GOLDEN GROVE Rd,,,SAINT JOHN,,SAINT JOHN,NB,,E2H 2V5,Canada,45.3162933,-66.0166837,,True
MCCARTHY RESIDENCE,,,BARBARA MCCARTHY,,,,,,,,,,,,,,,(506) 657-7367,,,,,,,,,,,,,,,,,Special Care Home,,,,12 PITT St,,,SAINT JOHN,,SAINT JOHN,NB,,E2L 2X1,Canada,45.2758549,-66.0522081,,True
MCGRATH SPECIAL CARE HOME,,,LORRAINE MCGRATH,,,,,,,,,,,,,,,(506) 652-3083,,,,,,,,,,,,,,,,,Special Care Home,,,,67 ROCKLAND Rd,,,SAINT JOHN,,SAINT JOHN,NB,,E2K 3K3,Canada,45.28036,-66.0625027,,True
MCGREGOR HOUSE,,,LINDA CLARK,,,,,,,,,,,,,,,(506) 432-6499,,,,,,,,,,,,,,,,,Special Care Home,,,,67 MCGREGOR BROOK Rd,,,SUSSEX,,SAINT JOHN,NB,,E4G 2G4,Canada,45.7321607,-65.536215,,True
MCKELLARS SPECIAL CARE HOME,,,TAMMY BROWN,,,,,,,,,,,,,,,(506) 645-8896,,,,,,,,,,,,,,,,,Special Care Home,,,,1 BONNEY Rd,,,NAUWIGEWAUK,,SAINT JOHN,NB,,E5N 7A1,Canada,45.4825703,-65.8818815,,True
MCKIM HOUSE C/O LARCHE SAINT JOHN,,,JOCELYN WORSTER,,,,,,,,,,,,,,,(506) 672-6504,,,,,,,,,,,,,,,,,Special Care Home,,,,23 LANCASTER Ave,,,SAINT JOHN,,SAINT JOHN,NB,,E2M 2M3,Canada,45.2572611,-66.0775052,,True
MCLAY`S OAK BAY HAVEN,,,DEBORAH/STEPHEN MCLAY,,,,,,,,,,,,,,,(506) 466-1297,,,,,,,,,,,,,,,,,Special Care Home,,,,2 GIDDENS Ln,,,OAK BAY,,SAINT JOHN,NB,,E3L 4K2,Canada,45.2286893,-67.1837596,,True
MEADOW VALLEY MANOR INC,,,JOYCE MCGEE,,,,,,,,,,,,,,,-506,,,,,,,,,,,,,,,,,Special Care Home,,,,7 PETTINGILL Rd,,,QUISPAMSIS,,SAINT JOHN,NB,,E2E 3R9,Canada,45.4053687,-65.9741966,,True
MEADOWBANK MANOR,,,JOYCE MCGEE,,,,,,,,,,,,,,,(506) 214-1683,,,,,,,,,,,,,,,,,Special Care Home,,,,24 MEADOWBANK Ave,,,SAINT JOHN,,SAINT JOHN,NB,,E2K 2C8,Canada,45.3014645,-66.1005826,,True
METCALF MANOR,,,VANESSA HARRIS,,,,,,,,,,,,,,,(506) 214-1690,,,,,,,,,,,,,,,,,Special Care Home,,,,33 METCALF St,,,SAINT JOHN,,SAINT JOHN,NB,,E2K 1K2,Canada,45.2760343,-66.0854142,,True
MURRAY STREET LODGE INC.,,,HEATHER PERRIN,,,,,,,,,,,,,,,(506) 738-3500,,,,,,,,,,,,,,,,,Special Care Home,,,,5 MURRAY St,,,GRAND BAY,,SAINT JOHN,NB,,E5K 1C7,Canada,45.3022634,-66.1968555,,True
MYSTERY LAKE MANOR,,,KRISTA SIMMONS,,,,,,,,,,,,,,,(506) 696-5423,,,,,,,,,,,,,,,,,Special Care Home,,,,68 GOLDEN GROVE Rd,,,SAINT JOHN,,SAINT JOHN,NB,,E2H 1X4,Canada,45.3151686,-66.0198244,,True
NATHAN HOUSE,,,SANDY SEALE,,,,,,,,,,,,,,,(506) 652-2783,,,,,,,,,,,,,,,,,Special Care Home,,,,37 MILLIDGE Ave,,,SAINT JOHN,,SAINT JOHN,NB,,E2K 2M4,Canada,45.2808193,-66.0807594,,True
PATTERSON'S SPECIAL CARE HOME,,,CHERYL CAMPBELL,,,,,,,,,,,,,,,(506) 639-1383,,,,,,,,,,,,,,,,,Special Care Home,,,,32 MONTREAL Ave,,,SAINT JOHN,,SAINT JOHN,NB,,E2M 3J9,Canada,45.2490986,-66.0980757,,True
PEACEFUL HILLS SPECIAL CARE HOME INC.,,,KATRINA DROST,,,,,,,,,,,,,,,(506) 696-6750,,,,,,,,,,,,,,,,,Special Care Home,,,,2 BAXTER Rd,,,SAINT JOHN,,SAINT JOHN,NB,,E2H 2V5,Canada,45.3275414,-65.994253,,True
PRIMROSE COTTAGE,,,LYN WALLACE,,,,,,,,,,,,,,,(506) 433-1663,,,,,,,,,,,,,,,,,Special Care Home,,,,18 ROUTE 880,,,LOWER MILL STREAM,,SAINT JOHN,NB,,E5P 3K4,Canada,45.7806124,-65.5928833,,True
RAYLEE BROOKS MANOR INC,,,CHRISTINA TRAVIS,,,,,,,,,,,,,,,(506) 485-7778,,,,,,,,,,,,,,,,,Special Care Home,,,,13 GUTHRIE RD,,,BLOOMFIELD,,SAINT JOHN,NB,,E5N 4M1,Canada,45.5759458,-65.790466,,False
RIDEOUT'S RESIDENTIAL FACILITY,,,SUSAN RIDEOUT,,,,,,,,,,,,,,,(506) 657-8044,,,,,,,,,,,,,,,,,Special Care Home,,,,29 PRINCE St,,,SAINT JOHN,,SAINT JOHN,NB,,E2M 1R2,Canada,45.2759832,-66.055993,,True
RIDGEVIEW MANOR,,,JACQUELINE PENDLETON,,,,,,,,,,,,,,,(506) 755-3997,,,,,,,,,,,,,,,,,Special Care Home,,,,00 MCKAY LOOP Rd,,,PENNFIELD,,SAINT JOHN,NB,,E5H 2K4,Canada,45.124066,-66.66955,,True
RIVERDALE MANOR SENIORS RESIDENCE,,,CHRISSY TRAVIS,,,,,,,,,,,,,,,-506,,,,,,,,,,,,,,,,,Special Care Home,,,,RIVERDALE Dr,,,HAMPTON,,SAINT JOHN,NB,,E5N5K2,Canada,45.5204561,-65.8145519,,False
ROXANNE'S  SPECIAL CARE HOME,,,ROXANNE DORION,,,,,,,,,,,,,,,(506) 433-5774,,,,,,,,,,,,,,,,,Special Care Home,,,,67 PICADILLY Rd,,,PICADILLY,,SAINT JOHN,NB,,E4E5J7,Canada,45.7145393,-65.4143838,,True
SCENIC VIEW SPECIAL CARE HOME,,,HELEN OR THOMAS ARMSTRONG,,,,,,,,,,,,,,,(506) 433-4538,,,,,,,,,,,,,,,,,Special Care Home,,,,481 ROUTE 121,,,APOHAQUI,,SAINT JOHN,NB,,E5P 1B2,Canada,45.6922758,-65.5765106,,True
SEA STREET MANOR LTD,,,PHYLLIS & DAVID ARSENEAU,,,,,,,,,,,,,,,(506) 639-3767,,,,,,,,,,,,,,,,,Special Care Home,,,,89 SEA St,,,SAINT JOHN,,SAINT JOHN,NB,,E2M2N9,Canada,45.2471657,-66.0777083,,True
SEELY LODGE - WESTFIELD ROAD,,,JANICE SEELY,,,,,,,,,,,,,,,(506) 738-2917,,,,,,,,,,,,,,,,,Special Care Home,,,,277 WESTFIELD Rd,,,SAINT JOHN,,SAINT JOHN,NB,,E2M 6L4,Canada,45.2814492,-66.1605441,,True
SERENITY COVE SPECIAL CARE HOME,,,JENNIFER PAUL,,,,,,,,,,,,,,,(506) 757-8155,,,,,,,,,,,,,,,,,Special Care Home,,,,919 ROUTE ROUTE 102,,,WOODMANS POINT,,SAINT JOHN,NB,,E5K4P5,Canada,45.37135,-66.232293,,True
"SHANNEX RLC LTD, CONCORDE HALL",,,JOHN CAMPBELL,,,,,,,,,,,,,,,(506) 847-7275,,,,,,,,,,,,,,,,,Special Care Home,,,,5 SHANNEX Dr,,,QUISPAMSIS,,SAINT JOHN,NB,,E2E0M5,Canada,45.4176,-65.9447,,True
SHANNEX RLC LTD. HOWE HALL,,,SUSAN MCKINLEY,,,,,,,,,,,,,,,(506) 633-7275,,,,,,,,,,,,,,,,,Special Care Home,,,,0 VITALITY WAY,,,SAINT JOHN,,SAINT JOHN,NB,,E2K 0J5,Canada,45.2954814,-66.0959424,,False
ST. STEPHEN SENIORS COMPLEX INC.,,,EULAYCE MCKEEN,,,,,,,,,,,,,,,(506) 466-1868,,,,,,,,,,,,,,,,,Special Care Home,,,,057 ROUTE 3,,,OLD RIDGE,,SAINT JOHN,NB,,E3L 4W6,Canada,45.2111923,-67.2712221,,True
T & D SPECIAL CARE HOME,,,DIANE/TROY STAFFORD,,,,,,,,,,,,,,,(506) 466-5883,,,,,,,,,,,,,,,,,Special Care Home,,,,7 PRINCE WILLIAM St,,,ST. STEPHEN,,SAINT JOHN,NB,,E3L 1R6,Canada,45.1937118,-67.2746409,,True
TOPAZ SPECIAL CARE HOME,,,TAMMY LONG,,,,,,,,,,,,,,,(506) 839-2715,,,,,,,,,,,,,,,,,Special Care Home,,,,19 ROUTE 124,,,NORTON,,SAINT JOHN,NB,,E5T 1B7,Canada,45.6357839,-65.6920492,,True
TWIN TOWERS SPECIAL CARE HOME,,,TOM/CATHY KNOX,,,,,,,,,,,,,,,(506) 466-6504,,,,,,,,,,,,,,,,,Special Care Home,,,,ELM St,,,ST. STEPHEN,,SAINT JOHN,NB,,E3L 2S2,Canada,45.1984999,-67.2860926,,False
VICTORIA HOUSE,,,MARIE MARY ROBICHAUD,,,,,,,,,,,,,,,(506) 642-6058,,,,,,,,,,,,,,,,,Special Care Home,,,,78 BRIDGE St,,,SAINT JOHN,,SAINT JOHN,NB,,E2K 1S5,Canada,45.2743009,-66.0878773,,True
WADDELL RESIDENCE,,,ANN WADDELL,,,,,,,,,,,,,,,(506) 763-2257,,,,,,,,,,,,,,,,,Special Care Home,,,,077 ROUTE 845,,,KINGSTON,,SAINT JOHN,NB,,E5N 1K7,Canada,45.4554227,-65.9821124,,True
WEST SIDE MANOR INC.,,,LISA MELANSON,,,,,,,,,,,,,,,(506) 672-1534,,,,,,,,,,,,,,,,,Special Care Home,,,,46 GEORGE St,,,SAINT JOHN,,SAINT JOHN,NB,,E2M 3T3,Canada,45.3145304,-66.1927742,,True
WESTPORT RESIDENTIAL CENTER,,,BEVERLY RIDEOUT,,,,,,,,,,,,,,,(506) 674-2069,,,,,,,,,,,,,,,,,Special Care Home,,,,27 PRINCE St,,,SAINT JOHN,,SAINT JOHN,NB,,E2M 1R2,Canada,45.2758975,-66.0565297,,True
WHITEHALL ESTATES,,,JANN RIDEOUT,,,,,,,,,,,,,,,(506) 832-0241,,,,,,,,,,,,,,,,,Special Care Home,,,,1 KIERSTEADVILLE Rd,,,HAMPTON,,SAINT JOHN,NB,,E5N 8H2,Canada,45.5705556,-65.9087555,,True
WILSON SPECIAL CARE HOME,,,SHARON WILSON,,,,,,,,,,,,,,,(506) 433-5532,,,,,,,,,,,,,,,,,Special Care Home,,,,10 DRURYS COVE Rd,,,RATTERS CORNER,,SAINT JOHN,NB,,E4E 3L4,Canada,45.6225129,-65.6068047,,True
YVONNE'S SPECIAL CARE HOME,,,YVONNE CLARK,,,,,,,,,,,,,,,(506) 832-7186,,,,,,,,,,,,,,,,,Special Care Home,,,,773 ROUTE 860,,,TITUSVILLE,,SAINT JOHN,NB,,E5N 3W2,Canada,45.470749,-65.8007918,,True
