name,contact_first_name,contact_last_name,contact_name,email,contact_email,fax,mailing_address_line_1,mailing_address_line_2,mailing_city,mailing_contact_first_name,mailing_contact_last_name,mailing_contact_name,mailing_country,mailing_county,mailing_postalcode,mailing_province,provider_name,primary_phone,secondary_phone,twitter,website,source,contact_occupation,dsgne_first_name,dsgne_last_name,admin_name,co_address_line_1,co_address_line_2,co_company,co_city,co_postalcode,co_province,ombudsman_phone,typeofcare,typeofcare2,low_high_rate,low_rate,high_rate,address_line_1,address_line_2,address_directions,city,municipality,region,province,state_id,postal_code,country,latitude,longitude,neighborhood,addr_valid
Chelsea Place 1 & 2,,,,,,,,,,,,,,,,,,2044520110x116,,,http://www.qualitymanagement.net,,,,,,,,,,,,,,Senior Housing,,,,130 Beliveau St,,,Winnipeg,,,MB,,R2M 1S7,Canada,49.836647,-97.1068937,Worthington,TRUE
Arden Hollows,,,,,,,,,,,,,,,,,,204 509-7806,,,http://www.timbercreekfunds.com,,,,,,,,,,,,,,Senior Housing,,,,15 Arden Ave,,,Winnipeg,,,MB,,R2M 2J8,Canada,49.8350148,-97.1155217,Pulberry,TRUE
Arden Estates,,,,,,,,,,,,,,,,,,204 960-1344,,,,,,,,,,,,,,,,,Senior Housing,,,,24 Arden Ave,,,Winnipeg,,,MB,,R2M 2J9,Canada,49.8340451,-97.1158031,Pulberry,TRUE
Appleton Estates II,,,,135niakwa@edisonproperties.ca,,,,,,,,,,,,,,204 940-3483,,,http://www.EdisonProperties.ca,,,,,,,,,,,,,,Senior Housing,,,,135 Niakwa Rd,,,Winnipeg,,,MB,,R2M 5K2,Canada,49.8564265,-97.0973712,Alpine Place,TRUE
St. Vital Knights Villa Phase 1,,,,,,,,,,,,,,,,,,204 982-2000,,,,,,,,,,,,,,,,,Senior Housing,,,,537 St Anne's Rd,,,Winnipeg,,,MB,,R2M 3E8,Canada,49.8400032,-97.0919835,Lavalee,TRUE
Willow Centre,,,,,,,,,,,,,,,,,,204 632-5940,,,,,,,,,,,,,,,,,Senior Housing,,,,61 Tyndall Ave,,,Winnipeg,,,MB,,R2X 2T4,Canada,49.9353357,-97.1884169,Burrows - Keewatin,TRUE
St Mary The Protectress Ukranian Orthodox Millenium Villa Inc.,,,,,,,,,,,,,,,,,,204 586-5816,,,,,,,,,,,,,,,,,Senior Housing,,,,800 Burrows Ave,,,Winnipeg,,,MB,,R2X 3A9,Canada,49.9223039,-97.1560876,Burrows Central,TRUE
Chalet Louis Riel,,,,,,,,,,,,,,,,,,,,,,,,,,,,,,,,,,,Senior Housing,,,,67 Richfield Ave,,,Winnipeg,,,MB,,R2M 2R9,Canada,49.8373822,-97.0900199,Meadowood,TRUE
Templeton Properties,,,,,,,,,,,,,,,,,,204 334-0420,,,,,,,,,,,,,,,,,Senior Housing,,,,250 300 Templeton Ave,,,Winnipeg,,,MB,,R2V 1S2,Canada,49.94683,-97.1133597,Margaret Park,TRUE
St Benedict's Place,,,,,,,,,,,,,,,,,,,,,http://www.stbens.ca,,,,,,,,,,,,,,Senior Housing,,,,225 Masters Ave,,,Winnipeg,,,MB,,R4A 2A1,Canada,49.9945253,-97.0481238,,TRUE
Shelard Manor,,,,shelard@globegeneral.ca,,,,,,,,,,,,,,204 633-0716,,,,,,,,,,,,,,,,,Senior Housing,,,,200 Adsum Dr,,,Winnipeg,,,MB,,R2P 0W7,Canada,49.9545755,-97.1637806,The Maples,TRUE
Appleton Estates 1,,,,133niawka@edisonproperties.ca,,,,,,,,,,,,,,204 940-3482,,,http://www.EdisonProperties.ca,,,,,,,,,,,,,,Senior Housing,,,,133 Niakwa Rd,,,Winnipeg,,,MB,,R2M 5J5,Canada,49.8560689,-97.0984528,Alpine Place,TRUE
Rosh Pina Housing Co,,,,,,,,,,,,,,,,,,204 338-4671,,,,,,,,,,,,,,,,,Senior Housing,,,,133 Matheson Ave,,,Winnipeg,,,MB,,R2W 5M7,Canada,49.9284934,-97.1180849,Seven Oaks,FALSE
Riverbend Terrace,,,,,,,,,,,,,,,,,,204 942-2122,,,http://www.broadstreet.ca,,,,,,,,,,,,,,Senior Housing,,,,2471 Main St,,,Winnipeg,,,MB,,R2V 2X6,Canada,49.9561955,-97.0954353,Rivergrove,TRUE
River Ridge Retirement Residence (Assisted Living),,,,,,,,,,,,,,,,,,204 589-2273,,,,,,,,,,,,,,,,,Senior Housing,,,,50 Ridgecrest Ave,,,Winnipeg,,,MB,,R2P 2X5,Canada,49.9526947,-97.0931683,Rivergrove,TRUE
The Villagio,,,,,,,,,,,,,,,,,,204 956-5284,,,,,,,,,,,,,,,,,Senior Housing,,,,1175 Leila Ave,,,Winnipeg,,,MB,,R2P 2Y1,Canada,49.9570138,-97.1558574,Leila North,TRUE
Wellington Arms,,,,,,,,,,,,,,,,,,,,,http://www.rentcanada.com,,,,,,,,,,,,,,Senior Housing,,,,277,,,Winnipeg,,,MB,,R3M 3V7,Canada,49.9143495,-97.134598,William Whyte,FALSE
Villa Cabrini,,,,,,,,,,,,,,,,,,204 982-2000,,,http://www.lifelease.ca,,,,,,,,,,,,,,Senior Housing,,,,433 River Ave,,,Winnipeg,,,MB,,R3L 2V1,Canada,49.8799,-97.1452643,River - Osborne,TRUE
Times Square Patio Apartments,,,,,,,,,,,,,,,,,,204 488-8463,,,,,,,,,,,,,,,,,Senior Housing,,,,1061 1137 Taylor Ave,,,Winnipeg,,,MB,,R3M 2K4,Canada,49.8542255,-97.1652399,Grant Park,TRUE
The Boulton (Assisted Living),,,,lsawatzky@theboulton.ca,,,,,,,,,,,,,,204 475-4500,,,,,,,,,,,,,,,,,Senior Housing,,,,100,,,Winnipeg,,,MB,,R3N 2C3,Canada,49.8086328,-97.0672027,,FALSE
St John's Haven Inc.,,,,sjhaven@mymts.net,,,,,,,,,,,,,,204 284-2422,,,,,,,,,,,,,,,,,Senior Housing,,,,1015 Grant Ave,,,Winnipeg,,,MB,,R3M 1Y3,Canada,49.861327,-97.160434,Rockwood,TRUE
The Canoe Club (Assisted Living),,,,,,,,,,,,,,,,,,204 231-5777,,,,,,,,,,,,,,,,,Senior Housing,,,,40 Dunkirk Dr,,,Winnipeg,,,MB,,R2M 5R4,Canada,49.8525181,-97.126176,Kingston Crescent,TRUE
South Osborne Housing Co,,,,,,,,,,,,,,,,,,204 942-0991,,,http://www.sam.mb.ca,,,,,,,,,,,,,,Senior Housing,,,,360 Osborne St,,,Winnipeg,,,MB,,R3L 2V6,Canada,49.8718643,-97.1396005,Riverview,FALSE
Shalom Gardens Housing Co,,,,,,,,,,,,,,,,,,204 452-1924,,,,,,,,,,,,,,,,,Senior Housing,,,,Ltd 360 Wilton St,,,Winnipeg,,,MB,,R3M 3X6,Canada,49.8604212,-97.1635742,Rockwood,FALSE
Riverview Towers,,,,,,,,,,,,,,,,,,204  452-0110,,,http://www.rentcanada.com,,,,,,,,,,,,,,Senior Housing,,,,3 Donald Ave,,,Winnipeg,,,MB,,R3L 2P6,Canada,49.8798016,-97.1372109,River - Osborne,TRUE
Riverborne Seniors Place,,,,,,,,,,,,,,,,,,204 949-2880,,,http://www.whrc.ca,,,,,,,,,,,,,,Senior Housing,,,,324 Stradbrook Ave,,,Winnipeg,,,MB,,R3L 0J6,Canada,49.8791473,-97.1401355,River - Osborne,TRUE
River Crescent Gardens,,,,,,,,,,,,,,,,,,204 452-4047,,,http://www.globegeneral.ca,,,,,,,,,,,,,,Senior Housing,,,,595 River Ave,,,Winnipeg,,,MB,,R3L 0E6,Canada,49.8781293,-97.1524224,Roslyn,TRUE
Legion Crest Apartments,,,,,,,,,,,,,,,,,,,,,,,,,,,,,,,,,,,Senior Housing,,,,819 Grant Ave,,,Winnipeg,,,MB,,R3M 1Y1,Canada,49.8637507,-97.1531887,Earl Grey,TRUE
Korean Canadian Housing Co,,,,,,,,,,,,,,,,,,204 982-2004,,,,,,,,,,,,,,,,,Senior Housing,,,,160 River Ave,,,Winnipeg,,,MB,,R3L 0A9,Canada,ERROR,ERROR,ERROR,FALSE
Harewood House,,,,,,,,,,,,,,,,,,204 284-4434,,,,,,,,,,,,,,,,,Senior Housing,,,,605 River Ave,,,Winnipeg,,,MB,,R3L 0E7,Canada,49.8776418,-97.1520392,Roslyn,TRUE
Hampton House,,,,,,,,,,,,,,,,,,204 475-5169,,,,,,,,,,,,,,,,,Senior Housing,,,,333,,,Winnipeg,,,MB,,R3M 0A1,Canada,49.9150571,-97.1368687,William Whyte,FALSE
Grant Wilton,,,,,,,,,,,,,,,,,,204 417-9515,,,,,,,,,,,,,,,,,Senior Housing,,,,1055 Grant Ave,,,Winnipeg,,,MB,,R3M 1Y5,Canada,49.860599,-97.162607,Rockwood,TRUE
General Grant,,,,,,,,,,,,,,,,,,204 284-1144,,,,,,,,,,,,,,,,,Senior Housing,,,,1281 Grant Ave,,,Winnipeg,,,MB,,R3M 1Z6,Canada,49.8569337,-97.173613,Rockwood,TRUE
Fred Tipping Place,,,,,,,,,,,,,,,,,,204 945-8477,,,,,,,,,,,,,,,,,Senior Housing,,,,601 Osborne St,,,Winnipeg,,,MB,,R3L 2P9,Canada,49.8646195,-97.1344161,Lord Roberts,TRUE
Fort Rouge Ecumenical Apartments Inc.,,,,,,,,,,,,,,,,,,204 284-5801,,,,,,,,,,,,,,,,,Senior Housing,,,,400 Stradbrook Ave,,,Winnipeg,,,MB,,R3L 2P8,Canada,49.8782523,-97.1426891,River - Osborne,TRUE
Canterbury House,,,,,,,,,,,,,,,,,,204 452-6481,,,http://www.globegeneralagencies.ca,,,,,,,,,,,,,,Senior Housing,,,,270 Roslyn Rd,,,Winnipeg,,,MB,,R3L 0H3,Canada,49.8791579,-97.1533675,Roslyn,TRUE
Cambridge Gardens,,,,,,,,,,,,,,,,,,204 475-0232,,,http://www.homebase.ca,,,,,,,,,,,,,,Senior Housing,,,,850 Cambridge St,,,Winnipeg,,,MB,,R3M 3W8,Canada,49.8534974,-97.1752883,Grant Park,TRUE
Bethel Place,,,,bethelplace@shaw.ca,,,,,,,,,,,,,,204 284-3762,,,http://www.bethelplace.ca,,,,,,,,,,,,,,Senior Housing,,,,445 Stafford St,,,Winnipeg,,,MB,,R3M 2V9,Canada,49.860764,-97.156136,Grant Park,TRUE
64 Nassau St. N.,,,,,,,,,,,,,,,,,,204  982-2000,,,,,,,,,,,,,,,,,Senior Housing,,,,64 Nassau St,,,Winnipeg,,,MB,,R3L 2T2,Canada,49.8789888,-97.1493619,Roslyn,TRUE
285 Pembina Inc. Deaf Centre Manitoba,,,,,,,,,,,,,,,,,,204 284-0802,,,,,,,,,,,,,,,,,Senior Housing,,,,285 Pembina Hwy,,,Winnipeg,,,MB,,R3L 2E1,Canada,49.872385,-97.1443032,Earl Grey,TRUE
Westwood Estates,,,,,,,,,,,,,,,,,,204  832-0981,,,http://www.wredevelopment.ca,,,,,,,,,,,,,,Senior Housing,,,,429 Westwood Dr,,,Winnipeg,,,MB,,R3K 2B9,Canada,49.8791252,-97.2929449,Kirkfield,TRUE
Village Square,,,,,,,,,,,,,,,,,,204  837-8948,,,,,,,,,,,,,,,,,Senior Housing,,,,505 Rouge Rd,,,Winnipeg,,,MB,,R3K 1Y3,Canada,49.8810398,-97.298248,Westwood,TRUE
Victoria Arms,,,,,,,,,,,,,,,,,,204  888-8490,,,,,,,,,,,,,,,,,Senior Housing,,,,700 Setter St,,,Winnipeg,,,MB,,R2Y 0L5,Canada,49.8834731,-97.2814252,Heritage Park,TRUE
Towers of Polo Park,,,,,,,,,,,,,,,,,,204  786-3376,,,,,,,,,,,,,,,,,Senior Housing,,,,666 St James St,,,Winnipeg,,,MB,,R3G 3J6,Canada,49.8828703,-97.2020647,Polo Park,TRUE
The Westhaven (Assisted Living),,,,william.dubreuil@atriaretirement.ca,,,,,,,,,,,,,,204  831-6742,,,http://www.atriaretirement.ca,,,,,,,,,,,,,,Senior Housing,,,,3033 Portage Ave,,,Winnipeg,,,MB,,R3K 2E3,Canada,49.8809836,-97.2810466,Sturgeon Creek,TRUE
The New Mount Royal Apts,,,,,,,,,,,,,,,,,,204  918-1200,,,,,,,,,,,,,,,,,Senior Housing,,,,2265 Portage Ave,,,Winnipeg,,,MB,,R3J 0M1,Canada,49.8764054,-97.2444197,Silver Heights,TRUE
Sturgeon Park House,,,,,,,,,,,,,,,,,,204  832-6776,,,,,,,,,,,,,,,,,Senior Housing,,,,3063 Portage Ave,,,Winnipeg,,,MB,,R3K 1Z2,Canada,49.8812652,-97.2816868,Sturgeon Creek,TRUE
Sturgeon Creek 2 Retirement Residence (Assisted Living),,,,,,,,,,,,,,,,,,,,,http://www.allseniorscare.com,,,,,,,,,,,,,,Senior Housing,,,,707 Setter St,,,Winnipeg,,,MB,,R2Y 0A4,Canada,49.8833043,-97.2796675,Heritage Park,TRUE
Sturgeon Creek 1 Retirement Residence (Assisted Living),,,,,,,,,,,,,,,,,,,,,http://www.allseniorscare.com,,,,,,,,,,,,,,Senior Housing,,,,10 Hallonquist Dr,,,Winnipeg,,,MB,,R2Y 2M5,Canada,49.882291,-97.27968,Heritage Park,TRUE
St. James Kiwanis The Terrace ( assisted living),,,,stjadmin@shaw.ca,,,,,,,,,,,,,,204 837-22305,,,http://www.stjameskiwanisvillage.ca,,,,,,,,,,,,,,Senior Housing,,,,90,,,Winnipeg,,,MB,,R3J 2Z4,Canada,49.9002468,-97.2072407,,FALSE
St. James Kiwanis Courts East,,,,stjadmin@shaw.ca,,,,,,,,,,,,,,204 837-2305,,,http://www.stjameskiwanisvillage.ca,,,,,,,,,,,,,,Senior Housing,,,,75,,,Winnipeg,,,MB,,R3J 1Y3,Canada,49.7776361,-97.156761,,FALSE
St James Legion Lodge,,,,,,,,,,,,,,,,,,,,,http://www.sam.mb.ca,,,,,,,,,,,,,,Senior Housing,,,,2730 Ness Ave,,,Winnipeg,,,MB,,R3J 1A7,Canada,49.8866515,-97.2707718,Booth,TRUE
St James Kiwanis Villa,,,,stjadmin@shaw.ca,,,,,,,,,,,,,,204  837-2305,,,http://www.stjameskiwanisvillage.ca,,,,,,,,,,,,,,Senior Housing,,,,155,,,Winnipeg,,,MB,,R3J 0H5,Canada,49.8262264,-97.1870666,,FALSE
St James Kiwanis Manor,,,,stjadmin@shaw.ca,,,,,,,,,,,,,,204  837-2305,,,http://www.stjameskiwanisvillage.ca,,,,,,,,,,,,,,Senior Housing,,,,135,,,Winnipeg,,,MB,,R3J 4A2,Canada,49.8559099,-97.0740243,,FALSE
St James Kiwanis Courts West,,,,stjadmin@shaw.ca,,,,,,,,,,,,,,204  837-2305,,,http://www.stjameskiwanisvillage.ca,,,,,,,,,,,,,,Senior Housing,,,,101,,,Winnipeg,,,MB,,R3J 2Z3,Canada,49.9665804,-97.0614586,,FALSE
St James Kiwanis Lodge,,,,stjadmin@shaw.ca,,,,,,,,,,,,,,204  837-2305,,,http://www.stjameskiwanisvillage.ca,,,,,,,,,,,,,,Senior Housing,,,,100,,,Winnipeg,,,MB,,R3J 2Z4,Canada,49.8086328,-97.0672027,,FALSE
Pinewood Place,,,,,,,,,,,,,,,,,,204  832-4159,,,http://www.globegeneral.ca,,,,,,,,,,,,,,Senior Housing,,,,2510 Portage Ave,,,Winnipeg,,,MB,,R3J 0N9,Canada,49.8746203,-97.2578408,Birchwood,TRUE
Westlands Housing Co,,,,,,,,,,,,,,,,,,204 982-2000,,,http://www.lifelease.ca,,,,,,,,,,,,,,Senior Housing,,,,50 Oddy St,,,Winnipeg,,,MB,,R2R 0L2,Canada,ERROR,ERROR,ERROR,FALSE
Villa Heidelberg Inc.,,,,villaheidelberg@shaw.ca,,,,,,,,,,,,,,204 942-7633,,,,,,,,,,,,,,,,,Senior Housing,,,,33 Edmonton St,,,Winnipeg,,,MB,,R3C 1P8,Canada,49.8844128,-97.142516,Downtown,TRUE
Park Towers,,,,,,,,,,,,,,,,,,204  896-0216,,,,,,,,,,,,,,,,,Senior Housing,,,,2300 Portage Ave,,,Winnipeg,,,MB,,R3J 0M4,Canada,49.8757192,-97.2468021,Birchwood,TRUE
Metropolitan Kiwanis Courts (Assisted Living),,,,shunter@kiwaniscourts.ca,,,,,,,,,,,,,,204  885-7700,,,,,,,,,,,,,,,,,Senior Housing,,,,2300 Ness Ave,,,Winnipeg,,,MB,,R3J 1A2,Canada,49.8851229,-97.2586123,Silver Heights,TRUE
Mandeville Towers,,,,info@globegeneral.ca,,,,,,,,,,,,,,204 889-9158,,,,,,,,,,,,,,,,,Senior Housing,,,,2075 Portage Ave,,,Winnipeg,,,MB,,R3J 0L1,Canada,49.8774962,-97.2325883,Deer Lodge,TRUE
Hillsboro House,,,,,,,,,,,,,,,,,,204  786-3301,,,,,,,,,,,,,,,,,Senior Housing,,,,616 Strathcona St,,,Winnipeg,,,MB,,R3G 3E8,Canada,49.88383,-97.192839,Minto,TRUE
Hamilton House,,,,,,,,,,,,,,,,,,204  942-0991,,,,,,,,,,,,,,,,,Senior Housing,,,,475 Hamilton Ave,,,Winnipeg,,,MB,,R2Y 2G5,Canada,49.8917997,-97.3140999,Crestview,TRUE
David Estates,,,,,,,,,,,,,,,,,,204  837-5440,,,http://www.wredevelopment.ca,,,,,,,,,,,,,,Senior Housing,,,,3563/3567 Portage Ave,,,Winnipeg,,,MB,,R3K 2E1,Canada,49.8828915,-97.3081351,Crestview,TRUE
Carillon Towers,,,,,,,,,,,,,,,,,,204 898-6973,,,http://www.towersrealty.ca,,,,,,,,,,,,,,Senior Housing,,,,1790 Portage Ave,,,Winnipeg,,,MB,,R3J 0E9,Canada,49.8785115,-97.2113594,Bruce Park,TRUE
Birchwood Terrace,,,,,,,,,,,,,,,,,,204  837-6911,,,http://www.rentcanada.com,,,,,,,,,,,,,,Senior Housing,,,,2440 Portage Ave,,,Winnipeg,,,MB,,R3J 0N5,Canada,49.8748769,-97.2549157,Birchwood,TRUE
Courts of St. James,,,,,,,,,,,,,,,,,,888-3747 xt 305,,,,,,,,,,,,,,,,,Senior Housing,,,,2727 Portage Ave,,,Winnipeg,,,MB,,R3J 0R2,Canada,49.8786535,-97.2727714,Booth,TRUE
Billingsley Manor,,,,,,,,,,,,,,,,,,204  889-7012,,,,,,,,,,,,,,,,,Senior Housing,,,,2515 Portage Ave,,,Winnipeg,,,MB,,R3J 0P2,Canada,49.8753512,-97.2581661,Silver Heights,TRUE
Quail Ridge Estates,,,,,,,,,,,,,,,,,,204  885-0769,,,,,,,,,,,,,,,,,Senior Housing,,,,210 Quail Ridge Rd,,,Winnipeg,,,MB,,R2Y 2N1,Canada,49.9003,-97.279665,Heritage Park,TRUE
Ashbury Place,,,,info@marwest.ca,,,,,,,,,,,,,,204  832-5847,,,,,,,,,,,,,,,,,Senior Housing,,,,299 Queen St,,,Winnipeg,,,MB,,R3J 3V5,Canada,49.8827228,-97.2069772,King Edward,TRUE
529 Country Club Blvd,,,,,,,,,,,,,,,,,,,,,,,,,,,,,,,,,,,Senior Housing,,,,529 Country Club Blvd,,,Winnipeg,,,MB,,R3K 1Z8,Canada,49.8792352,-97.282364,Kirkfield,TRUE
455 Westwood Drive,,,,westwood455@hotmail.com,,,,,,,,,,,,,,204 889-6073,,,,,,,,,,,,,,,,,Senior Housing,,,,455 Westwood Drive,,,Winnipeg,,,MB,,R3K 1W6,Canada,49.8799408,-97.2928296,Kirkfield,TRUE
2600/2610 Portage Ave,,,,,,,,,,,,,,,,,,204 832-3693,,,http://www.rentcanada.com,,,,,,,,,,,,,,Senior Housing,,,,2600/2610 Portage Ave,,,Winnipeg,,,MB,,R3J 3R2,Canada,49.876428,-97.2676905,Birchwood,TRUE
22 Strauss Dr,,,,,,,,,,,,,,,,,,,,,,,,,,,,,,,,,,,Senior Housing,,,,22 Struass Dr,,,Winnipeg,,,MB,,R3J 3V2,Canada,49.8877274,-97.2627724,Booth,TRUE
Willowlake Gardens,,,,propertymgmt@ladcocompany.com,,,,,,,,,,,,,,204 253-9753,,,http://www.rentcanada.com,,,,,,,,,,,,,,Senior Housing,,,,321,,,Winnipeg,,,MB,,R2J 3E6,Canada,49.9148875,-97.136342,William Whyte,FALSE
Wickham Park,,,,wickhamprk@ladcocompay.com,,,,,,,,,,,,,,204 254-7143,,,http://www.rentcanada.com,,,,,,,,,,,,,,Senior Housing,,,,100 Wickham Rd,,,Winnipeg,,,MB,,R2J 2L4,Canada,49.8731769,-97.0832872,Maginot,TRUE
Villa Aulneau (Assisted Living),,,,glambert@despinscharities.ca,,,,,,,,,,,,,,204 594-6300,,,http://www.villaaulneau.ca,,,,,,,,,,,,,,Senior Housing,,,,601 Aulneau Street,,,Winnipeg,,,MB,,R2H 2V5,Canada,49.8903439,-97.1203657,Central St. Boniface,TRUE
Residence Despins (Assisted Living),,,,afoidart@despinscharities.ca,,,,,,,,,,,,,,204 480-2900,,,http://www.resdespins.ca,,,,,,,,,,,,,,Senior Housing,,,,151,,,Winnipeg,,,MB,,R2H 0L7,Canada,49.9131513,-97.1304717,North Point Douglas,FALSE
Place St. Boniface,,,,,,,,,,,,,,,,,,204 231-1050,,,,,,,,,,,,,,,,,Senior Housing,,,,325,,,Winnipeg,,,MB,,R2H 1C3,Canada,49.914994,-97.136488,William Whyte,FALSE
Place Rennes,,,,,,,,,,,,,,,,,,204 235-0568,,,,,,,,,,,,,,,,,Senior Housing,,,,344,,,Winnipeg,,,MB,,R2H 1C5,Canada,49.914823,-97.1373708,William Whyte,FALSE
Manoir de la Cathedrale Manor (Assisted Living),,,,rhonda@cathedralemanor.ca,,,,,,,,,,,,,,204 231-2277,,,http://www.calebgroup.ca,,,,,,,,,,,,,,Senior Housing,,,,321,,,Winnipeg,,,MB,,R2H 0A3,Canada,49.9148875,-97.136342,William Whyte,FALSE
Maison Dorchester,,,,,,,,,,,,,,,,,,204 990-1253,,,,,,,,,,,,,,,,,Senior Housing,,,,300 Marion St,,,Winnipeg,,,MB,,R2H 0T9,Canada,49.881634,-97.1138302,Norwood East,TRUE
Legion Towers,,,,,,,,,,,,,,,,,,,,,,,,,,,,,,,,,,,Senior Housing,,,,270 Kenny St,,,Winnipeg,,,MB,,R2H 2E5,Canada,49.880324,-97.1199,Norwood East,TRUE
Laval Apts,,,,,,,,,,,,,,,,,,204 898-7264,,,,,,,,,,,,,,,,,Senior Housing,,,,932 Archibald St,,,Winnipeg,,,MB,,R2J 0Z1,Canada,49.8703991,-97.0922895,Windsor Park,TRUE
Holy Cross Manor,,,,,,,,,,,,,,,,,,204 237 -6177,,,,,,,,,,,,,,,,,Senior Housing,,,,266,,,Winnipeg,,,MB,,R2H 1B7,Canada,49.9138512,-97.1344084,William Whyte,FALSE
Villa Fel Rodriguez Housing Co,,,,,,,,,,,,,,,,,,204  982-2000,,,,,,,,,,,,,,,,,Senior Housing,,,,442 William Ave,,,Winnipeg,,,MB,,R3A 0J6,Canada,49.9014827,-97.1476398,West Alexander,FALSE
Sunset House,,,,,,,,,,,,,,,,,,204 772-0508,,,,,,,,,,,,,,,,,Senior Housing,,,,888 Arlington St,,,Winnipeg,,,MB,,R3E 2E4,Canada,49.9040124,-97.1683959,Daniel Mcintyre,TRUE
St Andrews Place,,,,,,,,,,,,,,,,,,204 942-0991,,,http://www.sam.mb.ca,,,,,,,,,,,,,,Senior Housing,,,,425 Elgin Ave,,,Winnipeg,,,MB,,R3A 1P2,Canada,49.9023055,-97.1453952,Centennial,TRUE
Sek On Toi,,,,,,,,,,,,,,,,,,204 - 947-1705,,,,,,,,,,,,,,,,,Senior Housing,,,,289 Pacific Ave,,,Winnipeg,,,MB,,R3B 3B7,Canada,49.9020773,-97.1392126,Downtown,TRUE
Roney Plaza,,,,,,,,,,,,,,,,,,204 944-8776,,,,,,,,,,,,,,,,,Senior Housing,,,,10 Edmonton St,,,Winnipeg,,,MB,,R3C 1P7,Canada,49.883842,-97.143008,Downtown,TRUE
Rideau Towers,,,,,,,,,,,,,,,,,,204 947-9732,,,http://www.crystalproperties.ca,,,,,,,,,,,,,,Senior Housing,,,,90 Garry St,,,Winnipeg,,,MB,,R3C 4J4,Canada,49.887417,-97.1376091,Downtown,TRUE
Place Promenade,,,,,,,,,,,,,,,,,,204 988-6880,,,,,,,,,,,,,,,,,Senior Housing,,,,400 410 420 Webb Pl,,,Winnipeg,,,MB,,R3B 3J3,Canada,49.89309,-97.1490612,Downtown,TRUE
Pamela Apts,,,,,,,,,,,,,,,,,,204 416-5552,,,,,,,,,,,,,,,,,Senior Housing,,,,761 Wolseley Ave,,,Winnipeg,,,MB,,R3G 1C5,Canada,49.880575,-97.163074,Wolseley,TRUE
McClure Place Inc.,,,,,,,,,,,,,,,,,,,,,http://www.sam.mb.ca,,,,,,,,,,,,,,Senior Housing,,,,533 Greenwood Pl,,,Winnipeg,,,MB,,R3G 3M1,Canada,49.883138,-97.179457,Wolseley,TRUE
Lions Place,,,,,,,,,,,,,,,,,,204 784-1273,,,http://www.lhc.ca,,,,,,,,,,,,,,Senior Housing,,,,610 Portage Ave,,,Winnipeg,,,MB,,R3C 0G5,Canada,49.8885219,-97.1569508,West Broadway,TRUE
Lions Manor,,,,,,,,,,,,,,,,,,204 784-1239,,,http://www.lhc.ca,,,,,,,,,,,,,,Senior Housing,,,,320 Sherbrook St,,,Winnipeg,,,MB,,R3B 2W6,Canada,49.8889706,-97.1596464,St. Matthews,TRUE
Le Chateau York,,,,leasing@lechateauyork.com,,,,,,,,,,,,,,204 942-7784,,,,,,,,,,,,,,,,,Senior Housing,,,,134 Smith St,,,Winnipeg,,,MB,,R3C 3W2,Canada,49.889346,-97.14009,Downtown,TRUE
Lar Santa Isabel,,,,,,,,,,,,,,,,,,204 982-2000,,,,,,,,,,,,,,,,,Senior Housing,,,,857 Wall St,,,Winnipeg,,,MB,,R3G 2T9,Canada,49.8909604,-97.1820841,Minto,TRUE
Madison Memorial Lodge,,,,,,,,,,,,,,,,,,204 956-4344,,,,,,,,,,,,,,,,,Senior Housing,,,,210 Evanson St,,,Winnipeg,,,MB,,R3G 3K9,Canada,49.8836193,-97.1708188,Wolseley,TRUE
Kirby Terrace,,,,,,,,,,,,,,,,,,204 942-2554,,,,,,,,,,,,,,,,,Senior Housing,,,,393 Kennedy St,,,Winnipeg,,,MB,,R3B 3H2,Canada,49.895494,-97.149948,Downtown,TRUE
Keystone Senior Citizens Housing,,,,,,,,,,,,,,,,,,204 489-9510,,,,,,,,,,,,,,,,,Senior Housing,,,,224 Colony St,,,Winnipeg,,,MB,,R3C 3X9,Canada,49.8874518,-97.1514548,West Broadway,TRUE
Kelly House,,,,,,,,,,,,,,,,,,204 956-1221,,,,,,,,,,,,,,,,,Senior Housing,,,,15 Carlton St,,,Winnipeg,,,MB,,R3C 1N8,Canada,49.8847287,-97.1412339,Downtown,TRUE
Fort Garry Place I,,,,55garry@edisonproperties.ca,,,,,,,,,,,,,,204 940-3478,,,http://www.edisonpropertis.ca,,,,,,,,,,,,,,Senior Housing,,,,55 Garry St,,,Winnipeg,,,MB,,R3C 4H4,Canada,49.8865762,-97.1364334,Downtown,TRUE
Fort Garry Place III,,,,20fort@edisonproperties.ca,,,,,,,,,,,,,,240  940-3475,,,http://www.edisonproperties.ca,,,,,,,,,,,,,,Senior Housing,,,,20 Fort St,,,Winnipeg,,,MB,,R3C 4L3,Canada,49.8869254,-97.1356759,Downtown,TRUE
Ellice Place (Assisted Living),,,,Ellice.SHAL@gov.mb.ca,,,,,,,,,,,,,,204-948-2328,,,,,,,,,,,,,,,,,Senior Housing,,,,555 Ellice Ave,,,Winnipeg,,,MB,,R3B 3C4,Canada,49.8929989,-97.1564468,Spence,TRUE
Eastry House,,,,,,,,,,,,,,,,,,204 956-5548,,,,,,,,,,,,,,,,,Senior Housing,,,,61 Edmonton St,,,Winnipeg,,,MB,,R3C 1P9,Canada,49.885305,-97.142965,Downtown,TRUE
Downtown Commons,,,,c.wels@uwinnipeg.ca,,,,,,,,,,,,,,204 988-7678,,,,,,,,,,,,,,,,,Senior Housing,,,,320 Colony Street,,,Winnipeg,,,MB,,R3C 0S8,Canada,49.8898214,-97.1515095,Colony,TRUE
Grenoble Manor,,,,,,,,,,,,,,,,,,204 257-5838,,,,,,,,,,,,,,,,,Senior Housing,,,,415,,,Winnipeg,,,MB,,R2H 2X6,Canada,49.9162873,-97.1406507,William Whyte,FALSE
Grandview Apts,,,,,,,,,,,,,,,,,,204 297-4527,,,http://www.towersrealty.ca,,,,,,,,,,,,,,Senior Housing,,,,77 85 93 Eugenie St,,,Winnipeg,,,MB,,R2H 0X6,Canada,49.8797246,-97.1252832,Norwood East,TRUE
Foyer Vincent Inc.,,,,foyer@mts.net,,,,,,,,,,,,,,204 233-1925,,,,,,,,,,,,,,,,,Senior Housing,,,,200 Horace St,,,Winnipeg,,,MB,,R2H 0W5,Canada,49.8804011,-97.1192105,Norwood East,TRUE
Eiffel Tower B,,,,,,,,,,,,,,,,,,204 231-2215,,,http://www.globegeneral.ca,,,,,,,,,,,,,,Senior Housing,,,,261 Goulet St,,,Winnipeg,,,MB,,R2H 0S3,Canada,49.882852,-97.116465,Central St. Boniface,TRUE
Eiffel Tower A,,,,,,,,,,,,,,,,,,204 237-8013,,,http://www.globegeneral.ca,,,,,,,,,,,,,,Senior Housing,,,,291 Goulet St,,,Winnipeg,,,MB,,R2H 0S4,Canada,49.882906,-97.1149116,Central St. Boniface,TRUE
Dawson Trail Apartments,,,,,,,,,,,,,,,,,,204 256-1011,,,http://www.wredevelopment.ca,,,,,,,,,,,,,,Senior Housing,,,,5 25 35 45 & 55 Leveque St,,,Winnipeg,,,MB,,R2J 0T6,Canada,49.8584053,-97.0520636,Windsor Park,TRUE
Columbus Manor,,,,,,,,,,,,,,,,,,204 233-7080,,,,,,,,,,,,,,,,,Senior Housing,,,,100 303 Goulet St,,,Winnipeg,,,MB,,R2H 3C4,Canada,49.8829844,-97.1134886,Central St. Boniface,TRUE
Colonial Courts,,,,,,,,,,,,,,,,,,204 233-7916,,,,,,,,,,,,,,,,,Senior Housing,,,,1006 1024 Archibald St,,,Winnipeg,,,MB,,R2J 0Z1,Canada,49.8673839,-97.0909985,Windsor Park,TRUE
Chez Nous,,,,,,,,,,,,,,,,,,204 233-7761,,,,,,,,,,,,,,,,,Senior Housing,,,,187 de la Cathedrale Ave,,,Winnipeg,,,MB,,R2H 3C6,Canada,49.8899925,-97.1211566,Central St. Boniface,TRUE
Chateau Guay,,,,231goulet@edisonproperties.ca,,,,,,,,,,,,,,204 940-3485,,,http://www.EdisonProperties.ca,,,,,,,,,,,,,,Senior Housing,,,,231 Goulet St,,,Winnipeg,,,MB,,R2H 0S1,Canada,49.8827685,-97.1180664,Central St. Boniface,TRUE
Catherine Place (Assisted Living),,,,info@catherineplace.com,,,,,,,,,,,,,,204 231-0999,,,http://www.catherineplace.com,,,,,,,,,,,,,,Senior Housing,,,,190 Raymond Pl,,,Winnipeg,,,MB,,R2H 1C8,Canada,49.8783794,-97.1178297,Norwood East,TRUE
Enfield Estates,,,,,,,,,,,,,,,,,,204 237-6682,,,,,,,,,,,,,,,,,Senior Housing,,,,358,,,Winnipeg,,,MB,,R2H 1C7,Canada,49.9151239,-97.1383813,William Whyte,FALSE
875 Elizabeth Rd,,,,,,,,,,,,,,,,,,,,,,,,,,,,,,,,,,,Senior Housing,,,,875 Elizabeth Rd,,,Winnipeg,,,MB,,R2J 3K6,Canada,49.8714308,-97.0815643,Maginot,TRUE
101 Marion St,,,,,,,,,,,,,,,,,,204 945-4663,,,,,,,,,,,,,,,,,Senior Housing,,,,101 Marion St,,,Winnipeg,,,MB,,R2H 3C5,Canada,49.8816538,-97.124732,Central St. Boniface,TRUE
Colony Creek,,,,,,,,,,,,,,,,,,204 775-3855,,,http://www.sussexrealty.ca,,,,,,,,,,,,,,Senior Housing,,,,250 Colony St,,,Winnipeg,,,MB,,R3C 3L8,Canada,49.8880415,-97.1515137,West Broadway,TRUE
Chateau 100,,,,,,,,,,,,,,,,,,204 452-0110,,,http://www.qualitymanagement.ca,,,,,,,,,,,,,,Senior Housing,,,,72 Donald St,,,Winnipeg,,,MB,,R3C 1L7,Canada,49.8867492,-97.1401813,Downtown,TRUE
Betelstadur Housing Co,,,,betelstadur@shaw.ca,,,,,,,,,,,,,,204 772-7164,,,http://www.sam.mb.ca,,,,,,,,,,,,,,Senior Housing,,,,Ltd 1061 Sargent Ave,,,Winnipeg,,,MB,,R3E 3M6,Canada,49.897529,-97.183653,Sargent Park,FALSE
Colony Square,,,,,,,,,,,,,,,,,,204 515-6416,,,http://www.timbercreekcommunities.com,,,,,,,,,,,,,,Senior Housing,,,,555 St Mary Ave,,,Winnipeg,,,MB,,R3C 3X4,Canada,49.8892875,-97.1523577,Colony,TRUE
Autumn House Inc.,,,,,,,,,,,,,,,,,,204 772-5929,,,,,,,,,,,,,,,,,Senior Housing,,,,100 790 Wellington Ave,,,Winnipeg,,,MB,,R3E 3K9,Canada,49.9000975,-97.1680906,Daniel Mcintyre,TRUE
Arms Of The Cross Housing Inc.,,,,,,,,,,,,,,,,,,204 942-0991,,,http://www.sam.mb.ca,,,,,,,,,,,,,,Senior Housing,,,,555 Burnell St,,,Winnipeg,,,MB,,R3G 2L7,Canada,49.8939335,-97.1698883,Daniel Mcintyre,TRUE
Baptist Mission Apts,,,,,,,,,,,,,,,,,,204 837-7118,,,,,,,,,,,,,,,,,Senior Housing,,,,777 Sargent Ave,,,Winnipeg,,,MB,,R3E 0B6,Canada,49.8970402,-97.1677087,Daniel Mcintyre,TRUE
515 Elgin Ave,,,,,,,,,,,,,,,,,,,,,,,,,,,,,,,,,,,Senior Housing,,,,515 Elgin Ave,,,Winnipeg,,,MB,,R3A 1N9,Canada,49.90354,-97.149505,Centennial,TRUE
"ArlingtonHaus, Inc. (Independent & Assisted Living)",,,,kweihs@bethania.ca,,,,,,,,,,,,,,204 783-3752,,,,,,,,,,,,,,,,,Senior Housing,,,,880 Arlington St,,,Winnipeg,,,MB,,R3E 3H2,Canada,49.9035644,-97.168499,Daniel Mcintyre,TRUE
444 Kennedy St,,,,,,,,,,,,,,,,,,,,,,,,,,,,,,,,,,,Senior Housing,,,,444 Kennedy St,,,Winnipeg,,,MB,,R3B 2N5,Canada,49.896674,-97.151441,Downtown,TRUE
470 Pacific Ave,,,,,,,,,,,,,,,,,,,,,,,,,,,,,,,,,,,Senior Housing,,,,470 Pacific Ave,,,Winnipeg,,,MB,,R3A 1R6,Canada,49.9041361,-97.1469148,Centennial,TRUE
195 Young St,,,,ute.mckee@gov.mb.ca,,,,,,,,,,,,,,204 945-1263,,,,,,,,,,,,,,,,,Senior Housing,,,,195 Young St,,,Winnipeg,,,MB,,R3C 3S8,Canada,49.8860023,-97.1551518,West Broadway,TRUE
385 Carlton St,,,,,,,,,,,,,,,,,,,,,,,,,,,,,,,,,,,Senior Housing,,,,385 Carlton St,,,Winnipeg,,,MB,,R3B 3A1,Canada,49.8959385,-97.1473468,Downtown,TRUE
340 Princess St,,,,,,,,,,,,,,,,,,,,,,,,,,,,,,,,,,,Senior Housing,,,,340 Princess St,,,Winnipeg,,,MB,,R3B 1M6,Canada,49.9054896,-97.1377572,Logan - C.P.R.,TRUE
Westminster Court,,,,,,,,,,,,,,,,,,204 275-5614,,,,,,,,,,,,,,,,,Senior Housing,,,,2945 Pembina hwy,,,Winnipeg,,,MB,,R3T 3R1,Canada,49.7859849,-97.158268,Richmond West,TRUE
Vialoux Village,,,,,,,,,,,,,,,,,,204  417-2528,,,,,,,,,,,,,,,,,Senior Housing,,,,3420 Vialoux Dr,,,Winnipeg,,,MB,,R3R 0A4,Canada,49.8704454,-97.2579617,Vialoux,TRUE
The Wellington (Assisted Living),,,,thewellington@reveraliving.com,,,,,,,,,,,,,,204  831-0788,,,http://www.reveraliving.com,,,,,,,,,,,,,,Senior Housing,,,,3161 Grant Ave,,,Winnipeg,,,MB,,R3R 3R1,Canada,49.859363,-97.251533,Varsity View,TRUE
Swedish Canadian Home for Senior Citizens,,,,,,,,,,,,,,,,,,204  942-0991,,,http://www.sam.mb.ca,,,,,,,,,,,,,,Senior Housing,,,,5419 Roblin Blvd,,,Winnipeg,,,MB,,R3R 0G8,Canada,49.860089,-97.291603,Southboine,TRUE
Portsmouth Retirement Residence (Assisted Living),,,,retirementinfo@reveraliving.com,,,,,,,,,,,,,,204  284-5432,,,http://www.reveraliving.com,,,,,,,,,,,,,,Senior Housing,,,,125 Portsmouth Blvd,,,Winnipeg,,,MB,,R3P 2M3,Canada,49.8526152,-97.2165075,South Tuxedo,TRUE
"Manitoba Eastern Star Chalet, Inc.",,,,chalet@oesmanitoba.ca,,,,,,,,,,,,,,204  889-3687,,,http://www.oesmanitoba.ca,,,,,,,,,,,,,,Senior Housing,,,,Box 13 525 Cathcart St,,,Winnipeg,,,MB,,R3R 0S6,Canada,ERROR,ERROR,ERROR,FALSE
Haven Two,,,,,,,,,,,,,,,,,,204 942-0991,,,http://www.sam.mb.ca,,,,,,,,,,,,,,Senior Housing,,,,1,,,Winnipeg,,,MB,,R3N 1Z5,Canada,49.8889879,-97.1348085,,FALSE
Charlesdale Gardens,,,,,,,,,,,,,,,,,,204  896-6705,,,,,,,,,,,,,,,,,Senior Housing,,,,3201 Grant Ave,,,Winnipeg,,,MB,,R3R 2A3,Canada,49.8589766,-97.2542003,Varsity View,TRUE
Century Roblin / Century Place,,,,,,,,,,,,,,,,,,204  832-2404,,,,,,,,,,,,,,,,,Senior Housing,,,,3500 Roblin Ave,,,Winnipeg,,,MB,,R3R 0C8,Canada,49.867784,-97.258591,Varsity View,TRUE
Bridgewater Heights,,,,,,,,,,,,,,,,,,204 505-5484,,,http://www.broadstreet.ca,,,,,,,,,,,,,,Senior Housing,,,,225 North Town Rd,,,Winnipeg,,,MB,,R3Y 0P6,Canada,49.7994613,-97.1923426,Waverley West,TRUE
Bramble Estates,,,,,,,,,,,,,,,,,,204  837-2243,,,,,,,,,,,,,,,,,Senior Housing,,,,3901 Grant Ave,,,Winnipeg,,,MB,,R3R 2Z4,Canada,49.8595445,-97.2628064,Varsity View,TRUE
Boulton Estates,,,,info@marwest.ca,,,,,,,,,,,,,,204  489-1098,,,,,,,,,,,,,,,,,Senior Housing,,,,690 Kenaston Blvd,,,Winnipeg,,,MB,,R3N 1Z3,Canada,49.8530828,-97.2059566,Mathers,TRUE
Columbus Courts Inc.,,,,brenda@lifelease.ca,,,,,,,,,,,,,,204  982-2000,,,,,,,,,,,,,,,,,Senior Housing,,,,253 Edgeland Blvd,,,Winnipeg,,,MB,,R3P 0S1,Canada,49.867647,-97.210634,Edgeland,TRUE
Assiniboine Links (Assisted Living),,,,assiniboinelinks@shaw.ca,,,,,,,,,,,,,,204 897-6854,,,,,,,,,,,,,,,,,Senior Housing,,,,4025 Roblin Blvd,,,Winnipeg,,,MB,,R3R 3V5,Canada,49.8678743,-97.2675514,Ridgedale,TRUE
Villa Nova Senior Home,,,,jnasuti@shaw.ca,,,,,,,,,,,,,,204 489-8648,,,,,,,,,,,,,,,,,Senior Housing,,,,1035 Wilkes Ave,,,Winnipeg,,,MB,,R3P 1T1,Canada,49.8476849,-97.1912047,Brockville,TRUE
The Waverley (Assisted living),,,,thewaverley@reveraliving.com,,,,,,,,,,,,,,204 487-9600,,,http://www.reveraliving.com,,,,,,,,,,,,,,Senior Housing,,,,857 Wilkes Ave,,,Winnipeg,,,MB,,R3P 2M2,Canada,49.8482311,-97.1806203,Brockville,TRUE
Shaftesbury Park Retirement Residence (Assisted Living),,,,,,,,,,,,,,,,,,204  885-7272,,,http://www.allseniorscare.com,,,,,,,,,,,,,,Senior Housing,,,,905 Shaftesbury Blvd,,,Winnipeg,,,MB,,R3P 0Y3,Canada,49.846204,-97.230024,South Tuxedo,TRUE
The Parkway II (Assisted Living),,,,reception@theparkway.ca,,,,,,,,,,,,,,204  487-8500,,,,,,,,,,,,,,,,,Senior Housing,,,,95 Paget Street,,,Winnipeg,,,MB,,R3P 1E8,Canada,49.8433092,-97.194053,Brockville,TRUE
The Parkway II,,,,reception@theparkway.ca,,,,,,,,,,,,,,204  487-8500,,,,,,,,,,,,,,,,,Senior Housing,,,,95 Paget Street,,,Winnipeg,,,MB,,R3P 1E8,Canada,49.8433092,-97.194053,Brockville,TRUE
Summerland Apartments,,,,summerland2@yahoo.ca,,,,,,,,,,,,,,204 269-7677,,,http://www.wredevelopment.ca,,,,,,,,,,,,,,Senior Housing,,,,77,,,Winnipeg,,,MB,,R3T 3N8,Canada,49.82833,-97.1091055,St. Vital Centre,FALSE
Sterling House (Assisted Living),,,,,,,,,,,,,,,,,,204 489-4745,,,http://www.homesteadmanitoba.ca,,,,,,,,,,,,,,Senior Housing,,,,909 Wilkes Ave,,,Winnipeg,,,MB,,R3P 2S5,Canada,49.8471986,-97.1849367,Brockville,TRUE
Southview Plaza,,,,,,,,,,,,,,,,,,204 269-8078,,,,,,,,,,,,,,,,,Senior Housing,,,,2080 Pembina hwy,,,Winnipeg,,,MB,,R3T 2G9,Canada,49.8153107,-97.150537,Montcalm,TRUE
The Parkway (Assisted Living),,,,,,,,,,,,,,,,,,204 487-8500,,,http://www.theparkway.ca,,,,,,,,,,,,,,Senior Housing,,,,85 Paget St,,,Winnipeg,,,MB,,R3P 0Y8,Canada,49.84369,-97.193331,Brockville,TRUE
Silverview Estates,,,,,,,,,,,,,,,,,,204 275-5644,,,,,,,,,,,,,,,,,Senior Housing,,,,2141 Pembina Hwy,,,Winnipeg,,,MB,,R3T 5S9,Canada,49.8130224,-97.1522962,Montcalm,TRUE
Riverwood Square (The Landing,,,,lsherrin@riverwoodsquare.com,,,,,,,,,,,,,,204 275-7632,,,http://www.riverwoodsquare.com,,,,,,,,,,,,,,Senior Housing,,,,Assisted living 1778 Pembina Hwy,,,Winnipeg,,,MB,,R3T 1R2,Canada,49.8256662,-97.1520582,Pembina Strip,FALSE
Richmond Village,,,,,,,,,,,,,,,,,,204 269-1649,,,http://www.rentcanada.com,,,,,,,,,,,,,,Senior Housing,,,,106 160 Ulster St,,,Winnipeg,,,MB,,R3T 4W3,Canada,49.7943486,-97.1518507,Fort Richmond,TRUE
Rembrandt Gardens,,,,,,,,,,,,,,,,,,204 275-3289,,,,,,,,,,,,,,,,,Senior Housing,,,,2393 & 2395 Pembina Hwy,,,Winnipeg,,,MB,,R3T 2H4,Canada,49.8049246,-97.1569082,Montcalm,TRUE
Richmond Gardens,,,,gwsc@shaw.ca,,,,,,,,,,,,,,204 261-8145,,,,,,,,,,,,,,,,,Senior Housing,,,,2900 Pembina Hwy,,,Winnipeg,,,MB,,R3T 3Z3,Canada,49.786678,-97.156436,Fort Richmond,TRUE
Lindenwood Terrace (Assisted Living),,,,ltadmin@lindenwood.ca,,,,,,,,,,,,,,204 489-2112,,,http://www.lindenwood.ca,,,,,,,,,,,,,,Senior Housing,,,,100 475 Lindenwood Dr,,,Winnipeg,,,MB,,R3P 2P3,Canada,49.8277245,-97.2002722,Linden Woods,TRUE
Fort Garry Rotary Villa,,,,,,,,,,,,,,,,,,,,,,,,,,,,,,,,,,,Senior Housing,,,,528 Hudson St,,,Winnipeg,,,MB,,R3T 4E3,Canada,49.8290435,-97.1539524,Maybank,TRUE
Lindenwood Manor (Assisted Living),,,,ltadmin@lindenwood.ca,,,,,,,,,,,,,,204 475-9990,,,http://www.lindenwood.ca,,,,,,,,,,,,,,Senior Housing,,,,100 475 Lindenwood Dr,,,Winnipeg,,,MB,,R3P 2P3,Canada,49.8277245,-97.2002722,Linden Woods,TRUE
Fort Garry Plaza,,,,kiwanis@mts.net,,,,,,,,,,,,,,204 475-6412,,,,,,,,,,,,,,,,,Senior Housing,,,,230 970 Point Rd,,,Winnipeg,,,MB,,R3T 1E1,Canada,49.847698,-97.1513839,Point Road,TRUE
Delta Manor,,,,100adamar@edisonproperties.ca,,,,,,,,,,,,,,204 940-3480,,,http://www.edisonproperties.ca,,,,,,,,,,,,,,Senior Housing,,,,100 Adamar Rd,,,Winnipeg,,,MB,,R3T 3X6,Canada,49.8250457,-97.150074,Pembina Strip,TRUE
Chancellor Gate,,,,,,,,,,,,,,,,,,204 415-5712,,,http://www.karmaproperties.ca,,,,,,,,,,,,,,Senior Housing,,,,100 919 Chancellor Dr,,,Winnipeg,,,MB,,R3T 6B5,Canada,49.8163089,-97.153917,Montcalm,TRUE
Cooperative Chalet St. Norbert Ltd.,,,,chaletstnorbert@shawbiz.ca,,,,,,,,,,,,,,204 275-0901,,,,,,,,,,,,,,,,,Senior Housing,,,,80 St Pierre St,,,Winnipeg,,,MB,,R3V 1J8,Canada,49.764214,-97.143096,St. Norbert,TRUE
Baylor Place,,,,,,,,,,,,,,,,,,204 269-5643,,,http://www.rentcanada.com,,,,,,,,,,,,,,Senior Housing,,,,110 Baylor Pl,,,Winnipeg,,,MB,,R3T 3K1,Canada,49.7852181,-97.1528416,Fort Richmond,TRUE
Arizona Plaza,,,,,,,,,,,,,,,,,,204 275-0884,,,http://www.wredevelopment.ca,,,,,,,,,,,,,,Senior Housing,,,,1650 Pembina Hwy,,,Winnipeg,,,MB,,R3T 2G3,Canada,49.8299501,-97.1509218,Crescent Park,TRUE
Adamar  Manor,,,,110adamar@edisonproperties.ca,,,,,,,,,,,,,,204 940-3481,,,http://www.edistonproperties.ca,,,,,,,,,,,,,,Senior Housing,,,,110 Adamar Rd,,,Winnipeg,,,MB,,R3T 3M3,Canada,49.8243193,-97.1499107,Pembina Strip,TRUE
Olympic Towers,,,,,,,,,,,,,,,,,,204 898 -7165,,,,,,,,,,,,,,,,,Senior Housing,,,,480 Charles St,,,Winnipeg,,,MB,,R2W 4B9,Canada,49.9231199,-97.1291802,St. John's,TRUE
Park Royal Apts.,,,,,,,,,,,,,,,,,,204  336 0098,,,,,,,,,,,,,,,,,Senior Housing,,,,1050 McGregor St,,,Winnipeg,,,MB,,R2V 2J3,Canada,49.9470506,-97.1261433,Margaret Park,TRUE
Northwood Oaks,,,,,,,,,,,,,,,,,,204  633-2708,,,http://www.globegeneral.ca,,,,,,,,,,,,,,Senior Housing,,,,1452 Jefferson Ave,,,Winnipeg,,,MB,,R2P 0Z2,Canada,49.9563003,-97.1727731,The Maples,TRUE
Monash Manor Inc.,,,,,,,,,,,,,,,,,,204 942-0991,,,http://www.sam.mb.ca,,,,,,,,,,,,,,Senior Housing,,,,865 Sinclair St,,,Winnipeg,,,MB,,R2V 3H3,Canada,49.9416152,-97.1418638,Garden City,TRUE
Luther Home,,,,rhardie@lutherhome.mb.ca,,,,,,,,,,,,,,204 338-4641,,,http://www.lutherhome.com,,,,,,,,,,,,,,Senior Housing,,,,1084 Powers St,,,Winnipeg,,,MB,,R2V 2G8,Canada,49.944717,-97.122287,Jefferson,TRUE
Luther Home,,,,rhardie@lutherhome.mb.ca,,,,,,,,,,,,,,204 336-5391,,,http://www.lutherhome.com,,,,,,,,,,,,,,Senior Housing,,,,1080 Powers Street,,,Winnipeg,,,MB,,R2V 2G8,Canada,49.9443753,-97.1219321,Jefferson,TRUE
Leila Square,,,,,,,,,,,,,,,,,,204 633-2085,,,,,,,,,,,,,,,,,Senior Housing,,,,207 211 215 Watson St,,,Winnipeg,,,MB,,R2P 2E1,Canada,49.9545036,-97.1524239,Leila - McPhillips Triangle,TRUE
H.S.B.A. Gardens,,,,,,,,,,,,,,,,,,204 338-4671,,,,,,,,,,,,,,,,,Senior Housing,,,,1001 Sinclair St,,,Winnipeg,,,MB,,R2V 3E7,Canada,49.9468272,-97.1366163,Garden City,TRUE
Garden Towers,,,,,,,,,,,,,,,,,,204 339-4687,,,,,,,,,,,,,,,,,Senior Housing,,,,611 Jefferson Ave,,,Winnipeg,,,MB,,R2V 0P4,Canada,49.940892,-97.140561,Garden City,TRUE
Crystallite Apartments,,,,,,,,,,,,,,,,,,204 338-1137,,,http://www.crystalproperties.ca,,,,,,,,,,,,,,Senior Housing,,,,445 Partridge Ave,,,Winnipeg,,,MB,,R2V 3H6,Canada,49.945574,-97.1254321,Jefferson,TRUE
D.A.L.A.C.P.T. Housing Co,,,,,,,,,,,,,,,,,,204 982-2000,,,,,,,,,,,,,,,,,Senior Housing,,,,200 Watson St,,,Winnipeg,,,MB,,R2P 1Z6,Canada,49.9527849,-97.1529127,Leila - McPhillips Triangle,FALSE
Winwood Gardens,,,,,,,,,,,,,,,,,,204 668-4700,,,,,,,,,,,,,,,,,Senior Housing,,,,1150 1152 1154 Munroe Ave,,,Winnipeg,,,MB,,R2K 3S4,Canada,49.9063446,-97.0680469,Munroe East,TRUE
Silverlion Apts,,,,,,,,,,,,,,,,,,204  663-6409,,,,,,,,,,,,,,,,,Senior Housing,,,,273 Talbot Ave,,,Winnipeg,,,MB,,R2L 0P7,Canada,49.908669,-97.1119643,Chalmers,TRUE
Beit,,,,,,,,,,,,,,,,,,204 338-4671,,,,,,,,,,,,,,,,,Senior Housing,,,,Am B'Nay Abraham 765 Aikins St,,,Winnipeg,,,MB,,R2V 3S2,Canada,ERROR,ERROR,ERROR,FALSE
Sunrise Towers,,,,1335henderson@edisonproperties.ca,,,,,,,,,,,,,,204 940-3491,,,http://www.edisonproperties.ca,,,,,,,,,,,,,,Senior Housing,,,,225,,,Winnipeg,,,MB,,R2G 0P1,Canada,50.4474581,-96.9981273,,FALSE
Tu,,,,,,,,,,,,,,,,,,204 663-0127,,,,,,,,,,,,,,,,,Senior Housing,,,,Pelo Estates 351 & 357 Tu Pelo Ave,,,Winnipeg,,,MB,,R2K 4H1,Canada,49.9272768,-97.0694865,Valley Gardens,FALSE
Amber Meadow (Assisted Living),,,,jeffrey.angeles@atriaretirement.ca,,,,,,,,,,,,,,204 633-5467,,,http://www.ambermeadow.com,,,,,,,,,,,,,,Senior Housing,,,,320 Pipeline Rd,,,Winnipeg,,,MB,,R2P 2X5,Canada,49.9593188,-97.1624467,Amber Trails,TRUE
Sarina Towers,,,,1335henderson@edisonproperties.ca,,,,,,,,,,,,,,204  940-3491,,,http://www.edisonproperties.ca,,,,,,,,,,,,,,Senior Housing,,,,1335 Henderson Hwy,,,Winnipeg,,,MB,,R2G 1M6,Canada,49.9430518,-97.0874302,Rossmere - A,TRUE
Carriage House North,,,,,,,,,,,,,,,,,,204 338-9323,,,,,,,,,,,,,,,,,Senior Housing,,,,535 Leila Ave,,,Winnipeg,,,MB,,R2V 3N5,Canada,49.9472946,-97.1277319,Templeton - Sinclair,TRUE
Consulate North,,,,,,,,,,,,,,,,,,334-4357,,,,,,,,,,,,,,,,,Senior Housing,,,,595 Leila Ave,,,Winnipeg,,,MB,,R2V 3R7,Canada,49.9486367,-97.1320284,Templeton - Sinclair,TRUE
Ruth Gardens,,,,RuthGardens@EdisonProperties.ca,,,,,,,,,,,,,,204 515-5529,,,http://www.EdisonProperties.ca,,,,,,,,,,,,,,Senior Housing,,,,1167 Rothesay Street,,,Winnipeg,,,MB,,R2G 1T6,Canada,49.9370341,-97.0801736,Rossmere - A,TRUE
Riverside Village B,,,,1660henderson@edisonproperties.ca,,,,,,,,,,,,,,240 940-3494,,,http://www.EdisonProperties.ca,,,,,,,,,,,,,,Senior Housing,,,,1650 Henderson Hwy,,,Winnipeg,,,MB,,R2G 1N7,Canada,49.950923,-97.082736,Valhalla,TRUE
Riverside Plaza,,,,1660henderson@edisonproperties.ca,,,,,,,,,,,,,,204  940-3494,,,http://www.EdisonProperties.ca,,,,,,,,,,,,,,Senior Housing,,,,1660 Henderson Hwy,,,Winnipeg,,,MB,,R2G 1H7,Canada,49.9511268,-97.0806756,Valhalla,TRUE
Parkwood Square,,,,,,,,,,,,,,,,,,204 654-4672,,,http://www.rentcanada.com,,,,,,,,,,,,,,Senior Housing,,,,170 & 190 Watt Ave,,,Winnipeg,,,MB,,R2L 2B7,Canada,49.910347,-97.1043569,Chalmers,TRUE
Parkside Plaza,,,,1630henderson@edisonproperties.ca,,,,,,,,,,,,,,230 940-3493,,,http://www.EdisonProperties.ca,,,,,,,,,,,,,,Senior Housing,,,,1630 Henderson Hwy,,,Winnipeg,,,MB,,R2G 2B9,Canada,49.9502164,-97.0821044,Valhalla,TRUE
Park Glen Manor,,,,,,,,,,,,,,,,,,204 667-2342,,,http://www.wredevelopment.ca,,,,,,,,,,,,,,Senior Housing,,,,120 Prevette St,,,Winnipeg,,,MB,,R2K 3L4,Canada,49.9079278,-97.0696169,Munroe East,TRUE
L & B Towers,,,,415edison@edisonproperties.ca,,,,,,,,,,,,,,204 940-3487,,,http://www.edisonproperties.ca,,,,,,,,,,,,,,Senior Housing,,,,415 Edison Ave,,,Winnipeg,,,MB,,R2G 0M3,Canada,49.938084,-97.07839,Rossmere - A,TRUE
Oakland Gardens I & II,,,,210oakland@edisonproperties.ca,,,,,,,,,,,,,,240 940-3484,,,http://www.EdisonProperties.ca,,,,,,,,,,,,,,Senior Housing,,,,210 220 Oakland Ave,,,Winnipeg,,,MB,,R2G 3C6,Canada,49.9366687,-97.0916126,Rossmere - A,TRUE
Kiwanis Homes of East Kildonan,,,,,,,,,,,,,,,,,,2004 668-0076,,,,,,,,,,,,,,,,,Senior Housing,,,,821 735 749 Golspie Ave,,,Winnipeg,,,MB,,R2K 2V5,Canada,49.9213927,-97.0864057,Munroe West,TRUE
Norway House,,,,1301rothsay@edisonproperties.ca,,,,,,,,,,,,,,204  940-3490,,,http://www.EdisonProperties.ca,,,,,,,,,,,,,,Senior Housing,,,,1301 Rothesay St,,,Winnipeg,,,MB,,R2G 1T9,Canada,49.9386853,-97.0783303,Rossmere - A,TRUE
KingsfordHaus Co,,,,,,,,,,,,,,,,,,204 663-2233,,,,,,,,,,,,,,,,,Senior Housing,,,,Ltd 426 Kingsford Ave,,,Winnipeg,,,MB,,R2G 0J8,Canada,49.936424,-97.078877,Rossmere - A,FALSE
Kimberly Gardens,,,,,,,,,,,,,,,,,,204 668-5549,,,http://www.homebase.ca,,,,,,,,,,,,,,Senior Housing,,,,710 & 720 Grey St,,,Winnipeg,,,MB,,R2K 3W9,Canada,ERROR,ERROR,ERROR,TRUE
Kildonan Manor,,,,,,,,,,,,,,,,,,204 334-9537,,,,,,,,,,,,,,,,,Senior Housing,,,,1607 Henderson Hwy,,,Winnipeg,,,MB,,R2G 4B7,Canada,49.9490524,-97.0819189,River East,TRUE
Kildonan House (Assisted Living),,,,info@homesteadkildonanhouse.ca,,,,,,,,,,,,,,204 338-8182,,,http://www.homesteadkildonanhouse.ca,,,,,,,,,,,,,,Senior Housing,,,,216 Edison Ave,,,Winnipeg,,,MB,,R2G 4H7,Canada,49.9407549,-97.0890728,Rossmere - A,TRUE
Kildonan Horizons,,,,,,,,,,,,,,,,,,204  669-0754,,,,,,,,,,,,,,,,,Senior Housing,,,,505 Munroe Ave,,,Winnipeg,,,MB,,R2K 3Z2,Canada,49.9178031,-97.0971989,Munroe West,TRUE
Granite House,,,,1100henderson@edisonproperties.ca,,,,,,,,,,,,,,204 940-3489,,,http://www.edisonproperties.ca,,,,,,,,,,,,,,Senior Housing,,,,1100 Henderson Hwy,,,Winnipeg,,,MB,,R2G 1L2,Canada,49.9381637,-97.0942265,Kildonan Drive,TRUE
Gable Arms,,,,1590henderson@edisonproperties.ca,,,,,,,,,,,,,,204  940-3492,,,http://www.edisonproperties.ca,,,,,,,,,,,,,,Senior Housing,,,,1590 Henderson Hwy,,,Winnipeg,,,MB,,R2G 2B8,Canada,49.9496255,-97.0829619,Valhalla,TRUE
Fort Agassiz,,,,1080henderson@edisonproperties.ca,,,,,,,,,,,,,,204  940-3488,,,http://www.edisonproperties.ca,,,,,,,,,,,,,,Senior Housing,,,,1080 Henderson Hwy,,,Winnipeg,,,MB,,R2G 1H3,Canada,49.937608,-97.0937469,Kildonan Drive,TRUE
Edgewood Estates,,,,edgewood@devonshire-inc.com,,,,,,,,,,,,,,204 339-9286,,,,,,,,,,,,,,,,,Senior Housing,,,,60 Whellams Lane,,,Winnipeg,,,MB,,R2G 2G7,Canada,49.9484475,-97.0950219,Kildonan Drive,TRUE
East Concordia Manor,,,,eastconcordia@broadstreet.ca,,,,,,,,,,,,,,204 415-3600,,,,,,,,,,,,,,,,,Senior Housing,,,,1350 Concordia Ave,,,Winnipeg,,,MB,,R3W 0C8,Canada,49.9128176,-97.0493568,Grassie,TRUE
East Concordia Landing,,,,,,,,,,,,,,,,,,204 415-3600,,,,,,,,,,,,,,,,,Senior Housing,,,,525 535 545 Peguis Street,,,Winnipeg,,,MB,,R2W 0G9,Canada,49.9135218,-97.0466836,Grassie,TRUE
Donwood South,,,,donwoodsouth@donwoodmanor.org,,,,,,,,,,,,,,204 668-4410,,,,,,,,,,,,,,,,,Senior Housing,,,,1245 Henderson Hwy,,,Winnipeg,,,MB,,R2G 1M1,Canada,49.9408707,-97.0897552,Rossmere - A,TRUE
Donwood Manor (Assisted living),,,,,,,,,,,,,,,,,,204 668-4410,,,,,,,,,,,,,,,,,Senior Housing,,,,165 Donwood Dr,,,Winnipeg,,,MB,,R2G 2H9,Canada,49.945918,-97.078477,Rossmere - A,TRUE
Crescent Ridge Towers,,,,,,,,,,,,,,,,,,204 663-3530,,,http://www.homebase.ca,,,,,,,,,,,,,,Senior Housing,,,,15,,,Winnipeg,,,MB,,R2K 3X7,Canada,49.88615,-96.9591302,,FALSE
Cosmopolitan Club Homes,,,,,,,,,,,,,,,,,,204 989-4210,,,,,,,,,,,,,,,,,Senior Housing,,,,"561A,B,C Cosmo Ave",,,Winnipeg,,,MB,,R2L 1J2,Canada,49.9040396,-97.1005346,Talbot - Grey,TRUE
Concordia Village I & II (Assisted Living),,,,ecunningham@concordiavillage.ca,,,,,,,,,,,,,,204 667-6479,,,http://www.concordiahospital.mb.ca,,,,,,,,,,,,,,Senior Housing,,,,1115 & 1125 Molson St,,,Winnipeg,,,MB,,R2K 0A7,Canada,49.9133583,-97.0590958,Eaglemere,TRUE
Concordia Village  III (Assisted Living),,,,ecunningham@concordiavillage.ca,,,,,,,,,,,,,,204 667-6479,,,,,,,,,,,,,,,,,Senior Housing,,,,1105 Molson Street,,,Winnipeg,,,MB,,R2K 4G4,Canada,49.9147152,-97.0607117,,TRUE
Columbus Centennial Seniors Co,,,,,,,,,,,,,,,,,,204 982-2000,,,http://www.lifelease.ca,,,,,,,,,,,,,,Senior Housing,,,,Housing 404 Desalaberry Ave,,,Winnipeg,,,MB,,R2L 2G3,Canada,49.904415,-97.1073506,Chalmers,FALSE
Canadian Legion Gardens,,,,,,,,,,,,,,,,,,,,,,,,,,,,,,,,,,,Senior Housing,,,,675 Talbot Ave,,,Winnipeg,,,MB,,R2L 0R9,Canada,49.90518,-97.0931,Talbot - Grey,TRUE
"BethaniaHaus, Inc.",,,,kweihs@bethania.ca,,,,,,,,,,,,,,204 654-5041,,,,,,,,,,,,,,,,,Senior Housing,,,,1060 Kimberly Ave,,,Winnipeg,,,MB,,R2K 4J7,Canada,49.914363,-97.0654239,Valley Gardens,TRUE
53 Stadacona St,,,,,,,,,,,,,,,,,,,,,,,,,,,,,,,,,,,Senior Housing,,,,53 Stadacona St,,,Winnipeg,,,MB,,R2L 1P8,Canada,49.9074495,-97.1113432,Chalmers,TRUE
St Josaphat Selo,,,,,,,,,,,,,,,,,,204 586-4346,,,,,,,,,,,,,,,,,Senior Housing,,,,Villa 114 McGregor St,,,Winnipeg,,,MB,,R2W 5J7,Canada,49.9158416,-97.1501402,Dufferin,FALSE
Point Douglas Manor,,,,,,,,,,,,,,,,,,204 945-3431,,,,,,,,,,,,,,,,,Senior Housing,,,,817 Main St,,,Winnipeg,,,MB,,R2W 5J2,Canada,49.907426,-97.133207,North Point Douglas,TRUE
Lord Selkirk Towers,,,,,,,,,,,,,,,,,,204  943-3615,,,,,,,,,,,,,,,,,Senior Housing,,,,269 Dufferin Ave,,,Winnipeg,,,MB,,R2W 2X8,Canada,49.9097528,-97.137045,Lord Selkirk Park,TRUE
KeKiNan Centre Inc.,,,,,,,,,,,,,,,,,,204-949-2880,,,http://www.whrc.ca,,,,,,,,,,,,,,Senior Housing,,,,100 Robinson St,,,Winnipeg,,,MB,,R2W 5M8,Canada,49.9114585,-97.1394926,Lord Selkirk Park,TRUE
Fred Douglas Apts,,,,ajanuska@shaw.ca,,,,,,,,,,,,,,204 654-1919,,,http://www.freddouglassociety.com,,,,,,,,,,,,,,Senior Housing,,,,1280 1290 1300 Aberdeen Ave,,,Winnipeg,,,MB,,R2X 0X3,Canada,49.9303635,-97.1759545,Shaughnessy Park,TRUE
Flora Place,,,,,,,,,,,,,,,,,,204 949-2880,,,,,,,,,,,,,,,,,Senior Housing,,,,1 Flora Place,,,Winnipeg,,,MB,,R2X 0A9,Canada,49.9193682,-97.1599908,Dufferin,TRUE
CGS Manor Inc.,,,,info@whrc.ca,,,,,,,,,,,,,,204 949-2880,,,http://www.whrc.ca,,,,,,,,,,,,,,Senior Housing,,,,595 Mountain Ave,,,Winnipeg,,,MB,,R2W 5L7,Canada,49.9245311,-97.1440792,Inkster - Faraday,TRUE
Canadian Polish Manor,,,,,,,,,,,,,,,,,,204 949-2880,,,http://www.whrc.ca,,,,,,,,,,,,,,Senior Housing,,,,300 Selkirk Ave,,,Winnipeg,,,MB,,R2W 5H7,Canada,49.9127652,-97.1372793,Lord Selkirk Park,TRUE
Ivan Franko Manor,,,,,,,,,,,,,,,,,,204  589-4949,,,,,,,,,,,,,,,,,Senior Housing,,,,200 McGregor St,,,Winnipeg,,,MB,,R2W 5L6,Canada,49.9182923,-97.1484481,William Whyte,TRUE
KeKiNan Centre (Assisted Living),,,,,,,,,,,,,,,,,,204 949-2880,,,http://www.whrc.ca,,,,,,,,,,,,,,Senior Housing,,,,102 Robinson St,,,Winnipeg,,,MB,,R2W 0T5,Canada,49.9088242,-97.1411412,Lord Selkirk Park,TRUE
Fred Douglas Courts,,,,ajanuska@shaw.ca,,,,,,,,,,,,,,204  654-1919,,,http://www.freddouglassociety.com,,,,,,,,,,,,,,Senior Housing,,,,1286,,,Winnipeg,,,MB,,R2X 0X3,Canada,49.9274536,-97.1767677,Shaughnessy Park,FALSE
Prairie Landing Apts,,,,,,,,,,,,,,,,,,204-663-6983,,,,,,,,,,,,,,,,,Senior Housing,,,,20 Cal Gardner Dr,,,Winnipeg,,,MB,,R3W 1P7,Canada,49.8997793,-97.050548,Peguis,TRUE
Kildonan Green Apartments,,,,,,,,,,,,,,,,,,204  228-9076,,,http://www.kildonangreenapartments.ca,,,,,,,,,,,,,,Senior Housing,,,,45 Kildonan Green Drive,,,Winnipeg,,,MB,,R3W 0E6,Canada,49.9113328,-97.0276145,Meadows,TRUE
Edgewood Place,,,,,,,,,,,,,,,,,,204 777-5182,,,,,,,,,,,,,,,,,Senior Housing,,,,30 Guy Savoie Drive,,,Winnipeg,,,MB,,R2J 3R7,Canada,49.8852468,-97.0358058,Transcona South,TRUE
East Park Lodge,,,,,,,,,,,,,,,,,,204  222-3251,,,,,,,,,,,,,,,,,Senior Housing,,,,720 Kildare Ave,,,Winnipeg,,,MB,,R2C 4P2,Canada,49.90019,-96.981635,Kildare - Redonda,TRUE
Devonshire House II (Assisted Living),,,,,,,,,,,,,,,,,,204  222-8962,,,,,,,,,,,,,,,,,Senior Housing,,,,65 Kildonan Green Drive,,,Winnipeg,,,MB,,R3W 0E1,Canada,49.9113953,-97.0273359,Meadows,TRUE
145 Powers St,,,,,,,,,,,,,,,,,,,,,,,,,,,,,,,,,,,Senior Housing,,,,145 Powers St,,,Winnipeg,,,MB,,R2W 5J4,Canada,49.9154249,-97.1434091,William Whyte,TRUE
Devonshire House I (Assisted Living),,,,devshire@mts.net,,,,,,,,,,,,,,204  667-2412,,,,,,,,,,,,,,,,,Senior Housing,,,,75 Kildonan Green Dr,,,Winnipeg,,,MB,,R2C 4M2,Canada,49.9117532,-97.0259313,Meadows,TRUE
Columbus Villa,,,,,,,,,,,,,,,,,,204  222-8292,,,,,,,,,,,,,,,,,Senior Housing,,,,680 Kildare Ave,,,Winnipeg,,,MB,,R2C 3M8,Canada,49.9003282,-96.9848665,Kildare - Redonda,TRUE
Southgate Plaza,,,,,,,,,,,,,,,,,,204 257-8228,,,http://www.sussexrealty.ca,,,,,,,,,,,,,,Senior Housing,,,,50 Alpine Ave,,,Winnipeg,,,MB,,R2M 0Y6,Canada,49.856662,-97.098579,Alpine Place,TRUE
Seine River Retirement Residence (Assisted Living),,,,hmutcheson@allseniorscare.com,,,,,,,,,,,,,,204 256-8877,,,http://www.allseniorscare.ca,,,,,,,,,,,,,,Senior Housing,,,,1095 St Anne's Rd,,,Winnipeg,,,MB,,R2N 4G5,Canada,49.815897,-97.0772485,Dakota Crossing,TRUE
Seine River Haven,,,,,,,,,,,,,,,,,,204 942-0991,,,http://www.sam.mb.ca,,,,,,,,,,,,,,Senior Housing,,,,571 St Anne's Rd,,,Winnipeg,,,MB,,R2M 1T3,Canada,49.8355474,-97.08963,Meadowood,TRUE
Seine River Gardens,,,,41clayton@edisonproperties.ca,,,,,,,,,,,,,,204 940-3477,,,http://www.EdisonProperties.ca,,,,,,,,,,,,,,Senior Housing,,,,41 Clayton Dr,,,Winnipeg,,,MB,,R2M 1G3,Canada,49.850746,-97.0978669,Alpine Place,TRUE
Rotunda Towers,,,,,,,,,,,,,,,,,,204 255-2838,,,http://www.sussexrealty.ca,,,,,,,,,,,,,,Senior Housing,,,,22 Beliveau Rd,,,Winnipeg,,,MB,,R2M 1S5,Canada,49.8344858,-97.1119721,Worthington,TRUE
Riverside Lions Seniors Residences (Assisted Living),,,,admin@riversidelions.mb.ca,,,,,,,,,,,,,,204 255-8940,,,http://www.riversidelions.mb.ca,,,,,,,,,,,,,,Senior Housing,,,,180 Worthington Ave,,,Winnipeg,,,MB,,R2M 5K1,Canada,49.8423388,-97.0971867,Worthington,TRUE
Riverside Lions Estates,,,,admin@riversidelions.mb.ca,,,,,,,,,,,,,,204 255-8940,,,http://www.riversidelions.mb.ca,,,,,,,,,,,,,,Senior Housing,,,,188 Worthington Ave,,,Winnipeg,,,MB,,R2M 5K1,Canada,49.8423968,-97.0964012,Worthington,TRUE
River Meadow Estates,,,,,,,,,,,,,,,,,,204 256-5666,,,http://www.broadstreet.ca,,,,,,,,,,,,,,Senior Housing,,,,1153 1177 Rd,,,Winnipeg,,,MB,,R2N 0C2,Canada,49.8890389,-97.1369435,Downtown,TRUE
River Gardens,,,,21clayton@edisonproperties.ca,,,,,,,,,,,,,,204 940-3476,,,http://www.EdisonProperties.ca,,,,,,,,,,,,,,Senior Housing,,,,21 Clayton Dr,,,Winnipeg,,,MB,,R2M 1G2,Canada,49.850068,-97.0986392,Alpine Place,TRUE
River Clayton,,,,,,,,,,,,,,,,,,204 254-1731,,,http://www.globegeneral.ca,,,,,,,,,,,,,,Senior Housing,,,,61 Clayton Dr,,,Winnipeg,,,MB,,R2M 1G8,Canada,49.84998,-97.096348,Alpine Place,TRUE
Niakwa Tower,,,,niawka@ranchowinnipeg.com,,,,,,,,,,,,,,204 254-4176,,,http://www.ranchowinnipeg.com,,,,,,,,,,,,,,Senior Housing,,,,115 Niakwa Rd,,,Winnipeg,,,MB,,R2M 5A8,Canada,49.8555265,-97.0998565,Alpine Place,TRUE
Mike Sunka Place,,,,,,,,,,,,,,,,,,204 942-0991,,,http://www.sam.mb.ca,,,,,,,,,,,,,,Senior Housing,,,,275 St Anne's Rd,,,Winnipeg,,,MB,,R2M 4V1,Canada,49.8533632,-97.1014423,Alpine Place,TRUE
Meadowood Manor Towers,,,,info@meadowood.ca,,,,,,,,,,,,,,204 257-2394,,,http://www.meadowood.ca,,,,,,,,,,,,,,Senior Housing,,,,575 St Anne's Rd,,,Winnipeg,,,MB,,R2M 5B2,Canada,49.8347073,-97.0902912,Meadowood,TRUE
Meadowood Gardens,,,,,,,,,,,,,,,,,,204 255-8346,,,http://www.crystalproperties.ca,,,,,,,,,,,,,,Senior Housing,,,,566 576 Rd,,,Winnipeg,,,MB,,R2M 5S8,Canada,49.8890389,-97.1369435,Downtown,TRUE
Markie Plaza,,,,,,,,,,,,,,,,,,204 253-5129,,,http://www.globegeneral.ca,,,,,,,,,,,,,,Senior Housing,,,,410 St Anne's Rd,,,Winnipeg,,,MB,,R2M 3C2,Canada,49.846952,-97.0983959,St. George,TRUE
Kenbur Gardens,,,,329stannes@edisonproperties.ca,,,,,,,,,,,,,,204 940-3486,,,http://www.EdisonProperties.ca,,,,,,,,,,,,,,Senior Housing,,,,329 St Anne's Rd,,,Winnipeg,,,MB,,R2M 3B2,Canada,49.85091,-97.099327,Alpine Place,TRUE
Golden Arms,,,,,,,,,,,,,,,,,,204 255-8600,,,http://www.globegeneral.ca,,,,,,,,,,,,,,Senior Housing,,,,11 St Michael Rd,,,Winnipeg,,,MB,,R2M 2K5,Canada,49.83347,-97.115234,Pulberry,TRUE
Dakota Towers,,,,,,,,,,,,,,,,,,204 255-1294,,,,,,,,,,,,,,,,,Senior Housing,,,,1106 St Mary's Rd,,,Winnipeg,,,MB,,R2M 3T5,Canada,49.8344083,-97.1142945,Pulberry,TRUE
Dakota House (Assisted Living),,,,dakotaactivities@mymts.net,,,,,,,,,,,,,,204 663-4983,,,http://www.homesteadmanitoba.ca,,,,,,,,,,,,,,Senior Housing,,,,1145 Dakota St,,,Winnipeg,,,MB,,R2N 0A4,Canada,49.820684,-97.097695,Dakota Crossing,TRUE
Creekside Terrace,,,,,,,,,,,,,,,,,,204 415-3913,,,,,,,,,,,,,,,,,Senior Housing,,,,200 Burning Glass Road,,,Winnipeg,,,MB,,R2X 0H3,Canada,49.836916,-97.0479026,Sage Creek,TRUE
Chesterfield Housing Dev Inc.,,,,chesterfieldhousing@shaw.ca,,,,,,,,,,,,,,204 504-6096,,,,,,,,,,,,,,,,,Senior Housing,,,,30 Chesterfield Ave,,,Winnipeg,,,MB,,R2M 1T6,Canada,49.8339561,-97.111694,Worthington,TRUE
86 Niawka Road,,,,,,,,,,,,,,,,,,204 257-1887,,,,,,,,,,,,,,,,,Senior Housing,,,,86 Niawka Road,,,Winnipeg,,,MB,,R2M 3A5,Canada,49.854249,-97.100862,Alpine Place,TRUE
Anavet Lodge,,,,,,,,,,,,,,,,,,204 942-0991,,,http://www.sam.mb.ca,,,,,,,,,,,,,,Senior Housing,,,,166 Beliveau Rd,,,Winnipeg,,,MB,,R2M 1S9,Canada,49.8367188,-97.1056241,Worthington,TRUE
60 Chesterfield Ave,,,,,,,,,,,,,,,,,,,,,,,,,,,,,,,,,,,Senior Housing,,,,60 Chesterfield Ave,,,Winnipeg,,,MB,,R2M 5A3,Canada,49.8342461,-97.1107254,Worthington,TRUE
