name,contact_first_name,contact_last_name,contact_name,email,contact_email,fax,mailing_address_line_1,mailing_address_line_2,mailing_city,mailing_contact_first_name,mailing_contact_last_name,mailing_contact_name,mailing_country,mailing_county,mailing_postalcode,mailing_province,provider_name,primary_phone,secondary_phone,twitter,website,source,contact_occupation,dsgne_first_name,dsgne_last_name,admin_name,co_address_line_1,co_address_line_2,co_company,co_city,co_postalcode,co_province,ombudsman_phone,typeofcare,typeofcare2,low_high_rate,low_rate,high_rate,address_line_1,address_line_2,address_directions,city,municipality,region,province,state_id,postal_code,country,latitude,longitude,neighborhood,addr_valid
BUTLER-BOWDEN PCH,,,,,,,694 LEIGHTON WAY,,STONE MOUNTAIN,,,,,,30088,GA,,7704986381,,,,,,,,,,,,,,,,,Nursing Home,,,,694 LEIGHTON WAY,,,STONE MOUNTAIN,,,GA,,30088,US,33.77602459999999,-84.1737301,,True
"HELPING HAND, A",,,,,,,439 WATSON BAY,,STONE MOUNTAIN,,,,,,30087,GA,,7704656858,,,,,,,,,,,,,,,,,Nursing Home,,,,439 WATSON BAY,,,STONE MOUNTAIN,,,GA,,30087,US,33.7795827,-84.0835328,,True
WILLIS HOUSE,,,,,,,882 HIGH HOPE ROAD,,LAWRENCEVILLE,,,,,,30043,GA,,7709622564,,,,,,,,,,,,,,,,,Nursing Home,,,,1895 LAWRENCEVILLE-SUWANEE ROAD,,,LAWRENCEVILLE,,,GA,,30043,US,33.9970496,-84.03533709999999,,True
BUTLER AVENUE,,,,,,,3300 NE EXPRESSWAY,BUILDING 9,ATLANTA,,,,,,30341,GA,,9123039359,,,,,,,,,,,,,,,,,Nursing Home,,,,3104 BUTLER AVENUE,,,THUNDERBOLT,,,GA,,31404,US,32.026576,-81.057254,,True
FIRST PATHS,,,,,,,2730 MNT INDUSTRIAL BLVD,SUITE 101,TUCKER,,,,,,30084,GA,,4042946641,,,,,,,,,,,,,,,,,Nursing Home,,,,667 N HAIRSTON STREET,,,STONE MOUNTAIN,,,GA,,30088,US,33.7957031,-84.193425,,True
SCOFIELD,,,,,,,2296 HENDERSON MILL ROAD,SUITE 202,ATLANTA,,,,,,30345,GA,,4047675157,,,,,,,,,,,,,,,,,Nursing Home,,,,5535 SCOFIELD DRIVE,,,COLLEGE PARK,,,GA,,30349,US,33.60403199999999,-84.46431319999999,,True
WALTON WOODS CLA,,,,,,,2296 HENDERSON MILL ROAD,SUITE 203,ATLANTA,,,,,,30345,GA,,6785341705,,,,,,,,,,,,,,,,,Nursing Home,,,,1980 WALTON WOODS CIRCLE,,,TUCKER,,,GA,,30084,US,33.8410484,-84.2319309,,True
KING,,,,,,,3300 NE EXPRESSWAY,BUILDING 9,ATLANTA,,,,,,30341,GA,,7704130235,,,,,,,,,,,,,,,,,Nursing Home,,,,903 KING ROAD,,,STONE MOUNTAIN,,,GA,,30088,US,33.7710124,-84.1645028,,True
HOLLY HAVEN,,,,,,,3300 NE EXPRESSWAY,BLDG. 9,ATLANTA,,,,,,30341,GA,,7062108736,,,,,,,,,,,,,,,,,Nursing Home,,,,3119 HOLLY HAVEN DRIVE,,,AUGUSTA,,,GA,,30907,US,33.5077201,-82.055857,,True
BRIGHTON COURT,,,,,,,2296 HENDERSON MILL ROAD,SUITE 202,ATLANTA,,,,,,30345,GA,,6785260926,,,,,,,,,,,,,,,,,Nursing Home,,,,7203 BRIGHTON COURT,,,LITHONIA,,,GA,,30058,US,33.7677875,-84.0941013,,True
NOONDAY,,,,,,,3300 NE EXPRESSWAY,BUILDING 9,ATLANTA,,,,,,30341,GA,,7709282933,,,,,,,,,,,,,,,,,Nursing Home,,,,846 NOONDAY DRIVE,,,MARIETTA,,,GA,,30066,US,34.0399407,-84.525831,,True
THAXTON,,,,,,,2296 HENDERSON MILL ROAD,SUITE 203,ATLANTA,,,,,,30345,GA,,4043498501,,,,,,,,,,,,,,,,,Nursing Home,,,,3980 THAXTON ROAD,,,ATLANTA,,,GA,,30331,US,33.6477288,-84.5422749,Cliftondale,True
SWIFT CREEK CLA,,,,,,,2296 HENDERSON MILL ROAD,SUITE 203,ATLANTA,,,,,,30345,GA,,7704827525,,,,,,,,,,,,,,,,,Nursing Home,,,,6444 SWIFT CREEK ROAD,,,LITHONIA,,,GA,,30058,US,33.75500270000001,-84.12402809999999,,True
PENNYBROOK,,,,,,,2296 HENDERSON MILL ROAD,SUITE 202,ATLANTA,,,,,,30345,GA,,7704653675,,,,,,,,,,,,,,,,,Nursing Home,,,,422 PENNYBROOK DRIVE,,,STONE MOUNTAIN,,,GA,,30087,US,33.7876212,-84.1572075,,True
PARK ROAD,,,,,,,1945 CLIFF VALLEY WAY,SUITE 220,ATLANTA,,,,,,30329,GA,,7707329007,,,,,,,,,,,,,,,,,Nursing Home,,,,31 PARK ROAD,,,MABLETON,,,GA,,30126,US,33.8094497,-84.5552386,Grainger Hills Estates,True
ST HELENA,,,,,,,2296 HENDERSON MILL ROAD,SUITE 202,ATLANTA,,,,,,30345,GA,,7704920412,,,,,,,,,,,,,,,,,Nursing Home,,,,3016 ST HELENA DRIVE,,,TUCKER,,,GA,,30084,US,33.877191,-84.21480299999999,,True
BELMONT,,,,,,,3300 NE EXPRESSWAY,BLDG. 9,ATLANTA,,,,,,30341,GA,,7703854645,,,,,,,,,,,,,,,,,Nursing Home,,,,205 BELMONT TRAIL,,,COVINGTON,,,GA,,30016,US,33.5391515,-83.9569077,,True
WOOD VALLEY,,,,,,,2296 HENDERSON MILL ROAD,SUITE 202,ATLANTA,,,,,,30345,GA,,7704363622,,,,,,,,,,,,,,,,,Nursing Home,,,,3710 WOOD VALLEY DRIVE,,,SMYRNA,,,GA,,30080,US,33.8628896,-84.5439639,,True
ASHLY FOREST,,,,,,6784378270,3300 NE EXPRESSWAY BLDG. 9,,ATLANTA,,,,,,30341,GA,,7707363331,,,,,,,,,,,,,,,,,Nursing Home,,,,3094 ASHLY FOREST DRIVE,,,SNELLVILLE,,,GA,,30078,US,33.8363264,-84.0293997,,True
"ARC HOUSE, THE",,,,,,,1945 CLIFF VALLEY WAY,SUITE 220,ATLANTA,,,,,,30329,GA,,7703190796,,,,,,,,,,,,,,,,,Nursing Home,,,,315 SMYRNA POWDER SPRINGS RD,,,MARIETTA,,,GA,,30060,US,33.8808201,-84.562749,,True
TOUCHING LIVES,,,,,,4049632068,6859 CAVALIER COURT,,STONE MOUNTAIN,,,,,,30087,GA,,6784760458,,,,,,,,,,,,,,,,,Nursing Home,,,,6859 CAVALIER COURT,,,STONE MOUNTAIN,,,GA,,30087,US,33.791143,-84.10817399999999,,True
"BUTTERFIELD HOUSE, THE",,,,,,,1945 CLIFF VALLEY WAY,SUITE 220,ATLANTA,,,,,,30329,GA,,6785569936,,,,,,,,,,,,,,,,,Nursing Home,,,,1391 PAIR ROAD,,,MARIETTA,,,GA,,30006,US,33.8765508,-84.5942819,,True
JENNINGS WAY,,,,,,,2296 HENDERSON MILL ROAD,SUITE 202,ATLANTA,,,,,,30345,GA,,7705829575,,,,,,,,,,,,,,,,,Nursing Home,,,,1680 JENNINGS WAY,,,NORCROSS,,,GA,,30093,US,33.90566809999999,-84.2120726,Gwinnett Village,True
NORTHSIDE #1,,,,,,,2110 N. PATTERSON ST,SUITE A,VALDOSTA,,,,,,31602,GA,,2292479754,,,,,,,,,,,,,,,,,Nursing Home,,,,2013 NORTHSIDE DRIVE,,,VALDOSTA,,,GA,,31602,US,30.8704003,-83.2563338,,True
KNIGHTS BRIDGE,,,,,,7709081360,2296 HENDERSON MILL ROAD,SUITE 202,ATLANTA,,,,,,30345,GA,,7709781490,,,,,,,,,,,,,,,,,Nursing Home,,,,3823 KNIGHTS BRIDGE,,,LILBURN,,,GA,,30047,US,33.8480204,-84.0683158,,True
ZEMORY,,,,,,,2296 HENDERSON MILL RAOD,SUITE 203,ATLANTA,,,,,,30345,GA,,7709341709,,,,,,,,,,,,,,,,,Nursing Home,,,,1708 ZEMORY DRIVE,,,TUCKER,,,GA,,30084,US,33.831604,-84.24326099999999,,True
RADBURY LANE,,,,,,,3300 NE EXPRESSWAY,BLDG.9,ATLANTA,,,,,,30341,GA,,7709723925,,,,,,,,,,,,,,,,,Nursing Home,,,,2379 RADBURY LANE,,,SNELLVILLE,,,GA,,30078,US,33.86401729999999,-83.9991316,,True
TYNDALL #1,,,,,,,2110 N. PATTERSON ST,SUITE A,VALDOSTA,,,,,,31602,GA,,2292420406,,,,,,,,,,,,,,,,,Nursing Home,,,,2802 TYNDALL DRIVE,,,VALDOSTA,,,GA,,31602,US,30.87399929999999,-83.2602098,,True
RAYS,,,,,,,3300 NE EXPRESSWAY,BUILDING 9,ATLANTA,,,,,,30341,GA,,4045010132,,,,,,,,,,,,,,,,,Nursing Home,,,,1152 RAYS ROAD,,,STONE MOUNTAIN,,,GA,,30083,US,33.8128468,-84.2180672,,True
WORLEY,,,,,,,3300 NE EXPRESSWAY,BUILDING 9,ATLANTA,,,,,,30341,GA,,7705909411,,,,,,,,,,,,,,,,,Nursing Home,,,,3270 MAYFLOWER DRIVE,,,MARIETTA,,,GA,,30066,US,34.0302537,-84.52259540000001,Addison Heights,True
WEST 500,,,,,,2298963239,2110 NORTH PATTERSON STREET,,VALDOSTA,,,,,,31602,GA,,2298963239,,,,,,,,,,,,,,,,,Nursing Home,,,,500 WEST 5TH STREET,,,ADEL,,,GA,,31620,US,31.1345026,-83.4287749,,True
NOTTINGHAM,,,,,,4784718221,3300 NE EXPRESSWAY BLDG. 9,,ATLANTA,,,,,,30341,GA,,4787435927,,,,,,,,,,,,,,,,,Nursing Home,,,,1100 NOTTINGHAM DRIVE,,,MACON,,,GA,,31211,US,32.858133,-83.63345199999999,,True
OSWOOD,,,,,,,3300 NE EXPRESSWAY BLDG 9,,ATLANTA,,,,,,30341,GA,,7709349336,,,,,,,,,,,,,,,,,Nursing Home,,,,4625 OSWOOD COURT,,,TUCKER,,,GA,,30084,US,33.867006,-84.199328,,True
WINDSOR,,,,,,4784718221,3300 NE EXPRESSWAY BLDG. 9,,ATLANTA,,,,,,30341,GA,,4784059619,,,,,,,,,,,,,,,,,Nursing Home,,,,852 WINDSOR ROAD,,,MACON,,,GA,,31204,US,32.8834869,-83.6742697,,True
WETHERSFIELD,,,,,,,3300 NE EXPESSWAY BLDG 9,,ATLANTA,,,,,,30341,GA,,7704788827,,,,,,,,,,,,,,,,,Nursing Home,,,,7774 WETHERSFIELD DRIVE,,,JONESBORO,,,GA,,30236,US,33.5421339,-84.3238004,,True
61 ROSE COURT,,,,,,,P.O. BOX 690,,GREENVILLE,,,,,,30222,GA,,7068462880,,,,,,,,,,,,,,,,,Nursing Home,,,,61 ROSE COURT PIGEON BLUFF APTS,,,MANCHESTER,,,GA,,31816,US,32.8699975,-84.6297943,,True
CEDAR MILL,,,,,,,3300 NE EXPRESSWAY,BLDG. 9,ATLANTA,,,,,,30341,GA,,7709293823,,,,,,,,,,,,,,,,,Nursing Home,,,,2340 CEDAR MILL DRIVE,,,CONYERS,,,GA,,30094,US,33.643717,-84.0656109,,True
SUMAC,,,,,,,2296 HENDERSON MILL ROAD,SUITE 202,ATLANTA,,,,,,30345,GA,,7708280277,,,,,,,,,,,,,,,,,Nursing Home,,,,2986 SUMAC DRIVE,,,ATLANTA,,,GA,,30360,US,33.950578,-84.264742,,True
36 ROSE COURT,,,,,,,P. O. BOX 690,,GREENVILLE,,,,,,30222,GA,,7068465565,,,,,,,,,,,,,,,,,Nursing Home,,,,36 ROSE COURT PIGEON CREEK APTS,,,MANCHESTER,,,GA,,31816,US,32.8699975,-84.6297943,,True
DUSTY RIDGE,,,,,,,2296 HENDERSON MILL ROAD,SUITE 203,ATLANTA,,,,,,30345,GA,,7706147259,,,,,,,,,,,,,,,,,Nursing Home,,,,5615 DUSTY RIDGE TRAIL,,,BUFORD,,,GA,,30518,US,34.1453257,-83.9987945,,True
KIERNAN GROUP HOME,,,,,,,5593 KIERNAN DRIVE,,MACON,,,,,,31217,GA,,4787433966,,,,,,,,,,,,,,,,,Nursing Home,,,,5593 KIERNAN DRIVE,,,MACON,,,GA,,31217,US,32.8077606,-83.53786339999999,,True
"OWL'S RETREAT, THE",,,,,,,2858 SANTA BARBARA DRIVE,,DECATUR,,,,,,30032,GA,,4042884782,,,,,,,,,,,,,,,,,Nursing Home,,,,2858 SANTA BARBARA DRIVE,,,DECATUR,,,GA,,30032,US,33.74684839999999,-84.2733113,,True
PERCH,,,,,,,2296 HENDERSON MILL ROAD,SUITE 203,ATLANTA,,,,,,30345,GA,,7704393707,,,,,,,,,,,,,,,,,Nursing Home,,,,3240 PERCH DRIVE,,,MARIETTA,,,GA,,30008,US,33.87430979999999,-84.6220204,,True
OWLS RETREAT CLA II,,,,,,,3024 DONAVAN WAY,,DECATUR,,,,,,30034,GA,,4042840053,,,,,,,,,,,,,,,,,Nursing Home,,,,3024 DONAVAN WAY,,,DECATUR,,,GA,,30034,US,33.6966589,-84.238449,,True
JENNA LANE,,,,,,,2296 HENDERSON MILL ROAD,SUITE 202,ATLANTA,,,,,,30345,GA,,7709470761,,,,,,,,,,,,,,,,,Nursing Home,,,,2585 JENNA LANE,,,LITHIA SPRINGS,,,GA,,30122,US,33.7422884,-84.66062939999999,,True
DUNCAN WALK,,,,,,,3300 NE EXPRESSWAY,BLDG 9,ATLANTA,,,,,,30341,GA,,6784328174,,,,,,,,,,,,,,,,,Nursing Home,,,,7110 DUNCAN WALK,,,MCDONOUGH,,,GA,,30252,US,33.4263769,-84.13013649999999,,True
EDGEWOOD,,,,,,,3300 NE EXPRESSWAY,BLDG. 9,ATLANTA,,,,,,30341,GA,,7066670102,,,,,,,,,,,,,,,,,Nursing Home,,,,2206 EDGEWOOD DRIVE,,,AUGUSTA,,,GA,,30904,US,33.4902924,-82.0122536,Summerville,True
FISHER,,,,,,,3300 NE EXPRESSWAY BLDG. 9,,ATLANTA,,,,,,30341,GA,,6784793956,,,,,,,,,,,,,,,,,Nursing Home,,,,8004 FISHER DRIVE,,,JONESBORO,,,GA,,30236,US,33.53617799999999,-84.3345513,,True
1360 NEW HUTCHINSON MILL ROAD,,,,,,,1710 SHOREWOOD DRIVE,,LAGRANGE,,,,,,30240,GA,,7068849447,,,,,,,,,,,,,,,,,Nursing Home,,,,1360 NEW HUTCHINSON MILL ROAD,,,LAGRANGE,,,GA,,30240,US,32.969829,-85.07046900000002,,True
GENERAL WINSHIP,,,,,,4787440630,330 NE EXPRESSWAY BLDG. 9,,ATLANTA,,,,,,30341,GA,,4787440630,,,,,,,,,,,,,,,,,Nursing Home,,,,2187 GENERAL WINSHIP,,,MACON,,,GA,,31204,US,32.8587605,-83.6500264,,True
CATRINA COURT,,,,,,,3300 NE EXPRESSWAY,BUILDING 9,ATLANTA,,,,,,30341,GA,,7704134143,,,,,,,,,,,,,,,,,Nursing Home,,,,649 CATRINA COURT,,,STONE MOUNTAIN,,,GA,,30087,US,33.7946263,-84.1600406,,True
CHIMNEY HILL,,,,,,,3300 NE EXPRESSWAY,BLDG. 9,ATLANTA,,,,,,30341,GA,,7068603420,,,,,,,,,,,,,,,,,Nursing Home,,,,650 CHIMNEY HILL CIRCLE,,,EVANS,,,GA,,30809,US,33.5494583,-82.1436284,,True
CHATHAM VIEW,,,,,,,3300 NE EXPRESSWAY BLDG 9,,ATLANTA,,,,,,30341,GA,,7709452756,,,,,,,,,,,,,,,,,Nursing Home,,,,4279 CHATHAM VIEW DRIVE,,,BUFORD,,,GA,,30518,US,34.08274079999999,-84.0211721,,True
COUNTRY PLACE,,,,,,,3300 NE EXPRESSWAY,BLDG. 9,ATLANTA,,,,,,30341,GA,,7067929433,,,,,,,,,,,,,,,,,Nursing Home,,,,2045 COUNTRY PLACE DRIVE,,,AUGUSTA,,,GA,,30906,US,33.34615350000001,-81.98607190000001,Country Place,True
CHRISTINE'S HOUSE,,,,,,,5546 DOWNS COURT,,LITHONIA,,,,,,30058,GA,,7708089201,,,,,,,,,,,,,,,,,Nursing Home,,,,5546 DOWNS COURT,,,LITHONIA,,,GA,,30058,US,33.7304621,-84.1625368,,True
DUKE,,,,,,,3300 NE EXPRESSWAY,BUILDING 9,ATLANTA,,,,,,30341,GA,,7708600715,,,,,,,,,,,,,,,,,Nursing Home,,,,1014 DUKE DRIVE,,,CONYERS,,,GA,,30013,US,33.6029589,-84.0137664,,True
GARDNERS MILL,,,,,,,3300 NE EXPRESSWAY,BLDG.9,ATLANTA,,,,,,30341,GA,,7068607243,,,,,,,,,,,,,,,,,Nursing Home,,,,140 GARDNERS MILL,,,AUGUSTA,,,GA,,30907,US,33.5086797,-82.0583838,Montclair,True
FOX HALL,,,,,,,3300 NE EXPRESSWAY BLDG 9,,ATLANTA,,,,,,30341,GA,,7062103356,,,,,,,,,,,,,,,,,Nursing Home,,,,2954 FOX HALL CIRCLE,,,AUGUSTA,,,GA,,30907,US,33.50189299999999,-82.0763937,,True
SUSSEX COURT,,,,,,,3300 NE EXPRESSWAY,BLDG. 9,ATLANTA,,,,,,30341,GA,,7709825108,,,,,,,,,,,,,,,,,Nursing Home,,,,2275 SUSSEX CT,,,SNELLVILLE,,,GA,,30078,US,33.85142210000001,-84.0334013,,True
HIGHFIELD DRIVE,,,,,,,3300 NE EXPESSWAY BLDG 9,,ATLANTA,,,,,,30341,GA,,7709620987,,,,,,,,,,,,,,,,,Nursing Home,,,,1257 HIGHFIELD DRIVE,,,LAWRENCEVILLE,,,GA,,30043,US,34.0013803,-83.95740950000001,,True
EASTMAN HOUSE,,,,,,7705723687,5555 PATILLO WAY,,LITHONIA,,,,,,30058,GA,,7704697731,,,,,,,,,,,,,,,,,Nursing Home,,,,5555 PATILLO WAY,,,LITHONIA,,,GA,,30058,US,33.7677342,-84.16185569999999,,True
HARWOOD,,,,,,,3300 NE EXPRESSWAY BLDG 9,,ATLANTA,,,,,,30341,GA,,7067710487,,,,,,,,,,,,,,,,,Nursing Home,,,,2819 HARWOOD STREET,,,HEPHZIBAH,,,GA,,30815,US,33.3857517,-82.11216639999999,,True
FRANKS,,,,,,,3300 NE EXPRESSWAY BLDG 9,,ATLANTA,,,,,,30341,GA,,7709089885,,,,,,,,,,,,,,,,,Nursing Home,,,,4054 FRANKS DRIVE,,,TUCKER,,,GA,,30084,US,33.831537,-84.2234723,,True
SAND HILL DRIVE,,,,,,,3300 NE EXPRESSWAY,BUILDING 9,ATLANTA,,,,,,30341,GA,,7707857122,,,,,,,,,,,,,,,,,Nursing Home,,,,3593 SANDHILL DRIVE,,,CONYERS,,,GA,,30094,US,33.5937097,-84.0274046,,True
GLENWOODS,,,,,,,3300 NE EXPRESSWAY BLDG 9,,ATLANTA,,,,,,30341,GA,,7704730615,,,,,,,,,,,,,,,,,Nursing Home,,,,8273 GLENWOODS DRIVE,,,RIVERDALE,,,GA,,30274,US,33.5290061,-84.40004,,True
TRUE COMFORT CARE HOME,,,,,,,1155 HELICAN SPRING ROAD,,ATHENS,,,,,,30601,GA,,7063456827,,,,,,,,,,,,,,,,,Nursing Home,,,,1155 HELICAN SPRING ROAD,,,ATHENS,,,GA,,30601,US,34.0429143,-83.3364641,,True
TANYARD,,,,,,,3300 NE EXPRESSWAY,BLDG. 9,ATLANTA,,,,,,30341,GA,,7707870670,,,,,,,,,,,,,,,,,Nursing Home,,,,140 TANYARD COURT,,,NEWBORN,,,GA,,30056,US,33.524626,-83.690463,,True
FLINTLOCK DRIVE,,,,,,7063226576,P.O. BOX 5328,,COLUMBUS,,,,,,31906,GA,,7065658594,,,,,,,,,,,,,,,,,Nursing Home,,,,3486 FLINTLOCK DRIVE,,,COLUMBUS,,,GA,,31907,US,32.4887384,-84.8799829,,True
SUSSEX ROAD,,,,,,,3300 NE EXPRESSWAY,BLDG.9,ATLANTA,,,,,,30341,GA,,7067389525,,,,,,,,,,,,,,,,,Nursing Home,,,,3008 SUSSEX ROAD,,,AUGUSTA,,,GA,,30909,US,33.4962978,-82.04589539999999,,True
SWEETWATER,,,,,,2292417359,3300 NE EXPRESSWAY,BLDG. 9,ATLANTA,,,,,,30341,GA,,2292417359,,,,,,,,,,,,,,,,,Nursing Home,,,,3922 SWEETWATER DRIVE,,,VALDOSTA,,,GA,,31602,US,30.9035876,-83.34684610000001,,True
CREEKSIDE DRIVE,,,,,,7063226576,P.O. BOX 5238,,COLUMBUS,,,,,,31906,GA,,7065680123,,,,,,,,,,,,,,,,,Nursing Home,,,,6072 CREEKSIDE DRIVE,,,COLUMBUS,,,GA,,31907,US,32.4816452,-84.88533489999999,,True
CELIA DRIVE,,,,,,7063226576,P. O. BOX 5328,,COLUMBUS,,,,,,31906,GA,,7065636093,,,,,,,,,,,,,,,,,Nursing Home,,,,1837 CELIA DRIVE,,,COLUMBUS,,,GA,,31907,US,32.4767729,-84.9129676,,True
DEMBURE CLA V,,,,,,,5305 SNAPFINGER WOODS,,DECATUR,,,,,,30035,GA,,6786444435,,,,,,,,,,,,,,,,,Nursing Home,,,,2331 BERMUDA RUN COURT,,,DECATUR,,,GA,,30035,US,33.7206131,-84.2049073,,True
"HOUSE ON GREENBROOK CIRCLE, THE",,,,,,,1945 CLIFF VALLEY WAY SUITE 220,,ATLANTA,,,,,,30329,GA,,7707453572,,,,,,,,,,,,,,,,,Nursing Home,,,,6171 GREENBROOK CIRCLE,,,AUSTELL,,,GA,,30168,US,33.801158,-84.6015973,Green Brook Estates,True
STAFFED FACILITY II,,,,,,,PO BOX 1320,,GRIFFIN,,,,,,30224,GA,,7709542398,,,,,,,,,,,,,,,,,Nursing Home,,,,318 BURG ROAD,,,JENKINSBURG,,,GA,,30234,US,33.33702160000001,-84.0419998,,True
LAUREL I,,,,,,,PO BOX 1320,,GRIFFIN,,,,,,30224,GA,,7704120550,,,,,,,,,,,,,,,,,Nursing Home,,,,221 LAUREL STREET,,,GRIFFIN,,,GA,,30224,US,33.218294,-84.27700759999999,,True
WATSON STREET,,,,,,,PO BOX 1320,,GRIFFIN,,,,,,30224,GA,,7705040115,,,,,,,,,,,,,,,,,Nursing Home,,,,180 WATSON STREET,,,JACKSON,,,GA,,30233,US,33.2988558,-83.97187219999999,,True
ROSEBRIER GROUP HOME,,,,,,2298886875,P.O. BOX 71026,,ALBANY,,,,,,31708,GA,,2298882971,,,,,,,,,,,,,,,,,Nursing Home,,,,2420 ROSEBRIER AVENUE,,,ALBANY,,,GA,,31705,US,31.5704307,-84.0922059,,True
ROYALWYN DRIVE,,,,,,4787577199,105 PRESTON COURT,SUITE A,MACON,,,,,,13210,GA,,4787577199,,,,,,,,,,,,,,,,,Nursing Home,,,,1679 ROYALWYN DRIVE,,,MACON,,,GA,,31220,US,32.8524636,-83.77910159999999,,True
BRIERWOOD MALE GROUP HOME,,,,,,,P.O. BOX 71026,,ALBANY,,,,,,31708,GA,,2298831895,,,,,,,,,,,,,,,,,Nursing Home,,,,2405 BRIERWOOD DRIVE,,,ALBANY,,,GA,,31705,US,31.566887,-84.093435,,True
BRIERWOOD FEMALE GROUP HOME,,,,,,,P.O. BOX 71026,,ALBANY,,,,,,31708,GA,,2294356885,,,,,,,,,,,,,,,,,Nursing Home,,,,2407 BRIERWOOD DRIVE,,,ALBANY,,,GA,,31705,US,31.5670179,-84.0934331,,True
LIVE OAK COMMUNITY LIVING ARRANGEMENT,,,,,,4784717883,9901 LINN STATION ROAD,,LOUISVILLE,,,,,,40223,KY,,4784717883,,,,,,,,,,,,,,,,,Nursing Home,,,,879 LIVE OAK LANE,,,MACON,,,GA,,31220,US,32.86717,-83.7630199,,True
HOLLY GROUP HOME,,,,,,2298886875,P. O. BOX 71026,,ALBANY,,,,,,31708,GA,,2294367187,,,,,,,,,,,,,,,,,Nursing Home,,,,400 HOLLY DRIVE,,,ALBANY,,,GA,,31705,US,31.5287981,-84.12546730000001,,True
DEMBURE CLA I,,,,,,,2100 S HAIRSTON ROAD,,DECATUR,,,,,,30032,GA,,7703225542,,,,,,,,,,,,,,,,,Nursing Home,,,,2100 S HAIRSTON ROAD,,,DECATUR,,,GA,,30032,US,33.72614469999999,-84.1990618,,True
RUFUS COODY HOME FOR WOMEN,,,,,,2292686763,1212 JENKINS STREET,,VIENNA,,,,,,31092,GA,,2292686546,,,,,,,,,,,,,,,,,Nursing Home,,,,310 COLLIER STREET,,,VIENNA,,,GA,,31092,US,32.0892606,-83.79176120000001,,True
DEMBURE CLA III,,,,,,,1520 S HAIRSTON ROAD,,STONE MOUNTAIN,,,,,,30088,GA,,7705931240,,,,,,,,,,,,,,,,,Nursing Home,,,,1520 S HAIRSTON ROAD,,,STONE MOUNTAIN,,,GA,,30088,US,33.74978539999999,-84.19700279999999,,True
PARTRIDGE GROUP HOME,,,,,,,P.O. BOX  71026,,ALBANY,,,,,,31708,GA,,2298882970,,,,,,,,,,,,,,,,,Nursing Home,,,,2817 PARTRIDGE LANE,,,ALBANY,,,GA,,31721,US,31.59087610000001,-84.2222981,,True
DEMBURE CLA II,,,,,,,2057 PANOLA ROAD,,LITHONIA,,,,,,30058,GA,,7709878964,,,,,,,,,,,,,,,,,Nursing Home,,,,2057 PANOLA ROAD,,,LITHONIA,,,GA,,30058,US,33.7297403,-84.1675437,,True
NEW DOMUS,,,,,,,2650 COLONIAL DRIVE,,COLLEGE PARK,,,,,,30337,GA,,4042099296,,,,,,,,,,,,,,,,,Nursing Home,,,,2650 COLONIAL DRIVE,,,COLLEGE PARK,,,GA,,30337,US,33.6361884,-84.47556550000002,,True
ENABLE / EAST HEMBREE,,,,,,,1200 OLD ELLIS ROAD,SUITE A,ROSWELL,,,,,,30076,GA,,7707511428,,,,,,,,,,,,,,,,,Nursing Home,,,,805 EAST HEMBREE CROSSING,,,ROSWELL,,,GA,,30076,US,34.06726829999999,-84.3359962,,True
302 N RAILROAD STREET,,,,,,,6600 ABERCORN STREET,SUITE 107,GLENNVILLE,,,,,,30427,GA,,9126544791,,,,,,,,,,,,,,,,,Nursing Home,,,,302 N RAILROAD STREET,,,GLENNVILLE,,,GA,,30427,US,31.9376949,-81.92542,,True
FRED'S HOUSE,,,,,,,507 WATSON MILL ROAD,,COMER,,,,,,30629,GA,,7067834664,,,,,,,,,,,,,,,,,Nursing Home,,,,507 WATSON MILL ROAD,,,COMER,,,GA,,30629,US,34.02256880000001,-83.07864219999999,,True
OWLS RETREAT CLA III,,,,,,,515 N HAIRSTON ROAD,,STONE MOUNTAIN,,,,,,30083,GA,,7705594544,,,,,,,,,,,,,,,,,Nursing Home,,,,515 N HAIRSTON ROAD,,,STONE MOUNTAIN,,,GA,,30083,US,33.790647,-84.194445,,True
JEWELL'S PLACE,,,,,,,527 WATSON MILL ROAD,,COMER,,,,,,30629,GA,,7067833242,,,,,,,,,,,,,,,,,Nursing Home,,,,527 WATSON MILL ROAD,,,COMER,,,GA,,30629,US,34.01967839999999,-83.08428599999999,,True
MONICA EVELYN,,,,,,,1761 RIDGECREST DRIVE,,MONROE,,,,,,30655,GA,,7702678053,,,,,,,,,,,,,,,,,Nursing Home,,,,1761 RIDGECREST DRIVE,,,MONROE,,,GA,,30655,US,33.8072454,-83.65815169999999,,True
LEXINGTON II,,,,,,,8856 LEXINGTON DRIVE,,JONESBORO,,,,,,30238,GA,,6784796052,,,,,,,,,,,,,,,,,Nursing Home,,,,8856 LEXINGTON DRIVE,,,JONESBORO,,,GA,,30238,US,33.5137983,-84.3828896,,True
WHEATON PLACE,,,,,,9122382959,700 COASTAL VILLAGE DR,,BRUNSWICK,,,,,,31520,GA,,9126512887,,,,,,,,,,,,,,,,,Nursing Home,,,,1300 RICHARDSON STREET,,,SAVANNAH,,,GA,,31406,US,32.06280489999999,-81.0735007,Hillcrest Area,True
LIBERTY GROUP HOME #A,,,,,,,700 COASTAL VILLEGE DRIVE,,BRUNSWICK,,,,,,31520,GA,,9123687472,,,,,,,,,,,,,,,,,Nursing Home,,,,760-A SOUTH MAIN STREET,,,HINESVILLE,,,GA,,31313,US,31.8257121,-81.6043011,,True
SUDBURY GROUP HOME,,,,,,,780 SUDBURY ROAD,,ATLANTA,,,,,,30310,GA,,7703520297,,,,,,,,,,,,,,,,,Nursing Home,,,,780 SUDBURY ROAD,,,ATLANTA,,,GA,,30310,US,33.9527969,-84.360915,,True
ROSE PARK I,,,,,,,1945 CIIFF VALLEY WAY,SUITE 220,ATLANTA,,,,,,30329,GA,,7709732677,,,,,,,,,,,,,,,,,Nursing Home,,,,1625 ROSWELL ROAD,APT 824,,MARIETTA,,,GA,,30062,US,33.9538477,-84.50513640000001,,True
ROSE PARK II,,,,,,,1945 CLIFF VALLEY WAY,SUITE 220,ATLANTA,,,,,,30329,GA,,7709778318,,,,,,,,,,,,,,,,,Nursing Home,,,,1625 ROSWELL ROAD,APT 907,,MARIETTA,,,GA,,30062,US,33.9538477,-84.50513640000001,,True
LAKEVIEW ROAD,,,,,,,3300 NE EXPESSWAY BLDG 9,,ATLANTA,,,,,,30341,GA,,7709826748,,,,,,,,,,,,,,,,,Nursing Home,,,,1506 LAKEVIEW ROAD,,,GRAYSON,,,GA,,30017,US,33.8847097,-83.9959212,,True
HEARTEASE CLA,,,,,,,1545 KELLEYS CLOSE,,STONE MOUNTAIN,,,,,,30088,GA,,7708796888,,,,,,,,,,,,,,,,,Nursing Home,,,,1545 KELLEYS CLOSE,,,STONE MOUNTAIN,,,GA,,30088,US,33.74647300000001,-84.174779,,True
CASTLEWOOD COURT,,,,,,7065630565,3300 NE EXPRESSWAY,BUILDING 9,ATLANTA,,,,,,30341,GA,,7065630565,,,,,,,,,,,,,,,,,Nursing Home,,,,4301 CASTLEWOOD COURT,,,COLUMBUS,,,GA,,31907,US,32.5047758,-84.92042529999999,,True
JASON COURT,,,,,,7063171905,3300 NE EXPRESSWAY BUILDING 9,,ATLANTA,,,,,,30341,GA,,7063171905,,,,,,,,,,,,,,,,,Nursing Home,,,,1340 JASON COURT,,,COLUMBUS,,,GA,,31904,US,32.54688799999999,-84.973271,,True
1432 QUEENSBURY STREET,,,,,,,3300 NE EXPRESSWAY,BUILDING 9,ATLANTA,,,,,,30341,GA,,9126910416,,,,,,,,,,,,,,,,,Nursing Home,,,,1432 QUEENSBURY STREET,,,SAVANNAH,,,GA,,31406,US,31.9936783,-81.0982416,Mayfair,True
ANN ST CLA,,,,,,,44 ANN STREET,,TALLAPOOSA,,,,,,30176,GA,,7705749496,,,,,,,,,,,,,,,,,Nursing Home,,,,44 ANN STREET,,,TALLAPOOSA,,,GA,,30176,US,33.7449559,-85.2868266,,True
BEAVER RUN DRIVE,,,,,,,3300 NE EXPRESSWAY,BUILDING 9,ATLANTA,,,,,,30341,GA,,9129615754,,,,,,,,,,,,,,,,,Nursing Home,,,,9 BEAVER RUN DRIVE,,,SAVANNAH,,,GA,,31419,US,31.9816968,-81.2283169,,True
OLD MILL COURT,,,,,,,3300 NE EXPRESSWAY,BUILDING 9,ATLANTA,,,,,,30341,GA,,9129617087,,,,,,,,,,,,,,,,,Nursing Home,,,,13 OLD MILL COURT,,,SAVANNAH,,,GA,,31419,US,31.9621288,-81.14558509999999,Colonial Oaks,True
HAPPY TRAIL,,,,,,4784751899,9901 LINN STATION ROAD,,LOUISVILLE,,,,,,40223,KY,,4784751899,,,,,,,,,,,,,,,,,Nursing Home,,,,1393 HAPPY TRAIL,,,MACON,,,GA,,31220,US,32.8530276,-83.77401379999999,,True
ALBANY MENTOR COMMUNITY HOUSE,,,,,,2294356075,2302 PARKLAKE DRIVE,,ATLANTA,,,,,,30345,GA,,2294390272,,,,,,,,,,,,,,,,,Nursing Home,,,,2318 WEST ALBERSON DRIVE,,,ALBANY,,,GA,,31721,US,31.6044436,-84.2483002,,True
SPECTRUM HABILITATION SVCS #3,,,,,,,175 GEORGIA AVE E,,FAYETTEVILLE,,,,,,30214,GA,,4042862136,,,,,,,,,,,,,,,,,Nursing Home,,,,1747 DANRICH DRIVE,,,DECATUR,,,GA,,30032,US,33.740117,-84.233216,,True
SPECTRUM HABILITATION SVCS #2,,,,,,,175 GEORGIA AVE E,,FAYETTEVILLE,,,,,,30214,GA,,4042431230,,,,,,,,,,,,,,,,,Nursing Home,,,,2339 TILSON CIRCLE,,,DECATUR,,,GA,,30032,US,33.7211673,-84.2972096,,True
ALTERNATIVE RESIDENTIAL OPTION,,,,,,,1435 NORTH EXPRESSWAY,SUITE 301,GRIFFIN,,,,,,30224,GA,,7703588242,,,,,,,,,,,,,,,,,Nursing Home,,,,101 OWENS LANE,BLDG 400,,BARNESVILLE,,,GA,,30204,US,33.0577937,-84.14397919999999,,True
HARBINSVIEW II,,,,,,,734 STRATTON COURT,,DACULA,,,,,,30019,GA,,7709630760,,,,,,,,,,,,,,,,,Nursing Home,,,,880 HARBINSVIEW DRIVE,,,DACULA,,,GA,,30019,US,34.0259734,-83.90180649999999,,True
SPECTRUM HABILITATION SVCS #5,,,,,,7709969442,175 GEORGIA AVE E,,FAYETTEVILLE,,,,,,30214,GA,,7062214546,,,,,,,,,,,,,,,,,Nursing Home,,,,1 BRADDOCK COURT,,,COLUMBUS,,,GA,,31907,US,32.4510171,-84.9232411,,True
DIAMOND COMMUNITY LIVING HOME 1,,,,,,,112 MAGAZINE STREET,,DALLAS,,,,,,30157,GA,,7705053467,,,,,,,,,,,,,,,,,Nursing Home,,,,112 MAGAZINE STREET,,,DALLAS,,,GA,,30157,US,33.9095721,-84.8443334,,True
NEW HEIGHTS #2,,,,,,,419 FLINT DRIVE,,RINCON,,,,,,31326,GA,,9127486871,,,,,,,,,,,,,,,,,Nursing Home,,,,509 POTTERSTONE SQUARE,,,POOLER,,,GA,,31322,US,32.101982,-81.278706,,True
CANTERBURY LANE,,,,,,,3300 NE EXPRESSWAY BLDG 9,,ATLANTA,,,,,,30341,GA,,9129257635,,,,,,,,,,,,,,,,,Nursing Home,,,,13112 CANTERBURY LANE,,,SAVANNAH,,,GA,,31419,US,31.960289,-81.151088,Berkshire Woods,True
BRYANA CARE,,,,,,,3702 ROCKBRIDGE ROAD,,STONE MOUNTAIN,,,,,,30083,GA,,4043431304,,,,,,,,,,,,,,,,,Nursing Home,,,,3702 ROCKBRIDGE ROAD,,,STONE MOUNTAIN,,,GA,,30083,US,33.783004,-84.239391,,True
NEW HEIGHTS #3,,,,,,,419 FLINT DRIVE,,RINCON,,,,,,31326,GA,,9127489626,,,,,,,,,,,,,,,,,Nursing Home,,,,511 POTTERSTONE SQUARE,,,POOLER,,,GA,,31322,US,32.102021,-81.27881699999999,,True
DEMBURE CLA IV,,,,,,,5416 BIFFLE ROAD,,STONE MOUNTAIN,,,,,,30088,GA,,6786444435,,,,,,,,,,,,,,,,,Nursing Home,,,,5416 BIFFLE ROAD,,,STONE MOUNTAIN,,,GA,,30088,US,33.747871,-84.167971,,True
SOUTH GORDON ROAD,,,,,,,1945 CILFF VALLEY WAY,,ATLANTA,,,,,,30329,GA,,6784643879,,,,,,,,,,,,,,,,,Nursing Home,,,,5884 GORDON ROAD,,,AUSTELL,,,GA,,30168,US,33.811386,-84.6061325,,True
ROSE PARK III,,,,,,,1945 CLIFF VALLEY WAY,SUITE 220,ATLANTA,,,,,,30329,GA,,7705798955,,,,,,,,,,,,,,,,,Nursing Home,,,,1625 ROSWELL ROAD,# 303,,MARIETTA,,,GA,,30062,US,33.9538477,-84.50513640000001,,True
EAST COBB HAMPTONS APT 636,,,,,,,1945 CLIFF VALLEY WAY,SUITE 220,ATLANTA,,,,,,30329,GA,,7709734138,,,,,,,,,,,,,,,,,Nursing Home,,,,1523 ROSWELL ROAD,APT 636,,MARIETTA,,,GA,,30062,US,33.953323,-84.50872919999999,,True
POWELL HOUSE,,,,,,,1945 CLIFF VALLEY WAY,SUITE 220,ATLANTA,,,,,,30329,GA,,6785815933,,,,,,,,,,,,,,,,,Nursing Home,,,,902 COLEMAN ROAD,,,MARIETTA,,,GA,,30064,US,33.9234287,-84.5794537,,True
SAINT PETER'S CLA,,,,,,7705565500,5200 DALLAS HWY,SUITE 200-210,POWDER SPRINGS,,,,,,30127,GA,,7704858703,,,,,,,,,,,,,,,,,Nursing Home,,,,1175 OLD HARRIS ROAD,SUITE 1013,,DALLAS,,,GA,,30157,US,33.90102330000001,-84.8076466,,True
"SHOALS, THE",,,,,,,882 HIGH HOPE ROAD,,LAWRENCEVILLE,,,,,,30043,GA,,6784421857,,,,,,,,,,,,,,,,,Nursing Home,,,,3905 INDIAN SHOALS ROAD,,,BETHLEHEM,,,GA,,30620,US,33.9429567,-83.81754260000001,,True
MIDTOWN 1311,,,,,,7063226576,1400 BOXWOOD BLVD 1311,,COLUMBUS,,,,,,31906,GA,,7065650291,,,,,,,,,,,,,,,,,Nursing Home,,,,1400 BOXWOOD BLVD,1311,,COLUMBUS,,,GA,,31906,US,32.4758365,-84.938476,,True
MIDTOWN 6311,,,,,,7063226576,1400 BOXWOOD BLVD 6311,,COLUMBUS,,,,,,31906,GA,,7065695543,,,,,,,,,,,,,,,,,Nursing Home,,,,1400 BOXWOOD BLVD,6311,,COLUMBUS,,,GA,,31906,US,32.4758365,-84.938476,,True
GATEWAY FRAZIER GROUP HOME 1,,,,,,,700 COASTAL VILLAGE DRIVE,,BRUNSWICK,,,,,,31520,GA,,9122623031,,,,,,,,,,,,,,,,,Nursing Home,,,,111 FRAZIER ROAD,,,BRUNSWICK,,,GA,,31520,US,31.211915,-81.506264,,True
TENNESEE HOUSE,,,,,,,1945 CLIFF VALLEY WAY,SUITE 220,ATLANTA,,,,,,30329,GA,,7704310697,,,,,,,,,,,,,,,,,Nursing Home,,,,3358 OLD TENNESEE ROAD,,,MARIETTA,,,GA,,30008,US,33.8716244,-84.61056830000001,,True
GATEWAY FRAZIER GROUP HOME 2,,,,,,,700 COASTAL VILLEGE DRIVE,,BRUNSWICK,,,,,,31520,GA,,9122647337,,,,,,,,,,,,,,,,,Nursing Home,,,,115 FRAZIER ROAD,,,BRUNSWICK,,,GA,,31520,US,31.212285,-81.506253,,True
VERMONT GROUP HOME,,,,,,,700 COASTAL VILLAGE DR,,BRUNSWICK,,,,,,31520,GA,,9126512124,,,,,,,,,,,,,,,,,Nursing Home,,,,2120 VERMONT AVENUE,,,SAVANNAH,,,GA,,31404,US,32.04916439999999,-81.0613509,Midtown,True
6238 MOON ROAD,,,,,,7063226576,6238 MOON ROAD,,COLUMBUS,,,,,,31909,GA,,7065684908,,,,,,,,,,,,,,,,,Nursing Home,,,,6238 MOON ROAD,,,COLUMBUS,,,GA,,31909,US,32.5358322,-84.92373549999999,,True
PINECREST,,,,,,7063226576,472 PINECREST DRIVE,,COLUMBUS,,,,,,31907,GA,,7066892367,,,,,,,,,,,,,,,,,Nursing Home,,,,472 PINECREST DRIVE,,,COLUMBUS,,,GA,,31907,US,32.454509,-84.899174,,True
ELM STREET CLA,,,,,,,202 EAST ELM STREET,,GREENSBORO,,,,,,30642,GA,,7064537706,,,,,,,,,,,,,,,,,Nursing Home,,,,202 EAST ELM STREET,,,GREENSBORO,,,GA,,30642,US,33.5722699,-83.1809696,,True
OWL'S RETREAT CLA 7,,,,,,,4051 SNAPFINGER WAY,,DECATUR,,,,,,30035,GA,,4042287227,,,,,,,,,,,,,,,,,Nursing Home,,,,4051 SNAPFINGER WAY,,,DECATUR,,,GA,,30035,US,33.71814139999999,-84.2240101,,True
"HOUSE OF REFUGE, THE",,,,,,,112 LAKE FOREST DRIVE,,ELBERTON,,,,,,30635,GA,,7062830319,,,,,,,,,,,,,,,,,Nursing Home,,,,112 LAKE FOREST DRIVE,,,ELBERTON,,,GA,,30635,US,34.103915,-82.8730394,,True
BEVERLY HOUSE,,,,,,,882 HIGH HOPE ROAD,,LAWRENCEVILLE,,,,,,30043,GA,,7707170964,,,,,,,,,,,,,,,,,Nursing Home,,,,1093 LANFORD CIRCLE,,,LILBURN,,,GA,,30047,US,33.84764699999999,-84.13038859999999,,True
KEPHART HOUSE,,,,,,,4732 BENNETT STREET,,AUSTELL,,,,,,30106,GA,,7704852129,,,,,,,,,,,,,,,,,Nursing Home,,,,4732 BENNETT STREET,,,AUSTELL,,,GA,,30106,US,33.8384592,-84.6079869,,True
MAGNOLIA COVE,,,,,,,3956 AMBROSE RIDGE COURT,,ELLENWOOD,,,,,,30294,GA,,4042418663,,,,,,,,,,,,,,,,,Nursing Home,,,,3956 AMBROSE RIDGE COURT,,,ELLENWOOD,,,GA,,30294,US,33.665026,-84.28909999999999,,True
SPECTRUM HABILITATION SERVICES # C,,,,,,,175 GEORGIA AVE E,,FAYETTEVILLE,,,,,,30214,GA,,7062215930,,,,,,,,,,,,,,,,,Nursing Home,,,,3624 MONTROSE DRIVE,,,COLUMBUS,,,GA,,31907,US,32.4400039,-84.9321916,,True
KEADLE HOUSE,,,,,,,191 BEN HILL ROAD,,THOMASTON,,,,,,30286,GA,,7066470654,,,,,,,,,,,,,,,,,Nursing Home,,,,191 BEN HILL ROAD,,,THOMASTON,,,GA,,30286,US,32.9298825,-84.2842678,,True
PIPPIN HOUSE,,,,,,,185 BEN  HILL ROAD,,THOMASTON,,,,,,30286,GA,,7066464766,,,,,,,,,,,,,,,,,Nursing Home,,,,185 BEN HILL ROAD,,,THOMASTON,,,GA,,30286,US,32.9303593,-84.2789821,,True
GLENN HILLS,,,,,,,2968 GLENN HILLS DRIVE,,AUGUSTA,,,,,,30906,GA,,7067931351,,,,,,,,,,,,,,,,,Nursing Home,,,,2968 GLENN HILLS DRIVE,,,AUGUSTA,,,GA,,30906,US,33.4289716,-82.0785858,,True
SHIRLEY HOME AWAY FROM HOME,,,,,,,146 VAUGHN DRIVE,,FAYETTEVILLE,,,,,,30214,GA,,7706810644,,,,,,,,,,,,,,,,,Nursing Home,,,,146 VAUGHN DRIVE,,,FAYETTEVILLE,,,GA,,30214,US,33.4641984,-84.4248817,,True
TIMOTHY WOODS C106,,,,,,,2035 TIMOTHY ROAD #C106,,ATHENS,,,,,,30606,GA,,7065499661,,,,,,,,,,,,,,,,,Nursing Home,,,,2035 TIMOTHY ROAD,# C106,,ATHENS,,,GA,,30606,US,33.93704969999999,-83.4513249,,True
MAHAN,,,,,,7065658290,6526 PLAYFIELD DRIVE,,COLUMBUS,,,,,,31907,GA,,7065655669,,,,,,,,,,,,,,,,,Nursing Home,,,,2219 MAHAN DRIVE,,,COLUMBUS,,,GA,,31907,US,32.481479,-84.902991,,True
SPRINGLAKE AT WHITE OAK #912,,,,,,,PO BOX 690,,GREENVILLE,,,,,,30222,GA,,7703043962,,,,,,,,,,,,,,,,,Nursing Home,,,,10 LAKESIDE WAY,,,NEWNAN,,,GA,,30265,US,33.3958443,-84.7387955,,True
SPRINGLAKE AT WHITE OAK #1017,,,,,,,P. O. BOX 690,,GREENVILLE,,,,,,30222,GA,,7703043779,,,,,,,,,,,,,,,,,Nursing Home,,,,10 LAKESIDE WAY,,,NEWNAN,,,GA,,30265,US,33.3958443,-84.7387955,,True
OWL'S RETREAT CLA,,,,,,,1593 CARTER ROAD,,DECATUR,,,,,,30032,GA,,4042842414,,,,,,,,,,,,,,,,,Nursing Home,,,,1593 CARTER ROAD,,,DECATUR,,,GA,,30032,US,33.7465813,-84.2764478,,True
MELROSE PARK I,,,,,,,1945 CLIFF VALLEY WAY,SUITE 220,ATLANTA,,,,,,30329,GA,,6785184156,,,,,,,,,,,,,,,,,Nursing Home,,,,2381 RIMMELE DRIVE,,,LAWRENCEVILLE,,,GA,,30044,US,33.9480868,-84.0792591,,True
NORTHWINDS APARTMENT H-3,,,,,,,281 NORTHWINDS BLVD,,CARROLLTON,,,,,,30117,GA,,7708300224,,,,,,,,,,,,,,,,,Nursing Home,,,,281 NORTHWINDS BLVD,,,CARROLLTON,,,GA,,30117,US,33.607817,-85.08230200000001,,True
NORTHWINDS APARTMENT G-2,,,,,,,281 NORTHWINDS BLVD,,CARROLLTON,,,,,,30117,GA,,7708306802,,,,,,,,,,,,,,,,,Nursing Home,,,,281 NORTHWINDS BLVD,,,CARROLLTON,,,GA,,30117,US,33.607817,-85.08230200000001,,True
BRECKINRIDGE I,,,,,,,1945 CLIFF VALLEY WAY,SUITE 220,ATLANTA,,,,,,30329,GA,,6783809798,,,,,,,,,,,,,,,,,Nursing Home,,,,2006 EXECUTIVE DRIVE,,,DULUTH,,,GA,,30096,US,33.9558552,-84.1166045,Gwinnett Place,True
GENTILITY COMMUNITY LIVING ARRANGEMENT,,,,,,,P.O.BOX 731,,DACULA,,,,,,30019,GA,,7706742579,,,,,,,,,,,,,,,,,Nursing Home,,,,2803 AUSTIN RIDGE DRIVE,,,DACULA,,,GA,,30019,US,34.0064374,-83.894014,,True
BRECKINRIDGE II,,,,,,,1945 CLIFF VALLEY WAY,SUITE 220,ATLANTA,,,,,,30329,GA,,7702799849,,,,,,,,,,,,,,,,,Nursing Home,,,,2845 BRIAR OAK DRIVE,,,DULUTH,,,GA,,30096,US,33.9580423,-84.1131691,Gwinnett Place,True
ENCARE,,,,,,,1725 E-32 STREET,,SAVANNAH,,,,,,31404,GA,,9122346170,,,,,,,,,,,,,,,,,Nursing Home,,,,1725 E-32 STREET,,,SAVANNAH,,,GA,,31404,US,32.0535182,-81.0695446,Midtown,True
APARTMENT #7 119 OLD AIRPORT ROAD,,,,,,,119 OLD AIRPORT ROAD APT#7,,LAGRANGE,,,,,,30240,GA,,7068846020,,,,,,,,,,,,,,,,,Nursing Home,,,,119 OLD AIRPORT ROAD,APT# 7,,LAGRANGE,,,GA,,30240,US,33.0247711,-85.06954879999999,,True
APARTMENT #26 119 OLD AIRPORT ROAD,,,,,,,119 OLD AIRPORT ROAD APT #26,,LAGRANGE,,,,,,30240,GA,,7068846020,,,,,,,,,,,,,,,,,Nursing Home,,,,119 OLD AIRPORT ROAD,# 26,,LAGRANGE,,,GA,,30240,US,33.0247711,-85.06954879999999,,True
APARTMENT #25 119 OLD AIRPORT ROAD,,,,,,,119 OLD AIRPORT ROAD APT#25,,LAGRANGE,,,,,,30240,GA,,7068825254,,,,,,,,,,,,,,,,,Nursing Home,,,,119 OLD AIRPORT ROAD,APT# 25,,LAGRANGE,,,GA,,30240,US,33.0247711,-85.06954879999999,,True
APARTMENT #3 119 OLD AIRPORT ROAD,,,,,,,119 OLD AIRPORT ROAD APT #3,,LAGRANGE,,,,,,30240,GA,,7068823199,,,,,,,,,,,,,,,,,Nursing Home,,,,119 OLD AIRPORT ROAD,# 3,,LAGRANGE,,,GA,,30240,US,33.0247711,-85.06954879999999,,True
SOH COVINGTON 1,,,,,,,581 GARDEN  WALK BLVD.,,COLLEGE PARK,,,,,,30349,GA,,6783420808,,,,,,,,,,,,,,,,,Nursing Home,,,,4196 JACKSON HIGHWAY 36,,,COVINGTON,,,GA,,30016,US,33.5866193,-83.85626580000002,,False
HUNTINGTON ROAD,,,,,,,250 HUNTINGTON ROAD,,ATHENS,,,,,,30606,GA,,7068500744,,,,,,,,,,,,,,,,,Nursing Home,,,,250 HUNTINGTON ROAD,,,ATHENS,,,GA,,30606,US,33.9445691,-83.46389289999999,,True
FAMILY BRIDGE COMMUNITY LIVING ARRANGEMENT,,,,,,,7260 NEW DALE ROAD,,REX,,,,,,30273,GA,,6785192661,,,,,,,,,,,,,,,,,Nursing Home,,,,7260 NEW DALE ROAD,,,REX,,,GA,,30273,US,33.5624794,-84.27422440000001,,True
ST CROIX HOME,,,,,,,3300 NE EXPRESSWAY,BUILDING 9,ATLANTA,,,,,,30341,GA,,7067364203,,,,,,,,,,,,,,,,,Nursing Home,,,,3606 ST CROIX COURT,,,AUGUSTA,,,GA,,30909,US,33.4803774,-82.07924320000001,Kingston,True
C & E INTEGRITY CARE,,,,,,,P.O BOX 731,,DACULA,,,,,,30019,GA,,7706804942,,,,,,,,,,,,,,,,,Nursing Home,,,,2397 ROCKBRIDGE ROAD,,,STONE MOUNTAIN,,,GA,,30087,US,33.8148663,-84.10239109999999,,True
OWL'S RETREAT CLA V,,,,,,,2697 RAINBOW FOREST,,DECATUR,,,,,,30034,GA,,4042841173,,,,,,,,,,,,,,,,,Nursing Home,,,,2697 RAINBOW FOREST,,,DECATUR,,,GA,,30034,US,33.7078211,-84.2418802,,True
PINELAND TRAIL 1,,,,,,,175 EMERY,,MACON,,,,,,31217,GA,,4784718529,,,,,,,,,,,,,,,,,Nursing Home,,,,3605 PINELAND TRAIL,,,MACON,,,GA,,31206,US,32.79638200000001,-83.698492,,True
TWIN PINES I,,,,,,,175 EMERY HWY.,,MACON,,,,,,31217,GA,,4787415147,,,,,,,,,,,,,,,,,Nursing Home,,,,1881 TWIN PINES DRIVE,,,MACON,,,GA,,31211,US,32.8733274,-83.62776819999999,,True
SKYVIEW CIRCLE,,,,,,,2020 OAKCREEK DRIVE,,LITHIA SPRINGS,,,,,,30122,GA,,6784388310,,,,,,,,,,,,,,,,,Nursing Home,,,,1971 SKYVIEW CIRCLE,,,DOUGLASVILLE,,,GA,,30135,US,33.7522416,-84.70562190000001,,True
LAUREL II,,,,,,,PO BOX 1320,,GRIFFIN,,,,,,30224,GA,,7707757273,,,,,,,,,,,,,,,,,Nursing Home,,,,585 MCDONOUGH ROAD,,,JACKSON,,,GA,,30233,US,33.29868039999999,-83.97376179999999,,True
VISIONS OF NEW LIFE,,,,,,,1439 WILLOW DRIVE,,RIVERDALE,,,,,,30296,GA,,7709969001,,,,,,,,,,,,,,,,,Nursing Home,,,,1439 WILLOW DRIVE,,,RIVERDALE,,,GA,,30296,US,33.5924066,-84.4369559,,True
HOLLY HOUSE,,,,,,,4487 PARK DRIVE,SUITE A,NORCROSS,,,,,,30093,GA,,7702976905,,,,,,,,,,,,,,,,,Nursing Home,,,,613 HOLLY DRIVE,,,GAINESVILLE,,,GA,,30501,US,34.314636,-83.84211,,True
"GRINDLE HOUSE, THE",,,,,,,1945 CLIFF VALLEY WAY,SUITE 220,ATLANTA,,,,,,30329,GA,,6783540697,,,,,,,,,,,,,,,,,Nursing Home,,,,72 BURKE STREET,,,MARIETTA,,,GA,,30060,US,33.9107478,-84.55102649999999,,True
ANGEL II CLA,,,,,,,2145 EAST-WEST CONNECTOR  APT 609 SOUTH,,AUSTELL,,,,,,30106,GA,,6789453961,,,,,,,,,,,,,,,,,Nursing Home,,,,2145 EAST-WEST CONNECTOR SOUTH,APT 609,,AUSTELL,,,GA,,30106,US,33.857413,-84.6167983,,True
MALLORY LANE,,,,,,,64 MALLORY LANE,,ELLERSLIE,,,,,,31807,GA,,7065620020,,,,,,,,,,,,,,,,,Nursing Home,,,,64 MALLORY LANE,,,ELLERSLIE,,,GA,,31807,US,32.63534,-84.802775,,True
MITCHELL COUNTY PRO-TENNIS GROUP HOME,,,,,,2294392016,1906 PALMYRA ROAD,,ALBANY,,,,,,31701,GA,,2292940842,,,,,,,,,,,,,,,,,Nursing Home,,,,624 EAST RAILROAD STREET,,,PELHAM,,,GA,,31779,US,31.1146755,-84.14394,,True
SEMINOLE DRIVE,,,,,,,P.O. BOX 1318,,DOUGLASVILLE,,,,,,30133,GA,,7709421131,,,,,,,,,,,,,,,,,Nursing Home,,,,4586 S SEMINOLE DRIVE,,,DOUGLASVILLE,,,GA,,30135,US,33.6807819,-84.7850304,,True
SLIPPERY ROCK,,,,,,,2998 SLIPPERY ROCK COURT,,COLUMBUS,,,,,,31909,GA,,7065690532,,,,,,,,,,,,,,,,,Nursing Home,,,,2998 SLIPPERY ROCK COURT,,,COLUMBUS,,,GA,,31909,US,32.5519811,-84.8856443,,True
LIFE CHOICE II,,,,,,,2728 OLD HORSESHOE BEND,,MARIETTA,,,,,,30064,GA,,7709431624,,,,,,,,,,,,,,,,,Nursing Home,,,,2728 OLD HORSESHOE BEND,,,MARIETTA,,,GA,,30064,US,33.880937,-84.6342536,,True
STONERIDGE,,,,,,,3012 STONERIDGE COURT,,MARIETTA,,,,,,30064,GA,,7704272893,,,,,,,,,,,,,,,,,Nursing Home,,,,3012 STONERIDGE COURT,,,MARIETTA,,,GA,,30064,US,33.9640588,-84.6377054,,True
SUNRISE - GARDEN LAKES,,,,,,,2707 GARDEN LAKES BLVD,,ROME,,,,,,30165,GA,,7062350069,,,,,,,,,,,,,,,,,Nursing Home,,,,2707 GARDEN LAKES BLVD,,,ROME,,,GA,,30165,US,34.2852982,-85.2371078,,True
PARKSIDE,,,,,,,882 HIGH HOPE ROAD,,LAWRENCEVILLE,,,,,,30043,GA,,7708608047,,,,,,,,,,,,,,,,,Nursing Home,,,,3254 LEE RD,,,SNELLVILLE,,,GA,,30039,US,33.7862985,-84.00066129999999,,True
MADISON GROUP HOME,,,,,,,750 BACONFILED DRIVE,SUITE 113,MACON,,,,,,31211,GA,,4782542565,,,,,,,,,,,,,,,,,Nursing Home,,,,121 MADISON STREET,,,MACON,,,GA,,31211,US,32.8468902,-83.6378386,,True
PAPER MILL,,,,,,,734 STARTTON COURT,,DACULA,,,,,,30019,GA,,6782250833,,,,,,,,,,,,,,,,,Nursing Home,,,,158 PAPER MILL ROAD,APT 8103,,LAWRENCEVILLE,,,GA,,30045,US,33.9571062,-83.9679184,,True
SOH-GREENBOWER,,,,,,4047556731,581 GARDEN  WALK BLVD.,,COLLEGE PARK,,,,,,30349,GA,,7709974034,,,,,,,,,,,,,,,,,Nursing Home,,,,6575 GREENBOWER LANE,,,COLLEGE PARK,,,GA,,30349,US,33.576088,-84.4806165,,True
MLK BOULEVARD,,,,,,,1102 SMITH AVENUE,SUITE H,THOMASVILLE,,,,,,31792,GA,,2292254302,,,,,,,,,,,,,,,,,Nursing Home,,,,213 N MLK BOULEVARD,,,THOMASVILLE,,,GA,,31792,US,30.826297,-83.9930119,,True
CRABAPPLE DRIVE,,,,,,,1102 SMITH AVENUE,SUITE H,THOMASVILLE,,,,,,31792,GA,,2292272673,,,,,,,,,,,,,,,,,Nursing Home,,,,845 CRABAPPLE DRIVE,,,THOMASVILLE,,,GA,,31792,US,30.82208099999999,-83.89345,,True
114 COVE,,,,,,,PO BOX 2507,,THOMASVILLE,,,,,,31799,GA,,2292272927,,,,,,,,,,,,,,,,,Nursing Home,,,,114 COVE LANDING DRIVE,,,THOMASVILLE,,,GA,,31792,US,30.8672798,-83.96873660000001,,True
130 COVE,,,,,,,PO BOX 2507,,THOMASVILLE,,,,,,31799,GA,,2292272927,,,,,,,,,,,,,,,,,Nursing Home,,,,130 COVE LANDING DRIVE,,,THOMASVILLE,,,GA,,31792,US,30.86824920000001,-83.9691113,,True
SUNRISE - ABBEY LANE,,,,,,,36 ABBEY LANE,,CARTERSVILLE,,,,,,30120,GA,,7703863314,,,,,,,,,,,,,,,,,Nursing Home,,,,36 ABBEY LANE,,,CARTERSVILLE,,,GA,,30120,US,34.2261695,-84.86599609999999,,True
JUBILEE 2 COMMUNITY LIVING ARRANGEMENT,,,,,,,3344 HOPKINS ROAD,,POWDER SPRINGS,,,,,,30127,GA,,6783248934,,,,,,,,,,,,,,,,,Nursing Home,,,,3344 HOPKINS ROAD,,,POWDER SPRINGS,,,GA,,30127,US,33.8723118,-84.6578304,,True
ENABLE GRIMES PLACE,,,,,,,1200 OLD ELLIS ROAD,,ROSWELL,,,,,,30076,GA,,7709982195,,,,,,,,,,,,,,,,,Nursing Home,,,,505/515 GRIMES PLACE,,,ROSWELL,,,GA,,30075,US,34.02918539999999,-84.3426458,,True
CRENSHAW,,,,,,,217 STOCKBRIDGE ROAD,,JONESBORO,,,,,,30236,GA,,4043632995,,,,,,,,,,,,,,,,,Nursing Home,,,,5800 LILLIAN LANE,,,MORROW,,,GA,,30260,US,33.5966992,-84.3197576,,True
MOUNT EAGLES WINGS CLA,,,,,,,4027 PRESCOTT DRIVE,,MARTINEZ,,,,,,30907,GA,,7063644674,,,,,,,,,,,,,,,,,Nursing Home,,,,4027 PRESCOTT DRIVE,,,MARTINEZ,,,GA,,30907,US,33.513079,-82.103695,,True
14 BARKSDALE DRIVE,,,,,,,3300 N.E. EXPRESSWAY,,ATLANTA,,,,,,30341,GA,,9129209461,,,,,,,,,,,,,,,,,Nursing Home,,,,14 BARKSDALE DRIVE,,,SAVANNAH,,,GA,,31419,US,31.9824051,-81.2254658,,True
BROOKWOOD 1,,,,,,,139 WOODFIELD DR,,MACON,,,,,,31210,GA,,4789869793,,,,,,,,,,,,,,,,,Nursing Home,,,,227 BROOKWOOD DRIVE,,,GRAY,,,GA,,31032,US,33.00694900000001,-83.521925,,True
BARCELENA 1,,,,,,,139 WOODFIELD DR,,MACON,,,,,,31210,GA,,4787819375,,,,,,,,,,,,,,,,,Nursing Home,,,,6954 BARCELENA BLVD,,,MACON,,,GA,,31216,US,32.7219399,-83.700687,,True
SOUTHERN COMMUNITY LIVING,,,,,,,537 COLD WATER LANE,,MCDONOUGH,,,,,,30252,GA,,4782544219,,,,,,,,,,,,,,,,,Nursing Home,,,,2958 FREDERICK DRIVE,,,DRY BRANCH,,,GA,,31020,US,32.80736100000001,-83.53607799999999,,True
ALANDALE 1,,,,,,,139 WOODFIELD DR,,MACON,,,,,,31210,GA,,4787434453,,,,,,,,,,,,,,,,,Nursing Home,,,,2760 ALANDALE DRIVE,,,MACON,,,GA,,31211,US,32.870062,-83.5877749,,True
THAMES PLACE,,,,,,,1040 LAKE HAYNES DRIVE,,CONYERS,,,,,,30012,GA,,7068312372,,,,,,,,,,,,,,,,,Nursing Home,,,,3321 THAMES PLACE,,,HEPHZIBAH,,,GA,,30815,US,33.37946,-82.0556012,,True
807 TAVERN ROAD,,,,,,,3300 NE EXPRESSWAY,BUILDING 9,ATLANTA,,,,,,30341,GA,,9129209722,,,,,,,,,,,,,,,,,Nursing Home,,,,807 TAVERN ROAD,,,SAVANNAH,,,GA,,31419,US,31.993587,-81.150318,Largo Woods,True
MALAMAV COMMUNITY & HUMAN SERVICES CLA,,,,,,,6183 BURNT HICKORY ROAD,,POWDER SPRINGS,,,,,,30127,GA,,6787150566,,,,,,,,,,,,,,,,,Nursing Home,,,,6183 BURNT HICKORY ROAD,,,POWDER SPRINGS,,,GA,,30127,US,33.8064485,-84.7236294,,True
"LOUISE PLACE, THE",,,,,,,1945 CLIFF VALLEY WAY,SUITE 220,ATLANTA,,,,,,30329,GA,,6789450573,,,,,,,,,,,,,,,,,Nursing Home,,,,6090 HIRAM LITHIA SPRINGS ROAD,,,AUSTELL,,,GA,,30106,US,33.8067426,-84.67360939999999,,True
SUNRISE - CLARENDON PLACE,,,,,,,6 CLARENDON PLACE,,ROME,,,,,,30165,GA,,7062320099,,,,,,,,,,,,,,,,,Nursing Home,,,,6 CLARENDON PLACE,,,ROME,,,GA,,30165,US,34.29761899999999,-85.237521,,True
POPLAR #2 CLA,,,,,,,2110 N. PATTERSON ST,SUITE A,VALDOSTA,,,,,,31602,GA,,2292478002,,,,,,,,,,,,,,,,,Nursing Home,,,,1742 POPLAR STREET,,,REMERTON,,,GA,,31601,US,30.8451244,-83.3084793,,True
POPLAR #1 CLA,,,,,,,2110 N. PATTERSON ST,SUITE A,VALDOSTA,,,,,,31602,GA,,2292445222,,,,,,,,,,,,,,,,,Nursing Home,,,,1740 POPLAR STREET,,,REMERTON,,,GA,,31601,US,30.8451803,-83.30823889999999,,True
FAYBROOK GROUP HOME,,,,,,,750 BACONSFIELD DR,SUITE 113,MACON,,,,,,31211,GA,,4783336616,,,,,,,,,,,,,,,,,Nursing Home,,,,107 FAYBROOK DRIVE,,,BYRON,,,GA,,31008,US,32.6302677,-83.7138242,,True
NIX ROAD HOUSE (THE),,,,,,7705210586,1130 NIX ROAD,,ALPHARETTA,,,,,,30004,GA,,7705210586,,,,,,,,,,,,,,,,,Nursing Home,,,,1130 NIX ROAD,,,ALPHARETTA,,,GA,,30004,US,34.15842099999999,-84.328852,,True
COVE LAKE,,,,,,,2395 COVE LAKE WAY,,LITHONIA,,,,,,30058,GA,,6785188170,,,,,,,,,,,,,,,,,Nursing Home,,,,2395 COVE LAKE WAY,,,LITHONIA,,,GA,,30058,US,33.71888289999999,-84.15908879999999,,True
SPRING VIEW PLACE CLA,,,,,,,169 WALENDA DRIVE,,ROME,,,,,,30165,GA,,7063149294,,,,,,,,,,,,,,,,,Nursing Home,,,,169 WALENDA DRIVE,,,ROME,,,GA,,30165,US,34.3471139,-85.1767382,,True
SPECTRUM HABILITATION SERVICES # 6,,,,,,,175 GEORGIA AVE. E,,FAYETTEVILLE,,,,,,30214,GA,,4049967462,,,,,,,,,,,,,,,,,Nursing Home,,,,310 MAGNOLIA WALK LANE,,,COLLEGE PARK,,,GA,,30349-4072,US,33.5901513,-84.4969266,,True
SEABREEZE CLA 2,,,,,,,3132 ROBINSON AVE,,SCOTTDALE,,,,,,30079,GA,,6784098361,,,,,,,,,,,,,,,,,Nursing Home,,,,3132 ROBINSON AVE,,,SCOTTDALE,,,GA,,30079,US,33.7908026,-84.2611514,,True
HARBINSVIEW,,,,,,,734 STRATTON COURT,,DACULA,,,,,,30019,GA,,7703388920,,,,,,,,,,,,,,,,,Nursing Home,,,,990 HARBINS VIEW DRIVE,,,DACULA,,,GA,,30019,US,34.02741059999999,-83.90371669999999,,True
20TH STREET HOME,,,,,,,192 S. VIRGINIA AVE.,SUITE 100,TIFTON,,,,,,31794,GA,,2295569725,,,,,,,,,,,,,,,,,Nursing Home,,,,609 EAST 20TH STREET,,,TIFTON,,,GA,,31794,US,31.4729915,-83.4981277,,True
PRECIOUS ONES,,,,,,,20944 US HWY 84 EAST,,BOSTON,,,,,,31626,GA,,2294985425,,,,,,,,,,,,,,,,,Nursing Home,,,,20944 US HWY 84 EAST,,,BOSTON,,,GA,,31626,US,30.799561,-83.781508,,True
IRWIN HOME,,,,,,,192 S. VIRGINIA AVE.,SUITE 100,TIFTON,,,,,,31794,GA,,2293870732,,,,,,,,,,,,,,,,,Nursing Home,,,,306 IRWIN STREET,,,TIFTON,,,GA,,31794,US,31.4823054,-83.5019124,,True
PINEHAVEN,,,,,,,700 COASTAL VILLEGE DRIVE,,BRUNSWICK,,,,,,31520,GA,,9122613925,,,,,,,,,,,,,,,,,Nursing Home,,,,727 PINEHAVEN CIRCLE,,,BRUNSWICK,,,GA,,31520,US,31.2532314,-81.51728589999999,,True
"ARC LIGHTHOUSE, THE",,,,,,,1945 CLIFF VALLEY WAY SUITE 220,,ATLANTA,,,,,,30329,GA,,7708196960,,,,,,,,,,,,,,,,,Nursing Home,,,,1327 PALMER PLACE,,,MABLETON,,,GA,,30126,US,33.8173466,-84.59299399999999,,True
HAVEN DEVELOPMENTAL CARE,,,,,,,4794 MICHAEL JAY STREET,,SNELLVILLE,,,,,,30039,GA,,7707613402,,,,,,,,,,,,,,,,,Nursing Home,,,,4794 MICHAEL JAY STREET,,,SNELLVILLE,,,GA,,30039,US,33.76409539999999,-84.0192672,,True
HONA'S COMMUNITY LIVING ARRANGEMENT,,,,,,,3213 GRAGG STREET,,SAVANNAH,,,,,,31404,GA,,9123520359,,,,,,,,,,,,,,,,,Nursing Home,,,,3213 GRAGG STREET,,,SAVANNAH,,,GA,,31404,US,32.025051,-81.05450599999999,,True
LIVING CHANGE,,,,,,,301 CASTEEL ROAD,,MARIETTA,,,,,,30064,GA,,6782909019,,,,,,,,,,,,,,,,,Nursing Home,,,,301 CASTEEL ROAD,,,MARIETTA,,,GA,,30064,US,33.94636200000001,-84.6636288,,True
NOELA CLA,,,,,,,708 PARC RIVER BLVD,,LAWRENCEVILLE,,,,,,30046,GA,,7708224179,,,,,,,,,,,,,,,,,Nursing Home,,,,708 PARC RIVER BLVD,,,LAWRENCEVILLE,,,GA,,30046,US,33.9412679,-84.0353938,,True
CARE WIND PLACE,,,,,,,2895 JORDAN AVENUE,,MACON,,,,,,31217,GA,,4783901172,,,,,,,,,,,,,,,,,Nursing Home,,,,2895 JORDAN AVENUE,,,MACON,,,GA,,31217,US,32.86074380000001,-83.57401680000001,,True
YOUNIQUE TOTAL CARE,,,,,,,4995 ROCKBRIDGE ROAD,,STONE MOUNTAIN,,,,,,30088,GA,,6786916141,,,,,,,,,,,,,,,,,Nursing Home,,,,4995 ROCKBRIDGE ROAD,,,STONE MOUNTAIN,,,GA,,30088,US,33.7877106,-84.18962719999999,,True
THOMAS ST HOME,,,,,,,192 S. VIRGINIA AVE.,SUITE 100,TIFTON,,,,,,31794,GA,,2295495819,,,,,,,,,,,,,,,,,Nursing Home,,,,2710 THOMAS STREET,,,ADEL,,,GA,,31620,US,31.163864,-83.4060219,,True
DIAMOND COMMUNITY LIVING HOME II,,,,,,,116 REMINGTON PLACE DRIVE,,DALLAS,,,,,,30157,GA,,7706946060,,,,,,,,,,,,,,,,,Nursing Home,,,,116 REMINGTON PLACE DRIVE,,,DALLAS,,,GA,,30157,US,33.90471299999999,-84.84718509999999,,True
SAINT GABRIEL'S CLA,,,,,,,5200 DALLAS HWY  SUITE 200-210,,POWDER SPRINGS,,,,,,30127,GA,,6784021666,,,,,,,,,,,,,,,,,Nursing Home,,,,1175 OLD HARRIS ROAD,APT 1002,,DALLAS,,,GA,,30157,US,33.90102330000001,-84.8076466,,True
KNOLLWOOD DRIVE,,,,,,,2296 HENDERSON MILL ROAD,SUITE 203,ATLANTA,,,,,,30345,GA,,7066222782,,,,,,,,,,,,,,,,,Nursing Home,,,,3 KNOLLWOOD DRIVE,,,ROME,,,GA,,30165,US,34.2690884,-85.24158,,True
730 PULLMAN LANE,,,,,,,730 PULLMAN LANE,,STOCKBRIDGE,,,,,,30281,GA,,6782892526,,,,,,,,,,,,,,,,,Nursing Home,,,,730 PULLMAN LANE,,,STOCKBRIDGE,,,GA,,30281,US,33.5430196,-84.2505223,,True
BENNETT CLA,,,,,,,1877 SINGER WAY,,LITHONIA,,,,,,30058,GA,,6787915165,,,,,,,,,,,,,,,,,Nursing Home,,,,1877 SINGER WAY,,,LITHONIA,,,GA,,30058,US,33.735482,-84.158362,,True
LOVE WITH COMPASSION,,,,,,,1093 FOREST PATH,,STONE MOUNTAIN,,,,,,30088,GA,,6786203308,,,,,,,,,,,,,,,,,Nursing Home,,,,1093 FOREST PATH,,,STONE MOUNTAIN,,,GA,,30088,US,33.76146389999999,-84.1675039,,True
GRACE OASIS PCH,,,,,,,2629 HILDERBRAND DRIVE,,DOUGLASVILLE,,,,,,30135,GA,,7706167758,,,,,,,,,,,,,,,,,Nursing Home,,,,2629 HILDERBRAND DRIVE,,,DOUGLASVILLE,,,GA,,30135,US,33.6889894,-84.6618934,,True
"PASCHAL HOME, THE",,,,,,,1945 CLIFF VALLEY WAY,SUITE 220,ATLANTA,,,,,,30329,GA,,7709417736,,,,,,,,,,,,,,,,,Nursing Home,,,,1846 SYLVIA STREET,,,AUSTELL,,,GA,,30106,US,33.820347,-84.6083496,,True
"ART OF LIVING CLA II, THE",,,,,,,3995 AMBROSE WAY,,ELLENWOOD,,,,,,30294,GA,,4042417618,,,,,,,,,,,,,,,,,Nursing Home,,,,3995 AMBROSE WAY,,,ELLENWOOD,,,GA,,30294,US,33.66353770000001,-84.2883898,,True
LIBERTY GROUP HOME B,,,,,,,700 COASTAL VILLEGE DRIVE,,BRUNSWICK,,,,,,31520,GA,,9123687472,,,,,,,,,,,,,,,,,Nursing Home,,,,760 B SOUTH MAIN STREET,,,HINESVILLE,,,GA,,31313,US,31.8257121,-81.6043011,,True
MICHROCH HOMECARE SERVICES,,,,,,,1241 HOGAN RIDGE COURT,,GRAYSON,,,,,,30017,GA,,7706482767,,,,,,,,,,,,,,,,,Nursing Home,,,,1241 HOGAN RIDGE COURT,,,GRAYSON,,,GA,,30017,US,33.89028920000001,-83.9857306,,True
CUTTER'S MILL,,,,,,,1573 CUTTER'S MILL DRIVE,,LITHONIA,,,,,,30058,GA,,7704826050,,,,,,,,,,,,,,,,,Nursing Home,,,,1573 CUTTER'S MILL DRIVE,,,LITHONIA,,,GA,,30058,US,33.7513886,-84.1043996,,True
LOWE'S GUARDIAN ANGEL II,,,,,,,7056 EUNICE DRIVE,,RIVERDALE,,,,,,30274,GA,,6785863171,,,,,,,,,,,,,,,,,Nursing Home,,,,7056 EUNICE DRIVE,,,RIVERDALE,,,GA,,30274,US,33.5619525,-84.39840869999999,,True
MILLERFIELD I,,,,,,4787514555,139 WOODFIELD DR,,MACON,,,,,,31210,GA,,4782545074,,,,,,,,,,,,,,,,,Nursing Home,,,,2665 MILLERFIELD ROAD,,,MACON,,,GA,,31217,US,32.8598566,-83.5786912,,True
MOUNTAIN VIEW CLA,,,,,,,625 N 5TH AVE,,CHATSWORTH,,,,,,30705,GA,,7066950240,,,,,,,,,,,,,,,,,Nursing Home,,,,625 N 5TH AVE,,,CHATSWORTH,,,GA,,30705,US,34.773605,-84.7730129,,True
NATE'S PLACE PERSONAL CARE,,,,,,,PO BOX 6567,,COLUMBUS,,,,,,31917,GA,,7062213614,,,,,,,,,,,,,,,,,Nursing Home,,,,1111 BETTY DRIVE,,,COLUMBUS,,,GA,,31907,US,32.46891199999999,-84.920367,,True
WHISPERING WAY - NORMAL LIFE OF GA,,,,,,,1551 JENNINGS MILL ROAD,SUITE 1600 B,BOGART,,,,,,30622,GA,,4704293486,,,,,,,,,,,,,,,,,Nursing Home,,,,868 WHISPERING WAY,,,WINDER,,,GA,,30680,US,34.0152451,-83.7343764,,True
GEORGIA RESIDENTIAL & COMMUNITY CARE II,,,,,,,5644 HUNTER CROSSING COURT,,LITHONIA,,,,,,30338,GA,,7707365524,,,,,,,,,,,,,,,,,Nursing Home,,,,3160 ASHLY BROOKE DRIVE,,,SNELLVILLE,,,GA,,30078,US,33.8302383,-84.0288496,,True
169 OAK BLUFF CLA,,,,,,,795 NEWTON BRIDGE ROAD,,ATHENS,,,,,,30607,GA,,7065839599,,,,,,,,,,,,,,,,,Nursing Home,,,,169 OAK BLUFF DRIVE,,,ATHENS,,,GA,,30607,US,34.005808,-83.3855408,,True
SOUTHERN COMMUNITY SERVICES CLA #1,,,,,,,417 EAST BRYAN,,DOUGLAS,,,,,,31533,GA,,9123844858,,,,,,,,,,,,,,,,,Nursing Home,,,,417 EAST BRYAN,,,DOUGLAS,,,GA,,31533,US,31.506496,-82.84606699999999,,True
AUSTIN CHASE #1904,,,,,,4784710655,4580 N MUMFORD RD,,MACON,,,,,,31210,GA,,4783307083,,,,,,,,,,,,,,,,,Nursing Home,,,,291 PLANTATION CENTER DRIVE,APT 1904,,MACON,,,GA,,31210,US,32.886591,-83.757645,,True
EXCEPTIONAL COMMUNITY SERVICES,,,,,,,P.O. BOX 1662,,MONROE,,,,,,30655,GA,,7702077704,,,,,,,,,,,,,,,,,Nursing Home,,,,1812 BROOK COURT,,,MONROE,,,GA,,30655,US,33.7908653,-83.6730216,,True
BURTON ROAD HOME,,,,,,,3 DUNWOODY PARK,SUITE 103,ATLANTA,,,,,,30338,GA,,7066223143,,,,,,,,,,,,,,,,,Nursing Home,,,,150 BURTON ROAD,,,ROME,,,GA,,30161,US,34.275694,-85.12544299999999,,True
EDLYN CARE SERVICES,,,,,,8664916291,110 DANIEL CREEK LANE,,SUGAR HILL,,,,,,30518,GA,,7706149434,,,,,,,,,,,,,,,,,Nursing Home,,,,110 DANIEL CREEK LANE,,,SUGAR HILL,,,GA,,30518,US,34.1012132,-84.0793075,,True
HOPE HAVEN - WINCHESTER WAY,,,,,,,140 WINCHESTER WAY,,ATHENS,,,,,,30606,GA,,7063536111,,,,,,,,,,,,,,,,,Nursing Home,,,,140 WINCHESTER WAY,,,ATHENS,,,GA,,30606,US,33.9768641,-83.4423975,,True
GEORGIA MENTOR - PUPPY CHASE,,,,,,7703853713,2302 PARKLAND DRIVE,NE SUITE 200,ATLANTA,,,,,,30345,GA,,7703853711,,,,,,,,,,,,,,,,,Nursing Home,,,,35 PUPPY CHASE,,,SOCIAL CIRCLE,,,GA,,30025,US,33.599782,-83.727593,,True
"EIGHTEENTH HOUSE, THE",,,,,,,3300 N.E. EXPRESSWAY BLDG 9,,ATLANTA,,,,,,30341,GA,,7706762000,,,,,,,,,,,,,,,,,Nursing Home,,,,469 LANE DRIVE,,,MABLETON,,,GA,,30126,US,33.80560389999999,-84.5678703,,True
S & S CLA,,,,,,,1880 SINGER WAY,,LITHONIA,,,,,,30058,GA,,6785188616,,,,,,,,,,,,,,,,,Nursing Home,,,,1880 SINGER WAY,,,LITHONIA,,,GA,,30058,US,33.7358652,-84.15796,,True
BLACKOAK,,,,,,7063236576,743 BLACK OAK DRIVE,,COLUMBUS,,,,,,31906,GA,,7065658237,,,,,,,,,,,,,,,,,Nursing Home,,,,743 BLACK OAK DRIVE,,,COLUMBUS,,,GA,,31906,US,32.45971,-84.885994,,True
AD&S CLA,,,,,,,3685 SUMMIT TRACE,,DECATUR,,,,,,30034,GA,,9128775488,,,,,,,,,,,,,,,,,Nursing Home,,,,624 MAXWELL STREET,,,HINESVILLE,,,GA,,31313,US,31.83349179999999,-81.6036231,,True
CASSIE'S CORNER,,,,,,,1945 CLIFF VALLEY WAY,,ATLANTA,,,,,,30329,GA,,6783318620,,,,,,,,,,,,,,,,,Nursing Home,,,,3096 SKYVIEW LANE,,,MARIETTA,,,GA,,30066,US,34.0265376,-84.52093090000001,Addison Heights,True
2013 ARROWPOINT LANE,,,,,,7063226576,2013 ARROWPOINT LANE,,COLUMBUS,,,,,,31907,GA,,7065617016,,,,,,,,,,,,,,,,,Nursing Home,,,,2013 ARROWPOINT LANE,,,COLUMBUS,,,GA,,31907,US,32.4889019,-84.8841461,,True
WESLEYAN WOODS HOME,,,,,,4784710655,4580 NORTH MUMFORD ROAD,,MACON,,,,,,31210,GA,,4783307082,,,,,,,,,,,,,,,,,Nursing Home,,,,4842 WESLEYAN WOODS DRIVE,,,MACON,,,GA,,31210,US,32.8820867,-83.7152019,,True
POPPYSEED LOOP,,,,,,7063226576,3010 POPPYSEED LOOP,,COLUMBUS,,,,,,31907,GA,,7065658938,,,,,,,,,,,,,,,,,Nursing Home,,,,3010 POPPYSEED LOOP,,,COLUMBUS,,,GA,,31907,US,32.49244700000001,-84.879961,,True
12 BROOKSTONE CLA,,,,,,,3 DUNWOODY PARK,SUITE 103,ATLANTA,,,,,,30338,GA,,7066225194,,,,,,,,,,,,,,,,,Nursing Home,,,,12 BROOKSTONE DRIVE,,,ROME,,,GA,,30165-1909,US,34.2784706,-85.2391937,,True
10 BROOKSTONE CLA,,,,,,,3 DUNWOODY PARK,SUITE 103,ATLANTA,,,,,,30338,GA,,7066225193,,,,,,,,,,,,,,,,,Nursing Home,,,,10 BROOKSTONE DRIVE,,,ROME,,,GA,,30165-1909,US,34.2782586,-85.2391524,,True
FLOWERS COMMUNITY LIVING,,,,,,,8180 MCKENZIE PLACE,,LITHONIA,,,,,,30058,GA,,7709121055,,,,,,,,,,,,,,,,,Nursing Home,,,,8180 MCKENZIE PLACE,,,LITHONIA,,,GA,,30058,US,33.7352665,-84.0549324,,True
KEIKO PERSONAL CARE SYSTEM,,,,,,,299 FOWLER ROAD,SW,SMYRNA,,,,,,30082,GA,,7704320260,,,,,,,,,,,,,,,,,Nursing Home,,,,299 FOWLER ROAD SW,,,SMYRNA,,,GA,,30082,US,33.8507624,-84.5623643,,True
BRADLEY'S LIVING ASSISTED CENTER,,,,,,,P.O. BOX 731,,DACULA,,,,,,30019,GA,,7064862615,,,,,,,,,,,,,,,,,Nursing Home,,,,1041 CHICO ROAD,,,CRAWFORDVILLE,,,GA,,30631,US,33.54502,-83.00953899999999,,True
"SMART PLACE AT INDIAN LAKES, THE",,,,,,,3980 INDIAN LAKES CIRCLE,,STONE MOUNTAIN,,,,,,30083,GA,,4042283079,,,,,,,,,,,,,,,,,Nursing Home,,,,3980 INDIAN LAKES CIRCLE,,,STONE MOUNTAIN,,,GA,,30083,US,33.781954,-84.2265049,,True
HOME AWAY FROM HOM4,,,,,,,90 COMMERCE DRIVE,,FAYETTEVILLE,,,,,,30214,GA,,7707810644,,,,,,,,,,,,,,,,,Nursing Home,,,,180 WHITNEY WAY,,,FAYETTEVILLE,,,GA,,30214,US,33.497817,-84.484382,,True
CENTER ST,,,,,,,1185 CENTER STREET,,MABLETON,,,,,,30126,GA,,7709482690,,,,,,,,,,,,,,,,,Nursing Home,,,,1185 CENTER STREET,,,MABLETON,,,GA,,30126,US,33.82320309999999,-84.58873609999999,,True
LOIS LANE,,,,,,,1102 SMITH AVE,SUITE H,THOMASVILLE,,,,,,31792,GA,,2292254354,,,,,,,,,,,,,,,,,Nursing Home,,,,102 LOIS LANE,,,THOMASVILLE,,,GA,,31792,US,30.82964520000001,-83.9360554,,True
SPAIR STREET,,,,,,,1102 SMITH AVE,SUITE H,THOMASVILLE,,,,,,31792,GA,,2292255044,,,,,,,,,,,,,,,,,Nursing Home,,,,322 N SPAIR STREET,,,THOMASVILLE,,,GA,,31792,US,30.8453369,-83.9750557,,True
CORMORANT,,,,,,,127 CORMORANT WAY,,SAVANNAH,,,,,,31419,GA,,9129615731,,,,,,,,,,,,,,,,,Nursing Home,,,,127 CORMORANT WAY,,,SAVANNAH,,,GA,,31419,US,31.9732802,-81.24351829999999,,True
DYCHES,,,,,,,810 DYCHES DRIVE,,SAVANNAH,,,,,,31406,GA,,9129254888,,,,,,,,,,,,,,,,,Nursing Home,,,,810 DYCHES DRIVE,,,SAVANNAH,,,GA,,31406,US,31.9868933,-81.1201442,Paradise Park,True
BRIDLEWOOD GROUP HOME,,,,,,,700  COASTAL VILLAGE DRIVE,,BRUNSWICK,,,,,,31520,GA,,9129213711,,,,,,,,,,,,,,,,,Nursing Home,,,,12509 BRIDLEWOOD DRIVE,,,SAVANNAH,,,GA,,31419,US,31.9727824,-81.1365835,Windsor Forest,True
BROOKSIDE CLA,,,,,,,308 BROOKSIDE DRIVE,,ADEL,,,,,,31620,GA,,2292233119,,,,,,,,,,,,,,,,,Nursing Home,,,,308 BROOKSIDE DRIVE,,,ADEL,,,GA,,31620,US,31.135398,-83.41615,,True
BARNSLEY HOME,,,,,,,3 DUNWOODY PARK,SUITE 103,ATLANTA,,,,,,30338,GA,,7708773118,,,,,,,,,,,,,,,,,Nursing Home,,,,25 BARNSLEY VILLAGE TRAIL,,,ADAIRSVILLE,,,GA,,30103,US,34.364019,-84.921075,,True
L'ARCHE ATLANTA 1,,,,,,,305 MEAD ROAD,,DECATUR,,,,,,30030,GA,,4043787840,,,,,,,,,,,,,,,,,Nursing Home,,,,305 MEAD ROAD,,,DECATUR,,,GA,,30030,US,33.7616493,-84.30473529999999,Oakhurst,True
OAK MANOR,,,,,,,882 HI HOPE RD,,LAWRENCEVILLE,,,,,,30043,GA,,4703213296,,,,,,,,,,,,,,,,,Nursing Home,,,,1985 OAK ROAD,,,SNELLVILLE,,,GA,,30078,US,33.864782,-84.02627500000001,,True
SUNSHINE HOUSE,,,,,,,700 COASTAL VILLEGE DRIVE,,BRUNSWICK,,,,,,31520,GA,,9122613981,,,,,,,,,,,,,,,,,Nursing Home,,,,6055 NEW JESUP HIGHWAY,,,BRUNSWICK,,,GA,,31523,US,31.2396315,-81.5415198,,True
BUFORD PLACE HOME,,,,,,4784710655,4580 NORTH MUMFORD ROAD,,MACON,,,,,,31210,GA,,4783307081,,,,,,,,,,,,,,,,,Nursing Home,,,,251 BUFORD PLACE,,,MACON,,,GA,,31204,US,32.85004200000001,-83.65952279999999,,True
DEMBURE CLA VIII,,,,,,,676 SOUTH HAIRSTON ROAD,,STONE MOUNTAIN,,,,,,30088,GA,,4047489771,,,,,,,,,,,,,,,,,Nursing Home,,,,676 SOUTH HAIRSTON ROAD,,,STONE MOUNTAIN,,,GA,,30088,US,33.778113,-84.191886,,True
"COMFORTING HOME, A",,,,,,,4039 ENGLISH VALLEY DRIVE,,ELLENWOOD,,,,,,30294,GA,,4042122647,,,,,,,,,,,,,,,,,Nursing Home,,,,4039 ENGLISH VALLEY DRIVE,,,ELLENWOOD,,,GA,,30294,US,33.662573,-84.2136475,,True
ENABLE LYNNE CIRCLE,,,,,,,1200 OLD ELLIS ROAD,,ROSWELL,,,,,,30076,GA,,7703439458,,,,,,,,,,,,,,,,,Nursing Home,,,,333 LYNNE CIRCLE,,,ALPHARETTA,,,GA,,30004,US,34.0778524,-84.30352309999999,,True
ABC COMFORT HOUSE,,,,,,,1140 CARLO TERRACE,,ATLANTA,,,,,,30331,GA,,4049632295,,,,,,,,,,,,,,,,,Nursing Home,,,,1140 CARLO TERRACE,,,ATLANTA,,,GA,,30331,US,33.73549959999999,-84.5525708,,True
BAY COVE COMMUNITY LIVING ARRANGEMENT,,,,,,,2460 KINGS PARK CIRCLE,,DECATUR,,,,,,30034,GA,,4043431652,,,,,,,,,,,,,,,,,Nursing Home,,,,2460 KINGS PARK CIRCLE,,,DECATUR,,,GA,,30034,US,33.710833,-84.239497,,True
SUNSHINE DREAM CLA,,,,,,,4841 LENORA CHURCH ROAD,,SNELLVILLE,,,,,,30039,GA,,7706795094,,,,,,,,,,,,,,,,,Nursing Home,,,,4841 LENORA CHURCH ROAD,,,SNELLVILLE,,,GA,,30039,US,33.778013,-83.993763,,True
KAREEM'S PLACE,,,,,,,203 A SPORTSMAN CLUB ROAD,,LEESBURG,,,,,,31763,GA,,2294324766,,,,,,,,,,,,,,,,,Nursing Home,,,,203 A SPORTSMAN CLUB ROAD,,,LEESBURG,,,GA,,31763,US,31.631863,-84.1054286,,True
SARA FERA HOUSE,,,,,,,5951 SOUTH GORDON ROAD,,AUSTELL,,,,,,30168,GA,,7704859836,,,,,,,,,,,,,,,,,Nursing Home,,,,5951 SOUTH GORDON ROAD,,,AUSTELL,,,GA,,30168,US,33.8094616,-84.6070496,,True
LIFETIME CLA,,,,,,,706 HIGH POINT DRIVE,,WINDER,,,,,,30680,GA,,6784252326,,,,,,,,,,,,,,,,,Nursing Home,,,,706 HIGH POINT DRIVE,,,WINDER,,,GA,,30680,US,34.009518,-83.74042399999999,,True
"LAKES, THE",,,,,,7063226576,4343 WARM SPRINGS ROAD # 516,,COLUMBUS,,,,,,31909,GA,,7065656384,,,,,,,,,,,,,,,,,Nursing Home,,,,4343 WARM SPRINGS ROAD,# 516,,COLUMBUS,,,GA,,31909,US,32.519289,-84.9210987,,True
SOH - FANNIE HEAD,,,,,,4047556731,581 GARDEN  WALK BLVD.,,COLLEGE PARK,,,,,,30349,GA,,9124276103,,,,,,,,,,,,,,,,,Nursing Home,,,,387 FANNIE HEAD DRIVE,,,JESUP,,,GA,,31545,US,31.6623928,-81.891251,,True
SOUTHERN COMMUNITY SERVICES CLA # 2,,,,,,,315 SOUTH GASKIN AVENUE,,DOUGLAS,,,,,,31533,GA,,9122852764,,,,,,,,,,,,,,,,,Nursing Home,,,,3205 ALMA HWY,,,WAYCROSS,,,GA,,31503,US,31.2743778,-82.4158417,,True
OPEN HEARTS CARIBAEA,,,,,,,1931 CARIBAEA TRAIL,,ATLANTA,,,,,,30316,GA,,4042411667,,,,,,,,,,,,,,,,,Nursing Home,,,,1931 CARIBAEA TRAIL,,,ATLANTA,,,GA,,30316,US,33.7014775,-84.3110209,,True
COLLEGE HOUSE,,,,,,,217 SOUTH COLLEGE AVE,,DOUGLAS,,,,,,31533,GA,,9123840088,,,,,,,,,,,,,,,,,Nursing Home,,,,217 SOUTH COLLEGE AVE,,,DOUGLAS,,,GA,,31533,US,31.5073573,-82.8550563,,True
2300,,,,,,,170 COLLEGE STREET,,MACON,,,,,,31201,GA,,4787439684,,,,,,,,,,,,,,,,,Nursing Home,,,,2300 UPPER RIVER ROAD,,,MACON,,,GA,,31211,US,32.88106,-83.63120699999999,,True
JOE SPEIGHT HOME FOR MEN,,,,,,,1906 PALMYRA ROAD,,ALBANY,,,,,,31701,GA,,4786279295,,,,,,,,,,,,,,,,,Nursing Home,,,,1146 OAK STREET,,,UNADILLA,,,GA,,31091,US,32.2687397,-83.7372429,,True
LOVING TOUCH,,,,,,,1478 GOLF LINK DRIVE,,STONE MOUNTAIN,,,,,,30088,GA,,7706744930,,,,,,,,,,,,,,,,,Nursing Home,,,,1478 GOLF LINK DRIVE,,,STONE MOUNTAIN,,,GA,,30088,US,33.7487569,-84.18052910000002,,True
BELLVIEW CLA,,,,,,,1552 FORT MORRIS ROAD,,MIDWAY,,,,,,31320,GA,,9128846899,,,,,,,,,,,,,,,,,Nursing Home,,,,1552 FORT MORRIS ROAD,,,MIDWAY,,,GA,,31320,US,31.750872,-81.30321649999999,,True
DAUFY ADULT COMMUNITY SERVICES,,,,,,,13078 REGION TRACE,,ALPHARETTA,,,,,,30004,GA,,7706197051,,,,,,,,,,,,,,,,,Nursing Home,,,,13078 REGION TRACE,,,ALPHARETTA,,,GA,,30004,US,34.0999138,-84.2783777,,True
BLESSINGS ASSURANCE,,,,,,,285 VICKERY LANE,,FAYETTEVILLE,,,,,,30215,GA,,6784693977,,,,,,,,,,,,,,,,,Nursing Home,,,,285 VICKERY LANE,,,FAYETTEVILLE,,,GA,,30215,US,33.4432826,-84.39519229999999,,True
DEVINE TRINITY CLA,,,,,,,8641 EAST OGLETHORPE HWY,,MIDWAY,,,,,,31320,GA,,9128842625,,,,,,,,,,,,,,,,,Nursing Home,,,,8641 EAST OGLETHORPE HWY,,,MIDWAY,,,GA,,31320,US,31.8022843,-81.4675053,,True
GEORGIA MENTOR-SARDIS CHURCH ROAD,,,,,,,2302 PARKLAKE DRIVE,NE SUITE 200,ATLANTA,,,,,,30345,GA,,4783306692,,,,,,,,,,,,,,,,,Nursing Home,,,,117 SARDIS CHURCH ROAD,,,BARNESVILLE,,,GA,,30204,US,32.9983509,-84.10767349999999,,True
CORDELE INTENSIVE TRAINING RESIDENCE,,,,,,,PO DRAWER 1348,,AMERICUS,,,,,,31709,GA,,2299316988,,,,,,,,,,,,,,,,,Nursing Home,,,,613 13TH AVE EAST,,,CORDELE,,,GA,,31015,US,31.96654700000001,-83.7907199,,True
"CARTER HOUSE, THE",,,,,,,211 CORDER RD,,WARNER ROBINS,,,,,,31088,GA,,4789292442,,,,,,,,,,,,,,,,,Nursing Home,,,,707 BRIARCLIFF ROAD,,,WARNER ROBINS,,,GA,,31088,US,32.610094,-83.6329679,,True
JUBLIEE COMMUNITY LIVING ARRANGEMENT,,,,,,,3221 HOPKINS ROAD,,POWDER SPRINGS,,,,,,30127,GA,,7709434214,,,,,,,,,,,,,,,,,Nursing Home,,,,3221 HOPKINS ROAD,,,POWDER SPRINGS,,,GA,,30127,US,33.8751009,-84.6584053,,True
TORRANCE HOME,,,,,,,P.O. BOX 1827,,MILLEDGEVILLE,,,,,,31059,GA,,4784452947,,,,,,,,,,,,,,,,,Nursing Home,,,,156 TORRANCE ROAD,,,MILLEDGEVILLE,,,GA,,31061,US,32.9865356,-83.3058811,,True
MALAMAV COMMUNITY AND HUMAN SERVICES HECK ROAD,,,,,,,70 HECK ROAD,,KENNESAW,,,,,,30144,GA,,7703090698,,,,,,,,,,,,,,,,,Nursing Home,,,,70 HECK ROAD,,,KENNESAW,,,GA,,30144,US,34.0501442,-84.5486227,,True
PRECIOUS LIVING,,,,,,,448 REGISTRY BLUFF,,STONE MOUNTAIN,,,,,,30087,GA,,7704652505,,,,,,,,,,,,,,,,,Nursing Home,,,,448 REGISTRY BLUFF,,,STONE MOUNTAIN,,,GA,,30087,US,33.7882271,-84.1040943,,True
STILLWOOD,,,,,,,700 COASTAL VILLAGE DR,,BRUNSWICK,,,,,,31520,GA,,9129213742,,,,,,,,,,,,,,,,,Nursing Home,,,,1406 STILLWOOD DRIVE,,,SAVANNAH,,,GA,,31419,US,31.96213239999999,-81.1561681,Berkshire Woods,True
FIRST OPTION SERVICES,,,,,,,552 VICKERS LN,,LOCUST GROVE,,,,,,30248,GA,,7704612926,,,,,,,,,,,,,,,,,Nursing Home,,,,928 HIGHWAY 314,,,FAYETTEVILLE,,,GA,,30214,US,33.5207508,-84.45097969999999,,False
BETHLEHEM ROAD GROUP HOME,,,,,,,1906 PALMYRA ROAD,,ALBANY,,,,,,31701,GA,,9126876704,,,,,,,,,,,,,,,,,Nursing Home,,,,4409 BETHLEHEM ROAD,,,JESUP,,,GA,,31546,US,31.5790429,-81.8179298,,True
COLUMBUS GROUP HOME,,,,,,,4450 COLUMBUS ROAD,,MACON,,,,,,31206,GA,,4784776395,,,,,,,,,,,,,,,,,Nursing Home,,,,4450 COLUMBUS ROAD,,,MACON,,,GA,,31206,US,32.824518,-83.71458539999999,,True
PEACE CLA,,,,,,,1352 REGAL HEIGHTS DRIVE,,LITHONIA,,,,,,30058,GA,,7704828215,,,,,,,,,,,,,,,,,Nursing Home,,,,1352 REGAL HEIGHTS DRIVE,,,LITHONIA,,,GA,,30058,US,33.756076,-84.114795,,True
CRESTVIEW IGR,,,,,,,1832 CRESTVIEW DRIVE,,MACON,,,,,,31211,GA,,4787432817,,,,,,,,,,,,,,,,,Nursing Home,,,,1832 CRESTVIEW DRIVE,,,MACON,,,GA,,31211,US,32.86716619999999,-83.61814679999999,,True
"PATON, GLYNN GROUP HOME",,,,,,,700 COASTAL VILLEGE DRIVE,,BRUNSWICK,,,,,,31520,GA,,3122646065,,,,,,,,,,,,,,,,,Nursing Home,,,,107 BAYBRIDGE DRIVE,,,BRUNSWICK,,,GA,,31520,US,31.2193191,-81.4778753,,True
GREENTREE PARKWAY IGR,,,,,,,754 GREENTREE PARKWAY,,MACON,,,,,,31220,GA,,4784716821,,,,,,,,,,,,,,,,,Nursing Home,,,,754 GREENTREE PARKWAY,,,MACON,,,GA,,31220,US,32.8715578,-83.7615129,,True
TWIN PINES GROUP HOME,,,,,,,750 BACONSFIELD DR,SUITE 113,MACON,,,,,,31211,GA,,4782546827,,,,,,,,,,,,,,,,,Nursing Home,,,,1776 TWIN PINES DRIVE,,,MACON,,,GA,,31211,US,32.8709212,-83.6295493,,True
INDEPENDENT GROUP RESIDENCE,,,,,,,1749 GRAHAM ROAD,,MACON,,,,,,31211,GA,,4787456588,,,,,,,,,,,,,,,,,Nursing Home,,,,1749 GRAHAM ROAD,,,MACON,,,GA,,31211,US,32.8828942,-83.60992689999999,,True
SOUTHERN INTERNATIONAL LIVING,,,,,,,3437 MOUNT OLIVE ROAD,,EAST POINT,,,,,,30344,GA,,4046846884,,,,,,,,,,,,,,,,,Nursing Home,,,,3437 MOUNT OLIVE ROAD,,,EAST POINT,,,GA,,30344,US,33.6623329,-84.4786005,,True
JEFFERSONVILLE ROAD I,,,,,,,1612 JEFFERSONVILLE ROAD,,MACON,,,,,,31217,GA,,4787435528,,,,,,,,,,,,,,,,,Nursing Home,,,,1612 JEFFERSONVILLE ROAD,,,MACON,,,GA,,31217,US,32.852359,-83.595407,,True
JEFFERSONVILLE ROAD II,,,,,,,1990 JEFFERSONVILLE ROAD,,MACON,,,,,,31217,GA,,4787435556,,,,,,,,,,,,,,,,,Nursing Home,,,,1990 JEFFERSONVILLE ROAD,,,MACON,,,GA,,31217,US,32.8520286,-83.58678929999999,,True
LAKE WILDWOOD IGR,,,,,,,145 LAKE WILDWOOD DRIVE,,MACON,,,,,,31220,GA,,4784716875,,,,,,,,,,,,,,,,,Nursing Home,,,,145 LAKE WILDWOOD DRIVE,,,MACON,,,GA,,31220,US,32.8789626,-83.7746769,,True
FALCON PARK VII,,,,,,,202 NORTH DAVID DRIVE PMB 164,,WARNER ROBINS,,,,,,31093,GA,,4789239679,,,,,,,,,,,,,,,,,Nursing Home,,,,601 LANGLEY STREET,,,WARNER ROBINS,,,GA,,31098,US,32.6056036,-83.6098044,,True
QUINLAN GROUP HOME,,,,,,,805 QUINLAN DRIVE,,MACON,,,,,,31206,GA,,4787819630,,,,,,,,,,,,,,,,,Nursing Home,,,,805 QUINLAN DRIVE,,,MACON,,,GA,,31206,US,32.8053367,-83.6499274,,True
"MOORE, SHARLENE'S CLA",,,,,,,1401 BELCHER LANE,,BAINBRIDGE,,,,,,39817,GA,,2292482955,,,,,,,,,,,,,,,,,Nursing Home,,,,1401 BELCHER LANE,,,BAINBRIDGE,,,GA,,39817,US,30.916406,-84.5542186,,True
"WALKER HOME, THE",,,,,,,631 LOKCHAPEE RIDGE,,MACON,,,,,,31210,GA,,4784770583,,,,,,,,,,,,,,,,,Nursing Home,,,,631 LOKCHAPEE RIDGE,,,MACON,,,GA,,31210,US,32.883683,-83.695852,,True
SMITH'S CLA,,,,,,,309 ADVANCE STREET,,SWAINSBORO,,,,,,30401,GA,,4784550701,,,,,,,,,,,,,,,,,Nursing Home,,,,309 ADVANCE STREET,,,SWAINSBORO,,,GA,,30401,US,32.5957998,-82.3224785,,True
WRIGHT CHOICE CLA,,,,,,,476 WRIGHT ROAD,,EAST DUBLIN,,,,,,31027,GA,,4782723228,,,,,,,,,,,,,,,,,Nursing Home,,,,476 WRIGHT ROAD,,,EAST DUBLIN,,,GA,,31027,US,32.578363,-82.86609399999999,,True
PROVIDENCE HOME CLA SERVICES,,,,,,,216 WEST BROAD,SUITE B,FAIRBURN,,,,,,30213,GA,,4049317854,,,,,,,,,,,,,,,,,Nursing Home,,,,455 PINEY FORK LANE,,,COLLEGE PARK,,,GA,,30349,US,33.5741299,-84.48768,,True
FEHE CLA,,,,,,,1967 COVENTRY WAY,,JONESBORO,,,,,,30236,GA,,7702941217,,,,,,,,,,,,,,,,,Nursing Home,,,,1967 COVENTRY WAY,,,JONESBORO,,,GA,,30236,US,33.5418358,-84.32642299999999,,True
DOVE CARE SERVICES CLA,,,,,,,772 YORKSHIRE DRIVE,,JONESBORO,,,,,,30236,GA,,7706030981,,,,,,,,,,,,,,,,,Nursing Home,,,,772 YORKSHIRE DRIVE,,,JONESBORO,,,GA,,30236,US,33.5655088,-84.3656665,,True
DIAMOND COMMUNITY LIVING HOME III,,,,,,,102 TRAILSIDE DRIVE,,DALLAS,,,,,,30157,GA,,7708331454,,,,,,,,,,,,,,,,,Nursing Home,,,,102 TRAILSIDE DRIVE,,,DALLAS,,,GA,,30157,US,33.9126649,-84.8517141,,True
CAREFREE MAISON III,,,,,,,1415 HEATHERLAND DRIVE,,ATLANTA,,,,,,30331,GA,,4043498161,,,,,,,,,,,,,,,,,Nursing Home,,,,1415 HEATHERLAND DRIVE,,,ATLANTA,,,GA,,30331,US,33.7168905,-84.5364034,,True
ENABLE DODSON DRIVE,,,,,,,1200 OLD ELLIS ROAD,,ROSWELL,,,,,,30076,GA,,4043467067,,,,,,,,,,,,,,,,,Nursing Home,,,,2265 DODSON DRIVE,,,EAST POINT,,,GA,,30344,US,33.6936237,-84.4744949,,True
ENABLE HOLCOMB BRIDGE,,,,,,,2720 HOLCOMB BRIDGE ROAD,,ALPHARETTA,,,,,,30022,GA,,7709983292,,,,,,,,,,,,,,,,,Nursing Home,,,,2720 HOLCOMB BRIDGE ROAD,,,ALPHARETTA,,,GA,,30022,US,33.9935674,-84.2815973,,True
ENABLE LEGACY 213,,,,,,,1200 OLD ELLIS ROAD,,ROSWELL,,,,,,30076,GA,,7706405006,,,,,,,,,,,,,,,,,Nursing Home,,,,100 LEGACY OAKS CIRCLE,APT 213,,ROSWELL,,,GA,,30076,US,34.0384521,-84.33596829999999,,True
GEORGIA MENTOR-LYNDA LANE,,,,,,,2302 PARKLAKE DR,SUITE 200,ATLANTA,,,,,,30345,GA,,7066634142,,,,,,,,,,,,,,,,,Nursing Home,,,,70 LYNDA LANE,,,PINE MOUNTAIN,,,GA,,31822,US,32.817304,-84.997885,,True
BOLTON LIVING,,,,,,,1091 BOLTON CT,,COLUMBUS,,,,,,31906,GA,,7069926085,,,,,,,,,,,,,,,,,Nursing Home,,,,1091 BOLTON CT,,,COLUMBUS,,,GA,,31906,US,32.4684333,-84.9461376,,True
JIMMY'S MAGNOLIA TREE,,,,,,,1526 WESTWOOD AVENUE SW,,ATLANTA,,,,,,30310,GA,,4047489276,,,,,,,,,,,,,,,,,Nursing Home,,,,1526 WESTWOOD AVENUE SW,,,ATLANTA,,,GA,,30310,US,33.7383315,-84.43758129999999,Westview,True
SOUTHERN OAKS DRIVE,,,,,,,466 SOUTHERN OAKS DRIVE,,MACON,,,,,,31216,GA,,4787842690,,,,,,,,,,,,,,,,,Nursing Home,,,,466 SOUTHERN OAKS DRIVE,,,MACON,,,GA,,31216,US,32.7582422,-83.6784004,,True
BELLERIVE TRACE,,,,,,,421 BELLERIVE TRACE,,MACON,,,,,,31216,GA,,4787842677,,,,,,,,,,,,,,,,,Nursing Home,,,,421 BELLERIVE TRACE,,,MACON,,,GA,,31216,US,32.75860389999999,-83.69159560000001,,True
JARED HOUSE,,,,,,,245 DOUTHIT FERRY ROAD,,CARTERSVILLE,,,,,,30120,GA,,7703823639,,,,,,,,,,,,,,,,,Nursing Home,,,,245 DOUTHIT FERRY ROAD,,,CARTERSVILLE,,,GA,,30120,US,34.145399,-84.826105,,True
R & K CONSULTING & PERSONAL CARE HOMES,,,,,,,6400 BEETHOVEN CIRCLE,,RIVERDALE,,,,,,30296,GA,,7709098798,,,,,,,,,,,,,,,,,Nursing Home,,,,6400 BEETHOVEN CIRCLE,,,RIVERDALE,,,GA,,30296,US,33.58164399999999,-84.4596958,,True
OUR PLACE,,,,,,,603 WILKINS STREET,,DALTON,,,,,,30720,GA,,7062290684,,,,,,,,,,,,,,,,,Nursing Home,,,,414 CHEROKEE LANE,,,DALTON,,,GA,,30721,US,34.843817,-84.959293,,True
DIGNITY CARE HOMES,,,,,,,603 EFFIE DRIVE,,LAWRENCEVILLE,,,,,,30045,GA,,6786293267,,,,,,,,,,,,,,,,,Nursing Home,,,,603 EFFIE DRIVE,,,LAWRENCEVILLE,,,GA,,30045,US,33.9491145,-83.95026410000001,,True
SOUTHERN COMMUNITY LIVING III,,,,,,,1835 LONG RIDGE DRIVE,,MACON,,,,,,31211,GA,,4782384608,,,,,,,,,,,,,,,,,Nursing Home,,,,1835 LONG RIDGE DRIVE,,,MACON,,,GA,,31211,US,32.869248,-83.61837799999999,,True
OPEN HEARTS CLA,,,,,,,4031 BELMONT RIDGE ROAD,,LITHONIA,,,,,,30038,GA,,7709813497,,,,,,,,,,,,,,,,,Nursing Home,,,,4031 BELMONT RIDGE ROAD,,,LITHONIA,,,GA,,30038,US,33.661487,-84.15596599999999,,True
CLARK HOUSE,,,,,,,PO BOX 2507,,THOMASVILLE,,,,,,31799,GA,,2292254065,,,,,,,,,,,,,,,,,Nursing Home,,,,213 CECIL STREET,,,THOMASVILLE,,,GA,,31792,US,30.8363861,-83.96544399999999,,True
"ART OF LIVING CLA III, THE",,,,,,,3995 AMBROSE WAY,,ELLENWOOD,,,,,,30294,GA,,4042122135,,,,,,,,,,,,,,,,,Nursing Home,,,,2752 JAGUAR DRIVE,,,ELLENWOOD,,,GA,,30294,US,33.6676393,-84.2767944,,True
SOTO HOME #2,,,,,,,3736 EXECUTIVE CENTER DRIVE,,AUGUSTA,,,,,,30907,GA,,7068369571,,,,,,,,,,,,,,,,,Nursing Home,,,,232 PECAN DRIVE,,,MARTINEZ,,,GA,,30907,US,33.49885,-82.140265,,True
WILLOW RIDGE CLA,,,,,,,3336 WILLOW RIDGE,,GAINESVILLE,,,,,,30504,GA,,6789714562,,,,,,,,,,,,,,,,,Nursing Home,,,,3336 WILLOW RIDGE,,,GAINESVILLE,,,GA,,30504,US,34.2670872,-83.87613759999999,,True
GOLDEN GROVE MANOR PCH,,,,,,,2450 BENSON RIDGE,,LITHONIA,,,,,,30058,GA,,9174429474,,,,,,,,,,,,,,,,,Nursing Home,,,,2450 BENSON RIDGE,,,LITHONIA,,,GA,,30058,US,33.724205,-84.06674799999999,,True
TRANQUILITY CLA,,,,,,,3440 RAINBOW DRIVE,,DECATUR,,,,,,30034,GA,,6787052580,,,,,,,,,,,,,,,,,Nursing Home,,,,3440 RAINBOW DRIVE,,,DECATUR,,,GA,,30034,US,33.711322,-84.2497961,,True
OPEN HEARTS OAKRIDGE,,,,,,,2325 OAKRIDGE COURT,,DECATUR,,,,,,30032,GA,,4042124903,,,,,,,,,,,,,,,,,Nursing Home,,,,2325 OAKRIDGE COURT,,,DECATUR,,,GA,,30032,US,33.7146294,-84.2950424,,True
HOME AWAY FROM HOME,,,,,,,190 MIDDLING LANE,,FAYETTEVILLE,,,,,,30214,GA,,7707168250,,,,,,,,,,,,,,,,,Nursing Home,,,,190 MIDDLING LANE,,,FAYETTEVILLE,,,GA,,30214,US,33.498407,-84.487183,,True
ALIYAH'S SAFE HAVEN,,,,,,,1481 STEAM ENGINE WAY,,CONYERS,,,,,,30013,GA,,4045936386,,,,,,,,,,,,,,,,,Nursing Home,,,,1481 STEAM ENGINE WAY,,,CONYERS,,,GA,,30013,US,33.6377776,-83.9632628,,True
ALIYAH'S SAFE HAVEN 1,,,,,,,4004 HODGDON CORNERS DRIVE,,LITHONIA,,,,,,30038,GA,,4045936386,,,,,,,,,,,,,,,,,Nursing Home,,,,4004 HODGDON CORNERS DRIVE,,,LITHONIA,,,GA,,30038,US,33.6651409,-84.18956779999999,,True
NORRIS,,,,,,,710 NORRIS STREET,,MACON,,,,,,31217,GA,,4782385442,,,,,,,,,,,,,,,,,Nursing Home,,,,710 NORRIS STREET,,,MACON,,,GA,,31217,US,32.8498919,-83.609537,,True
FOREST PARK,,,,,,,2202 WALZ DRIVE,,SAVANNAH,,,,,,31404,GA,,9127210093,,,,,,,,,,,,,,,,,Nursing Home,,,,2202 WALZ DRIVE,,,SAVANNAH,,,GA,,31404,US,32.0247418,-81.0787165,Midtown,True
R & K CONSULTING AND PERSONAL CARE HOME,,,,,,,1592 PANOLA ROAD,,ELLENWOOD,,,,,,30294,GA,,4702425718,,,,,,,,,,,,,,,,,Nursing Home,,,,1592 PANOLA ROAD,,,ELLENWOOD,,,GA,,30294,US,33.6245445,-84.2304248,,True
QUALITY CARE CLA II,,,,,,,2766 SPAIN DRIVE,,EAST POIINT,,,,,,30344,GA,,4042055140,,,,,,,,,,,,,,,,,Nursing Home,,,,1371 KIMBLERLY WAY,APT 9201,,ATLANTA,,,GA,,30349,US,33.7188424,-84.52410119999999,Ashley Courts,True
ARNOLD DRIVE,,,,,,,6126 ARNOLD DRIVE,,COLUMBUS,,,,,,31907,GA,,7628211224,,,,,,,,,,,,,,,,,Nursing Home,,,,6126 ARNOLD DRIVE,,,COLUMBUS,,,GA,,31907,US,32.5171658,-84.8854952,,True
ITR #3 SHALLOWFORD GROUP HOME,,,,,,,2473 SHALLOWFORD ROAD,,ATLANTA,,,,,,30345,GA,,4046360955,,,,,,,,,,,,,,,,,Nursing Home,,,,2473 SHALLOWFORD ROAD,,,ATLANTA,,,GA,,30345,US,33.8599673,-84.28477649999999,,True
NEW HEIGHTS CLA #1,,,,,,,12 PARISH WAY,,POOLER,,,,,,31322,GA,,9129251131,,,,,,,,,,,,,,,,,Nursing Home,,,,12 PARISH WAY,,,POOLER,,,GA,,31322,US,32.056434,-81.2580625,,True
"MULBERRY HOME, THE",,,,,,,1945 CLIFF VALLEY WAY,SUITE 220,ATLANTA,,,,,,30329,GA,,4045023694,,,,,,,,,,,,,,,,,Nursing Home,,,,2690 CAROL WAY,,,AUSTELL,,,GA,,30168,US,33.811652,-84.63235089999999,,True
LAPALOMA DRIVE,,,,,,,507 OCEAN BLVD SUITE 205,,ST. SIMONS ISLAND,,,,,,31522,GA,,7069926606,,,,,,,,,,,,,,,,,Nursing Home,,,,4916 LAPALOMA DR,,,COLUMBUS,,,GA,,31907,US,32.4878297,-84.9098471,,True
ST JOHN'S CLA,,,,,,,2110 N. PATTERSON ST,SUITE A,VALDOSTA,,,,,,31602,GA,,2292428955,,,,,,,,,,,,,,,,,Nursing Home,,,,5 ST JOHN PLACE,,,VALDOSTA,,,GA,,31602,US,30.8742941,-83.2590848,,True
MAGNOLIA CLA,,,,,,,P.O. BOX 1027,,LAFAYETTE,,,,,,30728,GA,,7068080818,,,,,,,,,,,,,,,,,Nursing Home,,,,341 ELLEN STREET,,,SUMMERVILLE,,,GA,,30747,US,34.4958546,-85.3346838,,True
JONES-CODY CLA,,,,,,,1501 STONELEIGH HILL ROAD,,LITHONIA,,,,,,30058,GA,,7704982351,,,,,,,,,,,,,,,,,Nursing Home,,,,1501 STONELEIGH HILL ROAD,,,LITHONIA,,,GA,,30058,US,33.74787999999999,-84.15552,,True
SOUTHERN COMMUNITY LIVING 2,,,,,,,537 COLD WATER LANE,,MCDONOUGH,,,,,,30252,GA,,6787590070,,,,,,,,,,,,,,,,,Nursing Home,,,,1669 BENNETT DRIVE,,,MCDONOUGH,,,GA,,30253,US,33.4070657,-84.2038262,,True
JONES-CODY CLA AT ALBANS COURT,,,,,,,1455 ALBANS COURT,,LITHONIA,,,,,,30058,GA,,4044840054,,,,,,,,,,,,,,,,,Nursing Home,,,,1455 ALBANS COURT,,,LITHONIA,,,GA,,30058,US,33.74866399999999,-84.157618,,True
ENABLE LEGACY 218,,,,,,,1200 OLD ELLIS ROAD,,ROSWELL,,,,,,30076,GA,,7709988648,,,,,,,,,,,,,,,,,Nursing Home,,,,218 LEGACY OAKS CIRCLE,,,ROSWELL,,,GA,,30076,US,34.03716779999999,-84.3355852,,True
JONES-CODY CLA AT WYNBROOKE,,,,,,,787 WYNBROOKE PKWY,,STONE MOUNTAIN,,,,,,30087,GA,,7704692967,,,,,,,,,,,,,,,,,Nursing Home,,,,787 WYNBROOKE PKWY,,,STONE MOUNTAIN,,,GA,,30087,US,33.79086480000001,-84.11105309999999,,True
STRIVE AND SUCCEED,,,,,,,668 SOUTH HAIRSTON,,STONE MOUNTAIN,,,,,,30088,GA,,4045080632,,,,,,,,,,,,,,,,,Nursing Home,,,,668 SOUTH HAIRSTON,,,STONE MOUNTAIN,,,GA,,30088,US,33.77833,-84.1920086,,True
JONES-CODY CLA AT HAZELHURST DRIVE,,,,,,,265 HAZELHURST DRIVE,,COVINGTON,,,,,,30016,GA,,4044840054,,,,,,,,,,,,,,,,,Nursing Home,,,,265 HAZELHURST DRIVE,,,COVINGTON,,,GA,,30016,US,33.57764359999999,-83.98081909999999,,True
COMFORT ZONE HOME AT FROG ROAD,,,,,,,485 FROG ROAD,,LOCUST GROVE,,,,,,30248,GA,,6786105498,,,,,,,,,,,,,,,,,Nursing Home,,,,485 FROG ROAD,,,LOCUST GROVE,,,GA,,30248,US,33.3445862,-84.1625311,,True
MELODY LANE 157 CLA,,,,,,,3 DUNWOODY PARK,SUITE 103,DUNWOODY,,,,,,30338,GA,,7066225105,,,,,,,,,,,,,,,,,Nursing Home,,,,157 MELODY LANE,,,ROME,,,GA,,30165-1909,US,34.2800037,-85.2375515,,True
LAKE OCONEE COMMUNITY LIVING ARRANGEMENT,,,,,,,PO BOX 1152,,GREENSBORO,,,,,,30642,GA,,7064534949,,,,,,,,,,,,,,,,,Nursing Home,,,,1080 ADRIAN CIRCLE,,,GREENSBORO,,,GA,,30642,US,33.561634,-83.17812339999999,,True
MELODY LANE 159 CLA,,,,,,,3 DUNWOODY PARK,SUITE 103,DUNWOODY,,,,,,30338,GA,,7066225106,,,,,,,,,,,,,,,,,Nursing Home,,,,159 MELODY LANE,,,ROME,,,GA,,30165-1909,US,34.28001029999999,-85.2375713,,True
INTERMEDIATE TRAINING RESIDENCE,,,,,,,PO BOX 1320,,GRIFFIN,,,,,,30224,GA,,7705049269,,,,,,,,,,,,,,,,,Nursing Home,,,,125 JOE LANE ROAD,,,JACKSON,,,GA,,30233,US,33.2653986,-84.06151179999999,,True
ENGLISH LOOP,,,,,,,4346 ENGLISH LOOP,,LITHONIA,,,,,,30038,GA,,7709877890,,,,,,,,,,,,,,,,,Nursing Home,,,,4346 ENGLISH LOOP,,,LITHONIA,,,GA,,30038,US,33.645807,-84.1250598,,True
"HERITAGE, THE",,,,,,,3120 N OAK STREET EXT.,STE C,VALDOSTA,,,,,,31602,GA,,2298961718,,,,,,,,,,,,,,,,,Nursing Home,,,,1024 B SOUTH GORDON STREET,,,ADEL,,,GA,,31620,US,31.1249741,-83.4163609,,True
PRECIOUS ONES - 2,,,,,,,24 PERDUE ROAD,,QUITMAN,,,,,,31643,GA,,2292636900,,,,,,,,,,,,,,,,,Nursing Home,,,,24 PERDUE ROAD,,,QUITMAN,,,GA,,31643,US,30.7896335,-83.58263339999999,,True
MARLAN'S SILVER LINING,,,,,,,110 SANDLEWOOD DRIVE,,SAVANNAH,,,,,,31405,GA,,9124430661,,,,,,,,,,,,,,,,,Nursing Home,,,,110 SANDLEWOOD DRIVE,,,SAVANNAH,,,GA,,31405,US,32.0396209,-81.154893,,True
GENERATIONS ADULT DAY SERVICES IV,,,,,,,2402 ANTHONY TERRACE,,MACON,,,,,,31206,GA,,4787880933,,,,,,,,,,,,,,,,,Nursing Home,,,,2402 ANTHONY TERRACE,,,MACON,,,GA,,31206,US,32.816914,-83.667695,,True
B & O SERVICES SITE #2,,,,,,,4814 ATTERBURY DRIVE,,COLUMBUS,,,,,,31907,GA,,7623592590,,,,,,,,,,,,,,,,,Nursing Home,,,,3754 CASPIAN DRIVE,,,COLUMBUS,,,GA,,31906,US,32.43908640000001,-84.92931999999999,,True
SUNRISE - WIMBLEDON,,,,,,,221 WEST HANSELL STREET,,THOMASVILLE,,,,,,31792,GA,,2292259099,,,,,,,,,,,,,,,,,Nursing Home,,,,1814 WIMBLEDON DRIVE,,,THOMASVILLE,,,GA,,31792,US,30.824165,-83.953965,,True
DUGAS CLA,,,,,,,417 ORANGE STREET,,AUGUSTA,,,,,,30901,GA,,7067227914,,,,,,,,,,,,,,,,,Nursing Home,,,,1109 DUGAS STREET,,,AUGUSTA,,,GA,,30901,US,33.4672466,-81.9763078,Laney Walker,True
GEORGIA MENTOR - ROCKY BRANCH,,,,,,,2302 PARKLAND DRIVE,NE SUITE 200,ATLANTA,,,,,,30345,GA,,7064723104,,,,,,,,,,,,,,,,,Nursing Home,,,,125 ROCKY BRANCH RAOD,,,BARNESVILLE,,,GA,,30204,US,32.98527869999999,-84.16922509999999,,True
HOME SWEET HOME CLA,,,,,,,1400 BRIDLE PATH,,LAWRENCEVILLE,,,,,,30045,GA,,6786910298,,,,,,,,,,,,,,,,,Nursing Home,,,,1400 BRIDLE PATH,,,LAWRENCEVILLE,,,GA,,30045,US,33.9150848,-83.9952856,,True
TRALEE,,,,,,,4176 TRALEE COURT,,GAINESVILLE,,,,,,30507,GA,,7705037800,,,,,,,,,,,,,,,,,Nursing Home,,,,4176 TRALEE COURT,,,GAINESVILLE,,,GA,,30507,US,34.2004602,-83.8319394,,True
AMBER COVE,,,,,,,5487 AMBER COVE WAY,,FLOWERY BRANCH,,,,,,30542,GA,,7709653440,,,,,,,,,,,,,,,,,Nursing Home,,,,5487 AMBER COVE WAY,,,FLOWERY BRANCH,,,GA,,30542,US,34.138438,-83.8646119,,True
HUNTCLIFF,,,,,,,6289 HUNTCLIFF DR,,FLOWERY BRANCH,,,,,,30542,GA,,7709675452,,,,,,,,,,,,,,,,,Nursing Home,,,,6289 HUNTCLIFF DR,,,FLOWERY BRANCH,,,GA,,30542,US,34.1693634,-83.9053574,,True
NEWBERRY,,,,,,,5571 NEWBERRY POINT DR,,FLOWERY BRANCH,,,,,,30542,GA,,7709654665,,,,,,,,,,,,,,,,,Nursing Home,,,,5571 NEWBERRY POINT DR,,,FLOWERY BRANCH,,,GA,,30542,US,34.20294990000001,-83.9234891,,True
MORNING STAR PERSONAL CARE,,,,,,,PO BOX 477,,SNELLVILLE,,,,,,30078,GA,,7709825612,,,,,,,,,,,,,,,,,Nursing Home,,,,2193 HUDSON DR,,,LILBURN,,,GA,,30047,US,33.8260682,-84.0930477,,True
MORNING STAR PERSONAL CARE II,,,,,,,PO BOX 477,,SNELLVILLE,,,,,,30078,GA,,7707369973,,,,,,,,,,,,,,,,,Nursing Home,,,,2225 THORNDALE DR,,,LILBURN,,,GA,,30047,US,33.8278827,-84.09078840000001,,True
SAN SALVADOR GROUP HOME,,,,,,,700 COASTAL VILLAGE DR,,BRUNSWICK,,,,,,31520,GA,,9123533085,,,,,,,,,,,,,,,,,Nursing Home,,,,1221 EAST 59TH,,,SAVANNAH,,,GA,,31403,US,32.034808,-81.08825399999999,Sackville,True
51ST STREET GROUP HOME,,,,,,,700 COASTAL VILLAGE DRIVE,,BRUNSWICK,,,,,,31520,GA,,9123533089,,,,,,,,,,,,,,,,,Nursing Home,,,,1915 E 51ST STREET,,,SAVANNAH,,,GA,,31404,US,32.0361796,-81.070272,Midtown,True
KEY STREET GROUP HOME,,,,,,,700 COASTAL VILLAGE DRIVE,,BRUNSWICK,,,,,,31520,GA,,9123562354,,,,,,,,,,,,,,,,,Nursing Home,,,,6729 KEY STREET,,,SAVANNAH,,,GA,,31401,US,32.0033029,-81.0745324,Bacon Park Area/Sandfly,True
MARABLE'S HEART TO HEART,,,,,,,83 CHURCH LANE,,QUITMAN,,,,,,31643,GA,,2292636553,,,,,,,,,,,,,,,,,Nursing Home,,,,83 CHURCH LANE,,,QUITMAN,,,GA,,31643,US,30.7893093,-83.58275189999999,,True
"PLACE OF SERENITY, A",,,,,,,3755 CHERIE GLEN ROAD,,SNELLVILLE,,,,,,30039,GA,,4705453682,,,,,,,,,,,,,,,,,Nursing Home,,,,3755 CHERIE GLEN ROAD,,,SNELLVILLE,,,GA,,30039,US,33.8352071,-84.0571037,,True
FAMILY BRIDGE CLA II,,,,,,,515 MUNDY'S MILL ROAD,,JONESBORO,,,,,,30238,GA,,7702317661,,,,,,,,,,,,,,,,,Nursing Home,,,,515 MUNDY'S MILL ROAD,,,JONESBORO,,,GA,,30238,US,33.4866658,-84.3750049,,True
BETH'EL,,,,,,,4327 WEBB MEADOWS DRIVE,,LOGANVILLE,,,,,,30052,GA,,7707366439,,,,,,,,,,,,,,,,,Nursing Home,,,,4327 WEBB MEADOWS DRIVE,,,LOGANVILLE,,,GA,,30052,US,33.8206936,-83.9477685,,True
STAFFED FACILITY III,,,,,,,PO BOX 1320,,GRIFFIN,,,,,,30224,GA,,7702293127,,,,,,,,,,,,,,,,,Nursing Home,,,,212 WOODLAWN ROAD,,,GRIFFIN,,,GA,,30224,US,33.2191407,-84.27554429999999,,True
ABIGAIL MANOR,,,,,,,518 LAKE MICHELE COURT,,STONE MOUNTAIN,,,,,,30088,GA,,7704137387,,,,,,,,,,,,,,,,,Nursing Home,,,,518 LAKE MICHELE COURT,,,STONE MOUNTAIN,,,GA,,30088,US,33.78277,-84.17294690000001,,True
CHERRY LAUREL,,,,,,,2110 NORTH PATTERSON STREET,,VALDOSTA,,,,,,31602,GA,,2298830209,,,,,,,,,,,,,,,,,Nursing Home,,,,2403 CHERRY LAUREL LN,,,ALBANY,,,GA,,31705,US,31.532595,-84.13453899999999,,True
SOTO HOME #5,,,,,,,3736 EXECUTIVE CENTER DRIVE,,AUGUSTA,,,,,,30907,GA,,7066786169,,,,,,,,,,,,,,,,,Nursing Home,,,,3132 HAMPTON DRIVE,,,AUGUSTA,,,GA,,30906,US,33.42439600000001,-82.06961799999999,,True
COMMUNITY CARE HOME II,,,,,,,2045 MT. ZION ROAD #373,,MORROW,,,,,,30260,GA,,6788465575,,,,,,,,,,,,,,,,,Nursing Home,,,,1717 NEW HOPE ROAD,,,LOCUST GROVE,,,GA,,30248,US,33.3955614,-84.0225322,,True
RAMAH HOUSE,,,,,,,1945 CLIFF VALLEY WAY,SUITE 220,ATLANTA,,,,,,30329,GA,,6785875657,,,,,,,,,,,,,,,,,Nursing Home,,,,3803 RAMAH LANE,,,TUCKER,,,GA,,30084,US,33.8379227,-84.2331639,,True
CEDAR HILL HOUSE,,,,,,,308 S. 5TH STREET,,GRIFFIN,,,,,,30224,GA,,7069101777,,,,,,,,,,,,,,,,,Nursing Home,,,,1623 CEDAR HILL DR,,,GROVETOWN,,,GA,,30813,US,33.4658681,-82.223767,,True
PEACEFUL RIVER CLA,,,,,,,824 RUDGATE ROAD,,COLUMBUS,,,,,,31904,GA,,7069999999,,,,,,,,,,,,,,,,,Nursing Home,,,,824 RUDGATE ROAD,,,COLUMBUS,,,GA,,31904,US,32.5307068,-84.9838374,,True
2 GRIFFIN,,,,,,,2110 NORTH PATTERSON STREET,,VALDOSTA,,,,,,31602,GA,,2294696283,,,,,,,,,,,,,,,,,Nursing Home,,,,534 GRIFFIN AVE,# 2,,VALDOSTA,,,GA,,31601,US,30.81879249999999,-83.2629319,,True
OAKWOOD HOUSE,,,,,,,308 SOUTH 5TH STREET,,GRIFFIN,,,,,,30223,GA,,7068559341,,,,,,,,,,,,,,,,,Nursing Home,,,,700 OAKWOOD CT,,,GROVETOWN,,,GA,,30813,US,33.4654864,-82.22816879999999,,True
MALAMAV COMMUNITY & HUMAN SVCS-HWY 5-CLA,,,,,,,3847 OAKVIEW DR,,POWDER SPRINGS,,,,,,30127,GA,,6784268626,,,,,,,,,,,,,,,,,Nursing Home,,,,4284 HWY 5,,,DOUGLASVILLE,,,GA,,30135,US,33.687466,-84.800437,,False
PAT'S HOUSE CLA,,,,,,,PO BOX 6567,,COLUMBUS,,,,,,31917,GA,,7065696789,,,,,,,,,,,,,,,,,Nursing Home,,,,108 MITCHELL RIDGE PLACE,,,COLUMBUS,,,GA,,31907,US,32.4855508,-84.87304499999999,,True
HICKORY FLAT CLA,,,,,,,1350 WOOTEN LAKE ROAD,SUITE 207,KENNESAW,,,,,,30144,GA,,6788670322,,,,,,,,,,,,,,,,,Nursing Home,,,,9713 HICKORY FLAT HWY,,,WOODSTOCK,,,GA,,30188,US,34.1329278,-84.3928682,,True
FALCON PARK II,,,,,,,202 DAVIS DRIVE  PMB 164,,WARNER ROBINS,,,,,,31093,GA,,4789229831,,,,,,,,,,,,,,,,,Nursing Home,,,,455 MYRTLE STREET,,,WARNER ROBINS,,,GA,,31093,US,32.6247824,-83.6071063,,True
FALCON PARK I,,,,,,,202 NORTH DAVIS DRIVE  PMB 164,,WARNER ROBINS,,,,,,31093,GA,,4789225938,,,,,,,,,,,,,,,,,Nursing Home,,,,451 MYRTLE STREET,,,WARNER ROBINS,,,GA,,31093,US,32.6240966,-83.6071104,,True
SUNRISE - CRESTWOOD DRIVE,,,,,,,221 W. HANSELL STREET,,THOMASVILLE,,,,,,31792,GA,,2292261006,,,,,,,,,,,,,,,,,Nursing Home,,,,137 CRESTWOOD DRIVE,,,THOMASVILLE,,,GA,,31792,US,30.808781,-83.98115399999999,,True
B & O SERVICES SITE 5,,,,,,,4814 ATTERBURY DRIVE,,COLUMBUS,,,,,,31907,GA,,7063301058,,,,,,,,,,,,,,,,,Nursing Home,,,,546 FAIR OAKS DR,,,COLUMBUS,,,GA,,31907,US,32.4564188,-84.93454750000001,,True
B & O SERVICES,,,,,,,4814 ATTERBURY DRIVE,,COLUMBUS,,,,,,31907,GA,,7065070420,,,,,,,,,,,,,,,,,Nursing Home,,,,4814 ATTERBURY DRIVE,,,COLUMBUS,,,GA,,31907,US,32.46006,-84.911615,,True
VINCENT GRANT,,,,,,,1603 HIDDEN HILLS PARKWAY,,STONE MOUNTAIN,,,,,,30088,GA,,7708795507,,,,,,,,,,,,,,,,,Nursing Home,,,,1603 HIDDEN HILLS PARKWAY,,,STONE MOUNTAIN,,,GA,,30088,US,33.7449076,-84.1775553,,True
DOTSON CLA,,,,,,,2296 BACK VALLEY ROAD,,LYERLY,,,,,,30730,GA,,7068954599,,,,,,,,,,,,,,,,,Nursing Home,,,,2296 BACK VALLEY ROAD,,,LYERLY,,,GA,,30730,US,34.3809383,-85.4472031,,True
SWEETWATER HOUSE,,,,,,,5120 NORTH AVENUE,,AUSTELL,,,,,,30106,GA,,7709418209,,,,,,,,,,,,,,,,,Nursing Home,,,,5120 NORTH AVENUE,,,AUSTELL,,,GA,,30106,US,33.8297287,-84.6467966,,True
HOME AWAY FROM HOME 5,,,,,,,110 AUSTIN DRIVE,,FAYETTEVILLE,,,,,,30214,GA,,7707034581,,,,,,,,,,,,,,,,,Nursing Home,,,,110 AUSTIN DRIVE,,,FAYETTEVILLE,,,GA,,30214,US,33.509653,-84.437917,,True
CHANGING LIVES TODAY #2,,,,,,,5448 SWEET SPRINGS DR,,POWDER SPRINGS,,,,,,30127,GA,,4045534132,,,,,,,,,,,,,,,,,Nursing Home,,,,5448 SWEET SPRINGS DR,,,POWDER SPRINGS,,,GA,,30127,US,33.8204327,-84.678193,,True
SOTO HOME #6,,,,,,,3736 EXECUTIVE CENTER DRIVE,,AUGUSTA,,,,,,30907,GA,,7066781022,,,,,,,,,,,,,,,,,Nursing Home,,,,263 WRIGHTSBORO ROAD,,,WASHINGTON,,,GA,,30673,US,33.6935869,-82.68987410000001,,True
SOTO HOME #1,,,,,,,3736 EXECUTIVE CENTER DRIVE,,AUGUSTA,,,,,,30907,GA,,7066786196,,,,,,,,,,,,,,,,,Nursing Home,,,,2570 SHARON ROAD,,,WASHINGTON,,,GA,,30673,US,33.6821665,-82.76158389999999,,True
BRIGHTSTAR AT GOLFBROOK,,,,,,,5135 GOLFBROOK COURT,,STONE MOUNTAIN,,,,,,30088,GA,,7708798987,,,,,,,,,,,,,,,,,Nursing Home,,,,5135 GOLFBROOK COURT,,,STONE MOUNTAIN,,,GA,,30088,US,33.7523437,-84.177921,,True
BRIGHTSTAR AT CANDLEWOOD,,,,,,,4899 CANDLEWOOD LANE,,STONE MOUNTAIN,,,,,,30088,GA,,7706950689,,,,,,,,,,,,,,,,,Nursing Home,,,,4899 CANDLEWOOD LANE,,,STONE MOUNTAIN,,,GA,,30088,US,33.78087369999999,-84.18839349999999,,True
SOTO HOME #7,,,,,,,3736 EXECUTIVE CENTER DRIVE,,AUGUSTA,,,,,,30907,GA,,7066782433,,,,,,,,,,,,,,,,,Nursing Home,,,,1024 SPRING STREET,,,WASHINGTON,,,GA,,30673,US,33.7133173,-82.7475956,,True
SUMMER STREET COMMUNITY SERVICES,,,,,,,132 SUMMER ST,,ADAIRSVILLE,,,,,,30103,GA,,7707731904,,,,,,,,,,,,,,,,,Nursing Home,,,,132 SUMMER ST,,,ADAIRSVILLE,,,GA,,30103,US,34.3664739,-84.927318,,True
SUMMER STREET COMMUNITY SERVICES II,,,,,,,32 HORSESHOW,,ADAIRSVILLE,,,,,,30103,GA,,7707694630,,,,,,,,,,,,,,,,,Nursing Home,,,,32 HORSESHOW,,,ADAIRSVILLE,,,GA,,30103,US,34.34717699999999,-84.907647,,True
WARD MANOR CLA,,,,,,,603 E WARD ST,,DOUGLAS,,,,,,31533,GA,,9123840623,,,,,,,,,,,,,,,,,Nursing Home,,,,603 EAST WARD ST,,,DOUGLAS,,,GA,,31533,US,31.50897149999999,-82.84319049999999,,True
HIDDEN HILLS CLA,,,,,,,9902 LINN STATION ROAD,,LOUISVILLE,,,,,,40223,GA,,7704130501,,,,,,,,,,,,,,,,,Nursing Home,,,,1520 HIDDEN HILLS PKWY,,,STONE MOUNTAIN,,,GA,,30088,US,33.7471795,-84.17706539999999,,True
HAVEN OF HOPE CLA #1,,,,,,,2006 SIBLEY ROAD,,AUGUSTA,,,,,,30909,GA,,7067334678,,,,,,,,,,,,,,,,,Nursing Home,,,,2006 SIBLEY ROAD,,,AUGUSTA,,,GA,,30909,US,33.4613477,-82.0616105,,True
LOWES GUARDIAN ANGEL III,,,,,,,2066 POWHATAN ROAD,,ELLENWOOD,,,,,,30294,GA,,6786128186,,,,,,,,,,,,,,,,,Nursing Home,,,,1370 VALLEY LAKE DR,,,RIVERDALE,,,GA,,30274,US,33.590489,-84.4342856,,True
OAK STREET,,,,,,,1102-H SMITH AVENEUE,,THOMASVILLE,,,,,,31792,GA,,2292253992,,,,,,,,,,,,,,,,,Nursing Home,,,,528 OAK STREET,,,THOMASVILLE,,,GA,,31792,US,30.8401477,-83.98801809999999,,True
PEAR STREET,,,,,,,1102-H SMITH AVENUE,,THOMASVILLE,,,,,,31792,GA,,2292272587,,,,,,,,,,,,,,,,,Nursing Home,,,,500 PEAR STREET,,,THOMASVILLE,,,GA,,31792,US,30.814218,-83.9770379,,True
ASHMONT COVE CLA,,,,,,,2460 KINGS PARK CIRCLE,,DECATUR,,,,,,30034,GA,,4049962030,,,,,,,,,,,,,,,,,Nursing Home,,,,3396 WARBLER DRIVE,,,DECATUR,,,GA,,30034,US,33.69222219999999,-84.2493193,,True
EAST KENSINGTON CLA,,,,,,,205 NEW PETERSBURG ROAD,,AUGUSTA,,,,,,30907,GA,,7068322577,,,,,,,,,,,,,,,,,Nursing Home,,,,2525 EAST KENSINGTON ROAD,,,AUGUSTA,,,GA,,30906,US,33.417241,-82.066155,,True
DEXTER ROAD CLA,,,,,,,205 NEW PETERSBURG ROAD,,AUGUSTA,,,,,,30907,GA,,7068340922,,,,,,,,,,,,,,,,,Nursing Home,,,,2511 DEXTER ROAD,,,AUGUSTA,,,GA,,30906,US,33.4169481,-82.0639913,,True
WEST KENSINGTON CLA,,,,,,,1040 LAKE HAYNES DRIVE NE,,CONYERS,,,,,,30012,GA,,7063034314,,,,,,,,,,,,,,,,,Nursing Home,,,,2533 WEST KENSINGTON RD,,,AUGUSTA,,,GA,,30906,US,33.4144572,-82.0710021,,True
HAMILTON PLACE,,,,,,,2725 RINGGOLD ROAD,,LA FAYETTE,,,,,,30728,GA,,7067642632,,,,,,,,,,,,,,,,,Nursing Home,,,,2725 RINGGOLD ROAD,,,LA FAYETTE,,,GA,,30728,US,34.75364450000001,-85.2303921,,True
PINNACLE PLACE HOME,,,,,,,3712 PINNACLE PLACE DRIVE,,HEPHZIBAH,,,,,,30815,GA,,7067235580,,,,,,,,,,,,,,,,,Nursing Home,,,,3712 PINNACLE DRIVE,,,HEPHZIBAH,,,GA,,30815,US,33.380935,-82.0941,Pinnacle Place,True
CRESCENT LANE HOUSE,,,,,,,844 CRESCENT LANE,,GRIFFIN,,,,,,30223,GA,,7704826939,,,,,,,,,,,,,,,,,Nursing Home,,,,844 CRESCENT LANE,,,GRIFFIN,,,GA,,30223,US,33.2281363,-84.2611211,,True
MARIE'S PLACE,,,,,,,MARIE'S PLACE,,MONROE,,,,,,30655,GA,,7702077702,,,,,,,,,,,,,,,,,Nursing Home,,,,226 EUGENE DRIVE,,,MONROE,,,GA,,30655,US,33.82508079999999,-83.7287434,,True
BENNETT CLA #3,,,,,,,5758 LANNY LANE,,LITHONIA,,,,,,30058,GA,,6785188616,,,,,,,,,,,,,,,,,Nursing Home,,,,5758 LANNY LANE,,,LITHONIA,,,GA,,30058,US,33.76062400000001,-84.153539,,True
COMFORT HOMES,,,,,,,1857 WALDREP CIRCLE SE,,MARIETTA,,,,,,30060,GA,,6782394194,,,,,,,,,,,,,,,,,Nursing Home,,,,1857 WALDREP CIRCLE SE,,,MARIETTA,,,GA,,30060,US,33.9069888,-84.5472331,,True
VINSON HOUSE,,,,,,,1865 VINSON HIGHWAY,,MILLEDGEVILLE,,,,,,31061,GA,,4784541001,,,,,,,,,,,,,,,,,Nursing Home,,,,1865 VINSON HIGHWAY,,,MILLEDGEVILLE,,,GA,,31061,US,33.056932,-83.215307,,True
FAITH DWELLINGS,,,,,,,4666 RANDALWOOD DRIVE,,STONE MOUNTAIN,,,,,,30083,GA,,4043434840,,,,,,,,,,,,,,,,,Nursing Home,,,,4666 RANDALWOOD DRIVE,,,STONE MOUNTAIN,,,GA,,30083,US,33.7889057,-84.1990582,,True
SUNRISE - METCALF,,,,,,,221 W. HANSELL STREET,,THOMASVILLE,,,,,,31792,GA,,2292268598,,,,,,,,,,,,,,,,,Nursing Home,,,,7698 METCALF ROAD,,,THOMASVILLE,,,GA,,31792,US,30.80868299999999,-84.0034979,,True
BALLARD'S CLA,,,,,,,138 BALLARD DRIVE,,LA FAYETTE,,,,,,30728,GA,,7066383279,,,,,,,,,,,,,,,,,Nursing Home,,,,138 BALLARD DRIVE,,,LA FAYETTE,,,GA,,30728,US,34.735541,-85.229854,,True
SOUTHERN PINES CLA,,,,,,,872 SOUTHERN PINES DR,,COLUMBUS,,,,,,31907,GA,,7062250135,,,,,,,,,,,,,,,,,Nursing Home,,,,872 SOUTHERN PINES DR,,,COLUMBUS,,,GA,,31907,US,32.4632295,-84.918544,,True
PARADISE GROVE ADULT CARE CENTER,,,,,,,10854 PALADIN DRIVE,,HAMPTON,,,,,,30228,GA,,6788173174,,,,,,,,,,,,,,,,,Nursing Home,,,,10854 PALADIN DRIVE,,,HAMPTON,,,GA,,30228,US,33.4606905,-84.3454993,,True
SHADY BANK CLA,,,,,,,9901 LINN STATION RD,,LOUISVILLE,,,,,,40223,KY,,4784746447,,,,,,,,,,,,,,,,,Nursing Home,,,,804 SHADY BANK CT,,,MACON,,,GA,,31220,US,32.8368686,-83.75701400000001,,True
HERITAGE TRACE,,,,,,,P.O. 1662,,MONROE,,,,,,30655,GA,,7702077702,,,,,,,,,,,,,,,,,Nursing Home,,,,806 HERITAGE TRACE,,,MONROE,,,GA,,30655,US,33.7759618,-83.7380725,,True
JENKINS STREET CLA,,,,,,,109 WEST JENKINS STREET,,VIDALIA,,,,,,30474,GA,,9125388064,,,,,,,,,,,,,,,,,Nursing Home,,,,109 WEST JENKINS STREET,,,VIDALIA,,,GA,,30474,US,32.2223532,-82.4113615,,True
NORTHBROOK,,,,,,,1922 NORTHBROOK AVENUE,,MACON,,,,,,31201,GA,,4725555555,,,,,,,,,,,,,,,,,Nursing Home,,,,1922 NORTHBROOK AVENUE,,,MACON,,,GA,,31201,US,32.8528703,-83.64397389999999,,True
"SAPELO HOUSE, THE",,,,,,,16 SAPELO ROAD,,SAVANNAH,,,,,,31410,GA,,9122004859,,,,,,,,,,,,,,,,,Nursing Home,,,,16 SAPELO ROAD,,,SAVANNAH,,,GA,,31410,US,32.01351999999999,-80.978652,,True
GILLICAN CLA,,,,,,,2110 N. PATTERSON ST,SUITE A,VALDOSTA,,,,,,31602,GA,,9124875893,,,,,,,,,,,,,,,,,Nursing Home,,,,46 GILLICAN CIRCLE,,,HOMERVILLE,,,GA,,31634,US,31.0343708,-82.75888119999999,,True
SUGGS STREET CLA,,,,,,,2542 GREENES LANE,,POWDER SPRINGS,,,,,,30127,GA,,7704854274,,,,,,,,,,,,,,,,,Nursing Home,,,,5183 SUGGS STREET,,,POWDER SPRINGS,,,GA,,30127,US,33.8344585,-84.7060126,,True
LIFE CHOICE III,,,,,,,1704 OLIVE SPRINGS RD,,MARIETTA,,,,,,30060,GA,,6782936268,,,,,,,,,,,,,,,,,Nursing Home,,,,1704 OLIVE SPRINGS RD,,,MARIETTA,,,GA,,30060,US,33.9127982,-84.5531876,,True
JASPER DDM HOME,,,,,,,4873 WALESKA HWY 108,,JASPER,,,,,,30143,GA,,7062530216,,,,,,,,,,,,,,,,,Nursing Home,,,,4873 WALESKA HWY 108,,,JASPER,,,GA,,30143,US,34.3888869,-84.45636999999999,,False
STONE MOUNTAIN HOME,,,,,,,382 NALLEY DRIVE,,STONE MOUNTAIN,,,,,,30087,GA,,7705640104,,,,,,,,,,,,,,,,,Nursing Home,,,,382 NALLEY DRIVE,,,STONE MOUNTAIN,,,GA,,30087,US,33.859057,-84.158059,,True
MAXWELL HOUSE,,,,,,,122 GA HWY 27 EAST,,AMERICUS,,,,,,31709,GA,,2299312873,,,,,,,,,,,,,,,,,Nursing Home,,,,122 GA HWY 27 EAST,,,AMERICUS,,,GA,,31709,US,32.0707301,-84.20420469999999,,True
JUBILEE 3 COMMUNITY LIVING ARRANGEMENT,,,,,,,4841 LEWIS ROAD,,POWDER SPRINGS,,,,,,30127,GA,,6789033179,,,,,,,,,,,,,,,,,Nursing Home,,,,4841 LEWIS ROAD,,,POWDER SPRINGS,,,GA,,30127,US,33.8358414,-84.6888166,,True
FREDERICK CLA,,,,,,,9901 LINN STATION RD,,LOUISVILLE,,,,,,40223,KY,,4787413888,,,,,,,,,,,,,,,,,Nursing Home,,,,2940 FREDERICK DRIVE,,,DRY BRANCH,,,GA,,31020,US,32.806685,-83.536892,,True
COMMUNITY CARE HOME IV,,,,,,,2045 MT ZION RD #373,,MORROW,,,,,,30260,GA,,7705049493,,,,,,,,,,,,,,,,,Nursing Home,,,,190 TAYLOR ROAD,,,JACKSON,,,GA,,30233,US,33.29519589999999,-83.9394391,,True
PATHWAYS ITR,,,,,,,3403 OLD DURAND ROAD,,GREENVILLE,,,,,,30222,GA,,7063723430,,,,,,,,,,,,,,,,,Nursing Home,,,,3403 OLD DURAND ROAD,,,GREENVILLE,,,GA,,30222,US,32.98846400000001,-84.7393531,,True
GENTILITY - AUTRY CARE,,,,,,,PO BOX 731,,DACULA,,,,,,30019,GA,,4703755182,,,,,,,,,,,,,,,,,Nursing Home,,,,24 AUTRY DRIVE,,,AUBURN,,,GA,,30011,US,34.0111754,-83.8339505,,True
WGM - PIONONO HOME,,,,,,,343 PIONONO AVENUE,,MACON,,,,,,31204,GA,,4783307187,,,,,,,,,,,,,,,,,Nursing Home,,,,343 PIONONO AVENUE,,,MACON,,,GA,,31204,US,32.84310769999999,-83.66272599999999,,True
SUNRISE - ROLLINGWOOD CIRCLE,,,,,,,226 ROLLINGWOOD CIRCLE NW,,ROME,,,,,,30165,GA,,7063788008,,,,,,,,,,,,,,,,,Nursing Home,,,,226 ROLLINGWOOD CIRCLE NW,,,ROME,,,GA,,30165,US,34.279604,-85.262671,,True
"KINDLE HOUSE, THE",,,,,,,608 CHEROKEE DRIVE,,WARNER ROBINS,,,,,,31093,GA,,4789226009,,,,,,,,,,,,,,,,,Nursing Home,,,,608 CHEROKEE DRIVE,,,WARNER ROBINS,,,GA,,31093,US,32.6197361,-83.6351308,,True
"NIPPER HOUSE, THE",,,,,,,224 LAKE PLACID DRIVE,,BONAIRE,,,,,,31005,GA,,4783298500,,,,,,,,,,,,,,,,,Nursing Home,,,,224 LAKE PLACID DRIVE,,,BONAIRE,,,GA,,31005,US,32.5606771,-83.6309339,,True
VENUS HOUSE,,,,,,,117 VENUS WAY,,BONAIRE,,,,,,31005,GA,,4782872193,,,,,,,,,,,,,,,,,Nursing Home,,,,117 VENUS WAY,,,BONAIRE,,,GA,,31005,US,32.5575569,-83.65564309999999,,True
LOVE & SUPPORT CLA,,,,,,,206 QUEEN STREET,SUITE 7,VIDALIA,,,,,,30474,GA,,9124033259,,,,,,,,,,,,,,,,,Nursing Home,,,,400 WEST 2ND STREET,,,VIDALIA,,,GA,,30474,US,32.2179526,-82.4180805,,True
PANOLA CARE CLA #2,,,,,,,3146 GREENVALE WAY,,DECATUR,,,,,,30034,GA,,4705455262,,,,,,,,,,,,,,,,,Nursing Home,,,,3146 GREENVALE WAY,,,DECATUR,,,GA,,30034,US,33.6921706,-84.2104434,,True
COUNTRY ANGEL'S CLA,,,,,,,8880 HWY 301,,TRENTON,,,,,,30752,GA,,7066572208,,,,,,,,,,,,,,,,,Nursing Home,,,,8880 HWY 301,,,TRENTON,,,GA,,30752,US,34.9254042,-85.5730298,,False
LADIES' NORTHLAKE HOME,,,,,,,403 NORTHLAKE DRIVE,,CARROLLTON,,,,,,30117,GA,,7708327048,,,,,,,,,,,,,,,,,Nursing Home,,,,403 NORTHLAKE DRIVE,,,CARROLLTON,,,GA,,30117,US,33.59952,-85.0472456,,True
MEN'S NORTHLAKE HOME,,,,,,,405 NORTHLAKE DRIVE,,CARROLLTON,,,,,,30117,GA,,7708327048,,,,,,,,,,,,,,,,,Nursing Home,,,,405 NORTHLAKE DRIVE,,,CARROLLTON,,,GA,,30117,US,33.5996838,-85.0444259,,True
R & K CONSULTING AND PERSONAL CARE HOMES,,,,,,,3280 CANTERBURY TRAIL,,REX,,,,,,30273,GA,,6784894838,,,,,,,,,,,,,,,,,Nursing Home,,,,3280 CANTERBURY TRAIL,,,REX,,,GA,,30273,US,33.5719126,-84.283334,,True
MORELAND HOUSE 2,,,,,,,2665 CANDLER DR,,MARIETTA,,,,,,30064,GA,,7706939446,,,,,,,,,,,,,,,,,Nursing Home,,,,2665 CANDLER DR,,,MARIETTA,,,GA,,30064,US,33.8889913,-84.6355004,,True
COMMUNITY LIVING SOLUTIONS AT ARBOR HILL DR,,,,,,,PO BOX 1631,,STONE MOUNTAIN,,,,,,30086,GA,,6789057890,,,,,,,,,,,,,,,,,Nursing Home,,,,834 ARBOR HILL DR,,,STONE MOUNTAIN,,,GA,,30088,US,33.77056,-84.19114599999999,,True
DORADO CIRCLE CLA,,,,,,,PO BOX 5302,,COLUMBUS,,,,,,31907,GA,,7062215338,,,,,,,,,,,,,,,,,Nursing Home,,,,4941 DORADO CIRCLE,,,COLUMBUS,,,GA,,31907,US,32.4447355,-84.90978199999999,,True
VALLEY ROAD,,,,,,,377 VALLEY ROAD,,TOCCOA,,,,,,30577,GA,,7068985188,,,,,,,,,,,,,,,,,Nursing Home,,,,377 VALLEY ROAD,,,TOCCOA,,,GA,,30577,US,34.5769755,-83.3044639,,True
"PAUL, LAMAR AND BARBARA HOME",,,,,,,30 BROOK VALLEY CT,,ROME,,,,,,30165,GA,,7062340302,,,,,,,,,,,,,,,,,Nursing Home,,,,30 BROOK VALLEY CT,,,ROME,,,GA,,30165,US,34.2567297,-85.22646089999999,,True
INTENSIVE TRAINING RESIDENCE,,,,,,,331 MOBLEY ROAD,,GRIFFIN,,,,,,30223,GA,,4707657554,,,,,,,,,,,,,,,,,Nursing Home,,,,331 MOBLEY ROAD,,,GRIFFIN,,,GA,,30223,US,33.3282234,-84.30216109999999,,True
DAILY CARE OF SUMMERVILLE,,,,,,,PO BOX 722,,SUMMERVILLE,,,,,,30747,GA,,7068592180,,,,,,,,,,,,,,,,,Nursing Home,,,,411 EAST WASHINGTON ST,,,SUMMERVILLE,,,GA,,30747,US,34.4773145,-85.34195,,True
JAKE LEWIS DRIVE CLA,,,,,,,45 JAKE LEWIS DRIVE,,MCDONOUGH,,,,,,30252,GA,,6787825569,,,,,,,,,,,,,,,,,Nursing Home,,,,45 JAKE LEWIS DRIVE,,,MCDONOUGH,,,GA,,30252,US,33.4266494,-84.064859,,True
BETTY'S FAMILY CLA,,,,,,,6505 BATTERY POINT,,STONE MOUNTAIN,,,,,,30087,GA,,7708370116,,,,,,,,,,,,,,,,,Nursing Home,,,,6505 BATTERY POINT,,,STONE MOUNTAIN,,,GA,,30087,US,33.7671172,-84.122603,,True
GATEWAY COMMUNITY CARE HOME #1,,,,,,,237 KITCHENS ROAD,,HADDOCK,,,,,,31033,GA,,4789325148,,,,,,,,,,,,,,,,,Nursing Home,,,,237 KITCHENS ROAD,,,HADDOCK,,,GA,,31033,US,32.9878794,-83.3741234,,True
GATEWAY COMMUNITY CARE HOME #2,,,,,,,195 KITCHENS ROAD,,HADDOCK,,,,,,31033,GA,,4789320004,,,,,,,,,,,,,,,,,Nursing Home,,,,195 KITCHENS ROAD,,,HADDOCK,,,GA,,31033,US,32.9889506,-83.3743484,,True
DIAMOND HOME,,,,,,,2412 WOOD VALLEY DR,,MORROW,,,,,,30260,GA,,4049966980,,,,,,,,,,,,,,,,,Nursing Home,,,,2412 WOOD VALLEY DR,,,MORROW,,,GA,,30260,US,33.5878904,-84.31145579999999,,True
NORTHWINDS APARTMENT F-2,,,,,,,153 INDEPENDENCE DRIVE,,CARROLLTON,,,,,,30116,GA,,7708327048,,,,,,,,,,,,,,,,,Nursing Home,,,,281 NORTHWINDS BLVD,F-2,,CARROLLTON,,,GA,,30117,US,33.607817,-85.08230200000001,,True
BERMUDA CLA,,,,,,,1102-H SMITH AVENUE,,THOMASVILLE,,,,,,31792,GA,,2292255047,,,,,,,,,,,,,,,,,Nursing Home,,,,105 BERMUDA STREET,,,THOMASVILLE,,,GA,,31792,US,30.852081,-83.9944639,,True
CLOVERDALE CLA,,,,,,,1102-H SMITH AVENUE,,THOMASVILLE,,,,,,31792,GA,,2292255035,,,,,,,,,,,,,,,,,Nursing Home,,,,407 CLOVERDALE DRIVE,,,THOMASVILLE,,,GA,,31792,US,30.8523439,-83.9944476,,True
INTENSIVE TREATMENT RESIDENT (ITR) DIXIE,,,,,,,1749 DEWBERRY ROAD,,DIXIE,,,,,,31629,GA,,2296050199,,,,,,,,,,,,,,,,,Nursing Home,,,,1749 DEWBERRY ROAD,,,QUITMAN,,,GA,,31643,US,30.8171233,-83.6407211,,True
"YARDLEY, MARGUERITE HOUSE",,,,,,,3125 GALANGALE WAY,,ATLANTA,,,,,,30340,GA,,7709343151,,,,,,,,,,,,,,,,,Nursing Home,,,,3125 GALANGALE WAY,,,DORAVILLE,,,GA,,30340,US,33.880601,-84.2330039,,True
WESLEY GLEN MINISTRIES,,,,,,,3707 AGAPE VILLAGE ROAD,,MACON,,,,,,31210,GA,,4783307171,,,,,,,,,,,,,,,,,Nursing Home,,,,3707 AGAPE VILLAGE ROAD,,,MACON,,,GA,,31210,US,32.8483407,-83.70690719999999,,True
PINE VALLEY,,,,,,,30 PINE VALLEY DRIVE,,ATHENS,,,,,,30606,GA,,7065108852,,,,,,,,,,,,,,,,,Nursing Home,,,,30 PINE VALLEY DRIVE,,,ATHENS,,,GA,,30606,US,33.9428133,-83.4101225,,True
CSS CORP-CLA 601,,,,,,,601 HIGHWAY 279,,FAYETTEVILLE,,,,,,30214,GA,,7706297590,,,,,,,,,,,,,,,,,Nursing Home,,,,601 HIGHWAY 279,,,FAYETTEVILLE,,,GA,,30214,US,33.5334684,-84.4547656,,False
PIERSON PLACE,,,,,,,255 GRIMES ROAD,,WOODSTOCK,,,,,,30188,GA,,6783666050,,,,,,,,,,,,,,,,,Nursing Home,,,,255 GRIMES ROAD,,,WOODSTOCK,,,GA,,30188,US,34.1248045,-84.3939666,,True
RIDGECREST,,,,,,,621 RIDGE CIRCLE,,CANTON,,,,,,30114,GA,,7703453690,,,,,,,,,,,,,,,,,Nursing Home,,,,621 RIDGE CIRCLE,,,CANTON,,,GA,,30114,US,34.19870979999999,-84.51385669999999,,True
STEWART PLACE,,,,,,,190 SOUTH ETOWAH DR,,CANTON,,,,,,30114,GA,,7704791003,,,,,,,,,,,,,,,,,Nursing Home,,,,190 SOUTH ETOWAH DR,,,CANTON,,,GA,,30114,US,34.2377522,-84.5004711,,True
LEE'S PERSONAL CARE,,,,,,,PO BOX 6567,,COLUMBUS,,,,,,31917,GA,,7069400409,,,,,,,,,,,,,,,,,Nursing Home,,,,4636 ACORN STREET,,,COLUMBUS,,,GA,,31907,US,32.4700334,-84.9144726,,True
FIRST OPTION SERVICES,,,,,,,727 HWY 81 W,,MCDONOUGH,,,,,,30253,GA,,6788446340,,,,,,,,,,,,,,,,,Nursing Home,,,,727 HWY 81 W,,,MCDONOUGH,,,GA,,30253,US,33.4319494,-84.20352369999999,,True
CHAMBLEE DUNWOODY GROUP HOME,,,,,,,4235 CHAMBLEE DUNWOODY RD,,CHAMBLEE,,,,,,30341,GA,,7704574105,,,,,,,,,,,,,,,,,Nursing Home,,,,4235 CHAMBLEE DUNWOODY RD,,,CHAMBLEE,,,GA,,30341,US,33.91482670000001,-84.3135453,,True
WATERLOO GROUP HOME,,,,,,,4200 WATERLOO CIRCLE,,TUCKER,,,,,,30084,GA,,7702700160,,,,,,,,,,,,,,,,,Nursing Home,,,,4200 WATERLOO CIRCLE,,,TUCKER,,,GA,,30084,US,33.876815,-84.216644,,True
