name,contact_first_name,contact_last_name,contact_name,email,contact_email,fax,mailing_address_line_1,mailing_address_line_2,mailing_city,mailing_contact_first_name,mailing_contact_last_name,mailing_contact_name,mailing_country,mailing_county,mailing_postalcode,mailing_province,provider_name,primary_phone,secondary_phone,twitter,website,source,contact_occupation,dsgne_first_name,dsgne_last_name,admin_name,co_address_line_1,co_address_line_2,co_company,co_city,co_postalcode,co_province,ombudsman_phone,typeofcare,typeofcare2,low_high_rate,low_rate,high_rate,address_line_1,address_line_2,address_directions,city,municipality,region,province,state_id,postal_code,country,latitude,longitude,neighborhood,addr_valid
A Holly Patterson Extended Care Facility,,,,,,,,,,,,,,,,,,(516) 572-1400,,,http://www.nuhealth.net/about/centers-of-care/a_holly_patterson.asp,https://profiles.health.ny.gov/nursing_home/view/150456,,,,,,,,,,,,,,,,,875 Jerusalem Avenue,,,Uniondale,,,NY,,11553,US,40.6982608,-73.5854939,,True
Aaron Manor Rehabilitation and Nursing Center,,,,,,,,,,,,,,,,,,(585) 377-4000,,,http://www.aaronmanor.com/,https://profiles.health.ny.gov/nursing_home/view/150409,,,,,,,,,,,,,,,,,100 St Camillus Way,,,Fairport,,,NY,,14450,US,43.1272189,-77.44570499999999,,True
"Absolut Center for Nursing and Rehabilitation at Allegany, LLC",,,,,,,,,,,,,,,,,,(716) 373-2238,,,http://www.absolutcare.com/locations/?id=54,https://profiles.health.ny.gov/nursing_home/view/150318,,,,,,,,,,,,,,,,,2178 North Fifth Street,,,Allegany,,,NY,,14706,US,42.09497959999999,-78.49037919999999,,True
"Absolut Center for Nursing and Rehabilitation at Aurora Park, LLC",,,,,,,,,,,,,,,,,,(716) 652-1560,,,http://www.absolutcare.com/locations/?id=55,https://profiles.health.ny.gov/nursing_home/view/150371,,,,,,,,,,,,,,,,,292 Main Street,,,East Aurora,,,NY,,14052,US,42.7690702,-78.6239257,,True
"Absolut Center for Nursing and Rehabilitation at Dunkirk, LLC",,,,,,,,,,,,,,,,,,(716) 366-6710,,,http://www.absolutcare.com/locations/?id=56,https://profiles.health.ny.gov/nursing_home/view/150828,,,,,,,,,,,,,,,,,447-449 Lake Shore Drive West,,,Dunkirk,,,NY,,14048,US,42.479527,-79.358705,,True
"Absolut Center for Nursing and Rehabilitation at Eden, LLC",,,,,,,,,,,,,,,,,,(716) 992-3987,,,http://www.absolutcare.com/locations/?id=57,https://profiles.health.ny.gov/nursing_home/view/150829,,,,,,,,,,,,,,,,,2806 George Street,,,Eden,,,NY,,14057,US,42.65915219999999,-78.895231,,True
"Absolut Center for Nursing and Rehabilitation at Endicott, LLC",,,,,,,,,,,,,,,,,,(607) 754-2705,,,http://www.absolutcare.com/locations/?id=60,https://profiles.health.ny.gov/nursing_home/view/150312,,,,,,,,,,,,,,,,,301 Nantucket Drive,,,Endicott,,,NY,,13760,US,42.11395330000001,-76.05770509999999,,True
"Absolut Center for Nursing and Rehabilitation at Gasport, LLC",,,,,,,,,,,,,,,,,,(716) 772-2631,,,http://www.absolutcare.com/locations/?id=65,https://profiles.health.ny.gov/nursing_home/view/150475,,,,,,,,,,,,,,,,,4540 Lincoln Drive,,,Gasport,,,NY,,14067,US,43.1933821,-78.5740519,,True
"Absolut Center for Nursing and Rehabilitation at Houghton, LLC",,,,,,,,,,,,,,,,,,(585) 567-2207,,,http://www.absolutcare.com/locations/?id=58,https://profiles.health.ny.gov/nursing_home/view/150496,,,,,,,,,,,,,,,,,9876 Luckey Dr,,,Houghton,,,NY,,14744,US,42.426117,-78.16627299999999,,True
"Absolut Center for Nursing and Rehabilitation at Orchard Park, LLC",,,,,,,,,,,,,,,,,,(716) 662-4433,,,http://www.absolutcare.com/locations/?id=61,https://profiles.health.ny.gov/nursing_home/view/150374,,,,,,,,,,,,,,,,,6060 Armor Road,,,Orchard Park,,,NY,,14127,US,42.7530483,-78.76394959999999,,True
"Absolut Center for Nursing and Rehabilitation at Salamanca, LLC",,,,,,,,,,,,,,,,,,(716) 945-1800,,,http://www.absolutcare.com/locations/?id=62,https://profiles.health.ny.gov/nursing_home/view/150319,,,,,,,,,,,,,,,,,451 Broad Street,,,Salamanca,,,NY,,14779,US,42.155962,-78.731821,,True
"Absolut Center for Nursing and Rehabilitation at Three Rivers, LLC",,,,,,,,,,,,,,,,,,(607) 936-4108,,,http://www.absolutcare.com/locations/?id=59,https://profiles.health.ny.gov/nursing_home/view/150729,,,,,,,,,,,,,,,,,101 Creekside Drive,,,Painted Post,,,NY,,14870,US,42.144563,-77.1202409,,True
"Absolut Center for Nursing and Rehabilitation at Westfield, LLC",,,,,,,,,,,,,,,,,,(716) 326-4646,,,http://www.absolutcare.com/locations/?id=63,https://profiles.health.ny.gov/nursing_home/view/150813,,,,,,,,,,,,,,,,,26 Cass Street,,,Westfield,,,NY,,14787,US,42.327548,-79.572733,,True
Acadia Center for Nursing and Rehabilitation,,,,,,,,,,,,,,,,,,(631) 727-7744,,,http://www.riverheadcarecenter.com/home.php,https://profiles.health.ny.gov/nursing_home/view/150577,,,,,,,,,,,,,,,,,1146 Woodcrest Avenue,,,Riverhead,,,NY,,11901,US,40.9315294,-72.68398789999999,,True
Achieve Rehab and Nursing Facility,,,,,,,,,,,,,,,,,,(845) 292-4200,,,http://www.achieverehabny.com/,https://profiles.health.ny.gov/nursing_home/view/150582,,,,,,,,,,,,,,,,,170 Lake Street,,,Liberty,,,NY,,12754,US,41.79371,-74.751925,,True
Adira at Riverside Rehabilitation and Nursing,,,,,,,,,,,,,,,,,,(914) 964-3333,,,http://www.riversidehealth.org/Facilities/MalotzSkilledNursing.aspx,https://profiles.health.ny.gov/nursing_home/view/150902,,,,,,,,,,,,,,,,,120 Odell Ave,,,Yonkers,,,NY,,10701,US,40.9690375,-73.8877986,Northwest Yonkers,True
"Adirondack Tri-County Nursing and Rehabilitation Center, Inc",,,,,,,,,,,,,,,,,,(518) 251-2447,,,http://www.adirondacknursing.com/,https://profiles.health.ny.gov/nursing_home/view/150596,,,,,,,,,,,,,,,,,112 Ski Bowl Road,,,North Creek,,,NY,,12853,US,43.6985892,-73.9914723,,True
Affinity Skilled Living and Rehabilitation Center,,,,,,,,,,,,,,,,,,(631) 218-5900,,,http://affinityskilled.com/,https://profiles.health.ny.gov/nursing_home/view/150910,,,,,,,,,,,,,,,,,305 Locust Avenue,,,Oakdale,,,NY,,11769,US,40.7429851,-73.1085456,,True
Albany County Nursing Home,,,,,,,,,,,,,,,,,,(518) 869-2231,,,http://www.albanycounty.com/Government/Departments/NursingHomeResidentialHealthCareFacilities.aspx,https://profiles.health.ny.gov/nursing_home/view/150304,,,,,,,,,,,,,,,,,Albany-shaker Road,,,Albany,,,NY,,12211,US,42.70945409999999,-73.77965139999999,,False
Alice Hyde Medical Center,,,,,,,,,,,,,,,,,,(518) 481-8000,,,http://alicehyde.com/Services/NursingHome.asp,https://profiles.health.ny.gov/nursing_home/view/150385,,,,,,,,,,,,,,,,,45 Sixth Street,,,Malone,,,NY,,12953,US,44.86198419999999,-74.2889768,,True
Alpine Rehabilitation and Nursing Center,,,,,,,,,,,,,,,,,,(315) 823-1001,,,http://www.alpinerehab.net/,https://profiles.health.ny.gov/nursing_home/view/150396,,,,,,,,,,,,,,,,,755 East Monroe Street,,,Little Falls,,,NY,,13365,US,43.0544299,-74.85170839999999,,True
Amsterdam Nursing Home Corp (1992),,,,,,,,,,,,,,,,,,(212) 678-2600,,,http://www.amsterdamcares.com/,https://profiles.health.ny.gov/nursing_home/view/150727,,,,,,,,,,,,,,,,,1060 Amsterdam Avenue,,,New York,,,NY,,10025,US,40.8047189,-73.9632098,,True
Andrus On Hudson,,,,,,,,,,,,,,,,,,(914) 478-3700,,,http://www.andrusonhudson.org/,https://profiles.health.ny.gov/nursing_home/view/150631,,,,,,,,,,,,,,,,,185 Old Broadway,,,Hastings-on-hudson,,,NY,,10706,US,40.9843454,-73.88078,,True
Apex Rehabilitation & Care Center,,,,,,,,,,,,,,,,,,(631) 423-3200,,,http://www.apexrehabcare.com/,https://profiles.health.ny.gov/nursing_home/view/150571,,,,,,,,,,,,,,,,,78 Birchwood Dr,,,Huntington Station,,,NY,,11746,US,40.8267506,-73.3945043,,True
Atrium Center for Rehabilitation and Nursing,,,,,,,,,,,,,,,,,,(718) 240-3100,,,,https://profiles.health.ny.gov/nursing_home/view/150714,,,,,,,,,,,,,,,,,630 E 104th Street,,,Brooklyn,,,NY,,11236,US,40.64966739999999,-73.89855399999999,Canarsie,True
Auburn Rehabilitation & Nursing Center,,,,,,,,,,,,,,,,,,(315) 253-7351,,,http://www.auburnagt.com/,https://profiles.health.ny.gov/nursing_home/view/150321,,,,,,,,,,,,,,,,,85 Thornton Avenue,,,Auburn,,,NY,,13021,US,42.9136792,-76.5802255,,True
Aurelia Osborn Fox Memorial Hospital,,,,,,,,,,,,,,,,,,(607) 431-5980,,,http://www.bassett.org/ao-fox-hospital/,https://profiles.health.ny.gov/nursing_home/view/150518,,,,,,,,,,,,,,,,,1 Norton Avenue,,,Oneonta,,,NY,,13820,US,42.4579572,-75.0523319,,True
"Autumn View Health Care Facility, LLC",,,,,,,,,,,,,,,,,,(716) 648-2450,,,http://www.mcguiregroup.com/autumn%20view%20page.html,https://profiles.health.ny.gov/nursing_home/view/150792,,,,,,,,,,,,,,,,,S 4650 Southwestern Blvd,,,Hamburg,,,NY,,14075,US,42.7612108,-78.83258289999999,,False
"Avon Nursing Home, LLC",,,,,,,,,,,,,,,,,,(585) 226-2225,,,http://www.hurlbutcare.com/our-communities/avon-nursing-facility,https://profiles.health.ny.gov/nursing_home/view/150403,,,,,,,,,,,,,,,,,215 Clinton Street,,,Avon,,,NY,,14414,US,42.906746,-77.737404,,True
Bainbridge Nursing & Rehabilitation Center,,,,,,,,,,,,,,,,,,(718) 655-1991,,,,https://profiles.health.ny.gov/nursing_home/view/150654,,,,,,,,,,,,,,,,,3518 Bainbridge Avenue,,,Bronx,,,NY,,10467,US,40.8815803,-73.8777839,West Bronx,True
Baird Nursing Home LLC,,,,,,,,,,,,,,,,,,(585) 342-5540,,,http://www.bairdnursinghome.com/,https://profiles.health.ny.gov/nursing_home/view/150410,,,,,,,,,,,,,,,,,2150 St Paul Street,,,Rochester,,,NY,,14621,US,43.1955478,-77.6171011,Group 14621,True
"Baptist Health Nursing and Rehabilitation Center, Inc",,,,,,,,,,,,,,,,,,(518) 370-4700,,,http://www.bapthealth.com/nursing_rehab_center.htm,https://profiles.health.ny.gov/nursing_home/view/150549,,,,,,,,,,,,,,,,,297 N Ballston Ave,,,Scotia,,,NY,,12302,US,42.83289630000001,-73.9569886,,True
Barnwell Nursing & Rehabilitation Center,,,,,,,,,,,,,,,,,,(518) 758-6222,,,http://www.barnwellnrc.com/,https://profiles.health.ny.gov/nursing_home/view/150343,,,,,,,,,,,,,,,,,3230 Church Street,,,Valatie,,,NY,,12184,US,42.41909919999999,-73.67354739999999,,True
"Batavia Health Care Center, LLC",,,,,,,,,,,,,,,,,,(585) 343-1300,,,http://batavianursinghome.com/,https://profiles.health.ny.gov/nursing_home/view/150390,,,,,,,,,,,,,,,,,257 State St,,,Batavia,,,NY,,14020,US,43.00996429999999,-78.1836565,,True
"Bay Park Center for Nursing and Rehabilitation, LLC",,,,,,,,,,,,,,,,,,(718) 239-6500,,,,https://profiles.health.ny.gov/nursing_home/view/150679,,,,,,,,,,,,,,,,,801 Co-op City Blvd,,,Bronx,,,NY,,10475,US,40.8794073,-73.8290638,East Bronx,True
Bayberry Nursing Home,,,,,,,,,,,,,,,,,,(914) 636-3947,,,http://www.bayberrycarecenter.com/,https://profiles.health.ny.gov/nursing_home/view/150613,,,,,,,,,,,,,,,,,40 Keogh Lane,,,New Rochelle,,,NY,,10805,US,40.891713,-73.7843735,,True
Beach Gardens Rehab and Nursing Center,,,,,,,,,,,,,,,,,,(718) 869-8000,,,http://www.ehs.org/Bishop-Charles-Waldo-MacLean-Episcopal-Nursing-H.aspx,https://profiles.health.ny.gov/nursing_home/view/150816,,,,,,,,,,,,,,,,,17-11 Brookhaven Avenue,,,Far Rockaway,,,NY,,11691,US,40.59863190000001,-73.7512655,Far Rockaway,True
Beach Terrace Care Center,,,,,,,,,,,,,,,,,,(516) 431-4400,,,http://www.beach-terrace.com/,https://profiles.health.ny.gov/nursing_home/view/150444,,,,,,,,,,,,,,,,,640 West Broadway,,,Long Beach,,,NY,,11561,US,40.5842008,-73.682755,,True
Beacon Rehabilitation and Nursing Center,,,,,,,,,,,,,,,,,,(718) 945-6350,,,,https://profiles.health.ny.gov/nursing_home/view/150772,,,,,,,,,,,,,,,,,140 Beach 113th Street,,,Rockaway Park,,,NY,,11694,US,40.57892709999999,-73.8333908,Rockaway Park,True
Bedford Center for Nursing and Rehabilitation,,,,,,,,,,,,,,,,,,(718) 858-6200,,,http://www.bedfordcenterrehab.com/,https://profiles.health.ny.gov/nursing_home/view/150713,,,,,,,,,,,,,,,,,40 Heyward Street,,,Brooklyn,,,NY,,11249,US,40.7002741,-73.9579968,Williamsburg,True
Beechtree Center for Rehabilitation and Nursing,,,,,,,,,,,,,,,,,,(607) 273-4166,,,http://www.beechtreecarecenter.org/,https://profiles.health.ny.gov/nursing_home/view/150588,,,,,,,,,,,,,,,,,318 South Albany Street,,,Ithaca,,,NY,,14850,US,42.4361656,-76.502135,,True
Beechwood Homes,,,,,,,,,,,,,,,,,,(716) 688-8822,,,http://www.beechwoodcare.org/,https://profiles.health.ny.gov/nursing_home/view/150375,,,,,,,,,,,,,,,,,2235 Millersport Highway,,,Getzville,,,NY,,14068,US,43.0089982,-78.7709399,,True
Belair Care Center Inc,,,,,,,,,,,,,,,,,,(516) 826-1160,,,http://www.belaircarecenter.com/,https://profiles.health.ny.gov/nursing_home/view/150455,,,,,,,,,,,,,,,,,2478 Jerusalem Ave,,,No Bellmore,,,NY,,11710,US,40.6911117,-73.5404805,,True
Bellhaven Center for Rehabilitation and Nursing Care,,,,,,,,,,,,,,,,,,(631) 286-8100,,,http://bellhavencenter.com/,https://profiles.health.ny.gov/nursing_home/view/150820,,,,,,,,,,,,,,,,,110 Beaver Dam Road,,,Brookhaven,,,NY,,11719,US,40.77164820000001,-72.9339045,,True
Bensonhurst Center for Rehabilitation and Healthcare,,,,,,,,,,,,,,,,,,(718) 232-6700,,,http://www.center84.com/,https://profiles.health.ny.gov/nursing_home/view/150710,,,,,,,,,,,,,,,,,1740 84th Street,,,Brooklyn,,,NY,,11214,US,40.60901459999999,-74.0026363,Bensonhurst,True
Berkshire Nursing & Rehabilitation Center,,,,,,,,,,,,,,,,,,(631) 587-0600,,,,https://profiles.health.ny.gov/nursing_home/view/150559,,,,,,,,,,,,,,,,,10 Berkshire Road,,,W Babylon,,,NY,,11704,US,40.7058571,-73.34420209999999,,True
Beth Abraham Center for Rehabilitation and Nursing,,,,,,,,,,,,,,,,,,(718) 881-3000,,,http://www.bethabrahamhealthservices.org/,https://profiles.health.ny.gov/nursing_home/view/150646,,,,,,,,,,,,,,,,,612 Allerton Avenue,,,Bronx,,,NY,,10467,US,40.8647516,-73.8698045,,True
Bethany Gardens Skilled Living Center,,,,,,,,,,,,,,,,,,(315) 339-3210,,,http://www.bethanynursing.com/,https://profiles.health.ny.gov/nursing_home/view/150479,,,,,,,,,,,,,,,,,800 West Chestnut Street,,,Rome,,,NY,,13440,US,43.2369943,-75.4521829,,True
Bethany Nursing Home & Health Related Facility Inc,,,,,,,,,,,,,,,,,,(607) 739-8711,,,http://www.bethany-village.org/,https://profiles.health.ny.gov/nursing_home/view/150676,,,,,,,,,,,,,,,,,3005 Watkins Road,,,Horseheads,,,NY,,14845,US,42.18530699999999,-76.8337906,,True
Bethel Nursing & Rehabilitation Center,,,,,,,,,,,,,,,,,,(914) 739-6700,,,http://www.bethelwell.com/croton,https://profiles.health.ny.gov/nursing_home/view/150921,,,,,,,,,,,,,,,,,67 Springvale Road,,,Croton-on-hudson,,,NY,,10520,US,41.2349428,-73.9187118,,True
Bethel Nursing Home Company Inc,,,,,,,,,,,,,,,,,,(914) 941-7300,,,http://www.bethelwell.com/,https://profiles.health.ny.gov/nursing_home/view/150619,,,,,,,,,,,,,,,,,17 Narragansett Avenue,,,Ossining,,,NY,,10562,US,41.1729615,-73.84416399999999,,True
Bethlehem Commons Care Center,,,,,,,,,,,,,,,,,,(518) 621-1200,,,http://www.goodsamvillage.org/,https://profiles.health.ny.gov/nursing_home/view/150302,,,,,,,,,,,,,,,,,125 Rockefeller Road,,,Delmar,,,NY,,12054,US,42.626287,-73.80276099999999,,True
"Betsy Ross Rehabilitation Center, Inc",,,,,,,,,,,,,,,,,,(315) 339-2220,,,,https://profiles.health.ny.gov/nursing_home/view/150480,,,,,,,,,,,,,,,,,1 Elsie Street,,,Rome,,,NY,,13440,US,43.2334979,-75.4654201,,True
Bezalel Rehabilitation and Nursing Center,,,,,,,,,,,,,,,,,,(718) 471-2600,,,,https://profiles.health.ny.gov/nursing_home/view/150799,,,,,,,,,,,,,,,,,29-38 Far Rockaway Blvd,,,Far Rockaway,,,NY,,11691,US,40.5986716,-73.7646476,Far Rockaway,True
Boro Park Center for Rehabilitation and Healthcare,,,,,,,,,,,,,,,,,,(718) 851-3700,,,http://boroparkcenter.net/,https://profiles.health.ny.gov/nursing_home/view/150707,,,,,,,,,,,,,,,,,4915 10th Ave,,,Brooklyn,,,NY,,11219,US,40.6384892,-73.9986508,Borough Park,True
Briarcliff Manor Center for Rehabilitation and Nursing Care,,,,,,,,,,,,,,,,,,(914) 941-5100,,,,https://profiles.health.ny.gov/nursing_home/view/150632,,,,,,,,,,,,,,,,,620 Sleepy Hollow Road,,,Briarcliff Manor,,,NY,,10510,US,41.12534,-73.838076,,True
Bridge View Nursing Home,,,,,,,,,,,,,,,,,,(718) 961-1212,,,,https://profiles.health.ny.gov/nursing_home/view/150737,,,,,,,,,,,,,,,,,143-10 20th Ave,,,Whitestone,,,NY,,11357,US,40.781325,-73.82418799999999,Flushing,True
"Bridgewater Center for Rehabilitation & Nursing, LLC",,,,,,,,,,,,,,,,,,(607) 722-7225,,,http://www.bwrehab.com/,https://profiles.health.ny.gov/nursing_home/view/150311,,,,,,,,,,,,,,,,,159-163 Front Street,,,Binghamton,,,NY,,13905,US,42.101088,-75.9177101,,True
Brighton Manor,,,,,,,,,,,,,,,,,,(585) 482-3500,,,http://www.blossomhealthcare.com/,https://profiles.health.ny.gov/nursing_home/view/150415,,,,,,,,,,,,,,,,,989 Blossom Road,,,Rochester,,,NY,,14610,US,43.1488433,-77.5449307,Browncroft,True
Briody Rehab & Residential Health Care Center,,,,,,,,,,,,,,,,,,(716) 434-6361,,,http://www.briody.org/,https://profiles.health.ny.gov/nursing_home/view/150468,,,,,,,,,,,,,,,,,909 Lincoln Ave,,,Lockport,,,NY,,14094,US,43.154202,-78.671604,,True
Broadlawn Manor Nursing & Rehab Center,,,,,,,,,,,,,,,,,,(631) 264-0222,,,http://www.broadlawn.org/,https://profiles.health.ny.gov/nursing_home/view/150561,,,,,,,,,,,,,,,,,399 County Line Rd,,,Amityville,,,NY,,11701,US,40.6851275,-73.4250888,,True
Bronx Center for Rehabilitation & Health Care,,,,,,,,,,,,,,,,,,(718) 863-6700,,,http://bronxcenter.net/,https://profiles.health.ny.gov/nursing_home/view/150672,,,,,,,,,,,,,,,,,1010 Underhill Ave,,,Bronx,,,NY,,10472,US,40.8267134,-73.8608402,East Bronx,True
Bronx Gardens Rehabilitation and Nursing Center,,,,,,,,,,,,,,,,,,(718) 960-3910,,,http://stbarnabasnursinghome.org/,https://profiles.health.ny.gov/nursing_home/view/150873,,,,,,,,,,,,,,,,,2175 Quarry Rd,,,Bronx,,,NY,,10457,US,40.8532592,-73.8907096,West Bronx,True
Bronx Lebanon Special Care Center,,,,,,,,,,,,,,,,,,(718) 579-7000,,,http://www.bronxcare.org/SpecialCareCenter.html,https://profiles.health.ny.gov/nursing_home/view/150855,,,,,,,,,,,,,,,,,1265 Fulton Avenue,,,Bronx,,,NY,,10456,US,40.831672,-73.904197,West Bronx,True
Bronx Park Rehabilitation & Nursing Center,,,,,,,,,,,,,,,,,,(718) 798-1100,,,http://www.bronxparkcenter.com/,https://profiles.health.ny.gov/nursing_home/view/150667,,,,,,,,,,,,,,,,,3845 Carpenter Ave,,,Bronx,,,NY,,10467,US,40.8858343,-73.8651959,East Bronx,True
"Brookhaven Health Care Facility, LLC",,,,,,,,,,,,,,,,,,(631) 447-8800,,,http://www.mcguiregroup.com/brookhaven%20page.html,https://profiles.health.ny.gov/nursing_home/view/150832,,,,,,,,,,,,,,,,,801 Gazzola Blvd,,,Patchogue,,,NY,,11772,US,40.7829078,-72.9713263,,True
Brookhaven Rehabilitation & Health Care Center LLC,,,,,,,,,,,,,,,,,,(718) 471-7500,,,http://www.brookhavenrehab.com/,https://profiles.health.ny.gov/nursing_home/view/150759,,,,,,,,,,,,,,,,,250 Beach 17th Street,,,Far Rockaway,,,NY,,11691,US,40.5964195,-73.7507004,Far Rockaway,True
Brooklyn Center for Rehabilitation and Residential Health Care,,,,,,,,,,,,,,,,,,(718) 252-9800,,,http://brooklynrehab.net/,https://profiles.health.ny.gov/nursing_home/view/150702,,,,,,,,,,,,,,,,,1455 Coney Island Avenue,,,Brooklyn,,,NY,,11230,US,40.6217273,-73.96422249999999,Midwood,True
Brooklyn Gardens Nursing & Rehabilitation Center,,,,,,,,,,,,,,,,,,(718) 221-2600,,,http://www.ehs.org/Bishop-Henry-B-Hucles-Episcopal-Nursing-Home.aspx,https://profiles.health.ny.gov/nursing_home/view/150919,,,,,,,,,,,,,,,,,835 Herkimer Street,,,Brooklyn,,,NY,,11233,US,40.6788775,-73.92572679999999,Bedford-Stuyvesant,True
Brooklyn United Methodist Church Home,,,,,,,,,,,,,,,,,,(718) 827-4500,,,http://www.bumch.org/,https://profiles.health.ny.gov/nursing_home/view/150686,,,,,,,,,,,,,,,,,1485 Dumont Avenue,,,Brooklyn,,,NY,,11208,US,40.6712038,-73.8626058,East New York,True
Brooklyn-Queens Nursing Home,,,,,,,,,,,,,,,,,,(718) 277-5100,,,,https://profiles.health.ny.gov/nursing_home/view/150370,,,,,,,,,,,,,,,,,2749 Linden Blvd,,,Brooklyn,,,NY,,11208,US,40.66960350000001,-73.86285509999999,East New York,True
Brookside Multicare Nursing Center,,,,,,,,,,,,,,,,,,(631) 724-2200,,,http://www.brooksidenursing.org,https://profiles.health.ny.gov/nursing_home/view/150578,,,,,,,,,,,,,,,,,7 Route 25a,,,Smithtown,,,NY,,11787,US,40.8614374,-73.2144471,,True
Brothers of Mercy Nursing & Rehabilitation Center,,,,,,,,,,,,,,,,,,(716) 759-6985,,,http://brothersofmercy.org/,https://profiles.health.ny.gov/nursing_home/view/150378,,,,,,,,,,,,,,,,,10570 Bergtold Road,,,Clarence,,,NY,,14031,US,42.9676661,-78.5949244,,True
Buena Vida Continuing Care & Rehab Center,,,,,,,,,,,,,,,,,,(718) 455-6200,,,http://buenavidacenter.org/,https://profiles.health.ny.gov/nursing_home/view/150901,,,,,,,,,,,,,,,,,48 Cedar Street,,,Brooklyn,,,NY,,11221,US,40.6967703,-73.92754579999999,Bushwick,True
Buffalo Center for Rehabilitation and Nursing,,,,,,,,,,,,,,,,,,(716) 883-6782,,,http://www.delnrc.com/,https://profiles.health.ny.gov/nursing_home/view/150794,,,,,,,,,,,,,,,,,1014 Delaware Ave,,,Buffalo,,,NY,,14209,US,42.9117197,-78.8712208,Elmwood Village,True
Bushwick Center for Rehabilitation and Health Care,,,,,,,,,,,,,,,,,,(718) 345-2273,,,http://bushwickcenter.net/,https://profiles.health.ny.gov/nursing_home/view/150838,,,,,,,,,,,,,,,,,50 Sheffield Avenue,,,Brooklyn,,,NY,,11207,US,40.6764761,-73.8984229,Cypress Hills,True
Campbell Hall Rehabilitation Center Inc,,,,,,,,,,,,,,,,,,(845) 294-8154,,,http://www.campbellhallrehab.com/,https://profiles.health.ny.gov/nursing_home/view/150785,,,,,,,,,,,,,,,,,23 Kiernan Rd,,,Campbell Hall,,,NY,,10916,US,41.4543869,-74.28146,,True
Canterbury Woods,,,,,,,,,,,,,,,,,,(716) 929-5800,,,http://canterburywoods.org/,https://profiles.health.ny.gov/nursing_home/view/150932,,,,,,,,,,,,,,,,,725 Renaissance Drive,,,Williamsville,,,NY,,14221,US,42.9988158,-78.7228366,,True
Capstone Center for Rehabilitation and Nursing,,,,,,,,,,,,,,,,,,(518) 842-6790,,,http://www.capstonecenterrehab.com/,https://profiles.health.ny.gov/nursing_home/view/150439,,,,,,,,,,,,,,,,,302 Swart Hill Road,,,Amsterdam,,,NY,,12010,US,42.9141435,-74.1045257,,True
Carillon Nursing and Rehabilitation Center,,,,,,,,,,,,,,,,,,(631) 271-5800,,,http://www.carillonnursing.com/,https://profiles.health.ny.gov/nursing_home/view/150572,,,,,,,,,,,,,,,,,830 Park Avenue,,,Huntington,,,NY,,11743,US,40.8558961,-73.3885432,,True
Carmel Richmond Healthcare and Rehabilitation Center,,,,,,,,,,,,,,,,,,(718) 979-5000,,,http://www.archcare.org/carmel-richmond.html,https://profiles.health.ny.gov/nursing_home/view/150780,,,,,,,,,,,,,,,,,88 Old Town Road,,,Staten Island,,,NY,,10304,US,40.59551039999999,-74.0904509,Dongan Hills,True
Carthage Area Hospital,,,,,,,,,,,,,,,,,,(315) 493-1000,,,http://www.carthagehospital.com/,https://profiles.health.ny.gov/nursing_home/view/150400,,,,,,,,,,,,,,,,,1001 West Street Road,,,Carthage,,,NY,,13619,US,43.98698299999999,-75.5940619,,True
Casa Promesa,,,,,,,,,,,,,,,,,,(718) 960-7604,,,http://www.acacianetwork.org/long_term_care,https://profiles.health.ny.gov/nursing_home/view/150877,,,,,,,,,,,,,,,,,308 East 175 Street,,,Bronx,,,NY,,10457,US,40.8464484,-73.90407979999999,West Bronx,True
"Caton Park Rehabilitation and Nursing Center, LLC",,,,,,,,,,,,,,,,,,(718) 693-7000,,,,https://profiles.health.ny.gov/nursing_home/view/150696,,,,,,,,,,,,,,,,,1312 Caton Avenue,,,Brooklyn,,,NY,,11226,US,40.6495137,-73.9673268,Flatbush - Ditmas Park,True
Catskill Regional Medical Center,,,,,,,,,,,,,,,,,,(845) 794-3300,,,http://www.crmcny.org/,https://profiles.health.ny.gov/nursing_home/view/150547,,,,,,,,,,,,,,,,,68 Bushville Road,P.o Box 515,,Harris,,,NY,,12742,US,41.70741900000001,-74.734324,,True
Cayuga Ridge Extened Care,,,,,,,,,,,,,,,,,,(607) 273-8072,,,http://www.cayugaridge.org/,https://profiles.health.ny.gov/nursing_home/view/150589,,,,,,,,,,,,,,,,,1229 Trumansburg Road,,,Ithaca,,,NY,,14850,US,42.4631291,-76.53205,,True
Cedar Manor Nursing & Rehabilitation Center,,,,,,,,,,,,,,,,,,(914) 762-1600,,,http://www.cedarmanornursing.com/home.php,https://profiles.health.ny.gov/nursing_home/view/150618,,,,,,,,,,,,,,,,,Cedar Lane,P.o Box 928,,Ossining,,,NY,,10562,US,41.1823157,-73.8634588,,False
Center for Nursing & Rehabilitation Inc,,,,,,,,,,,,,,,,,,(718) 636-1000,,,http://www.cnrny.org/,https://profiles.health.ny.gov/nursing_home/view/150712,,,,,,,,,,,,,,,,,520 Prospect Place,,,Brooklyn,,,NY,,11238,US,40.6750017,-73.95941979999999,Crown Heights,True
Central Island Healthcare,,,,,,,,,,,,,,,,,,(516) 433-0600,,,http://www.centralislandhealthcare.com/,https://profiles.health.ny.gov/nursing_home/view/150466,,,,,,,,,,,,,,,,,825 Old Country Rd,,,Plainview,,,NY,,11803,US,40.773481,-73.4799031,,True
Central Park Rehabilitation and Nursing Center,,,,,,,,,,,,,,,,,,(315) 475-1641,,,http://www.centralparkrehab.com/,https://profiles.health.ny.gov/nursing_home/view/150497,,,,,,,,,,,,,,,,,116 East Castle Street,,,Syracuse,,,NY,,13205,US,43.0452194,-76.222071,,True
Champlain Valley Physicians Hospital Medical Center SNF,,,,,,,,,,,,,,,,,,(518) 561-2000,,,http://www.cvph.org/services/skilled-nursing/,https://profiles.health.ny.gov/nursing_home/view/150337,,,,,,,,,,,,,,,,,75 Beekman Street,,,Plattsburg,,,NY,,12901,US,44.7002852,-73.47009229999999,,True
Chapin Home for the Aging,,,,,,,,,,,,,,,,,,(718) 739-2523,,,http://www.chapinhome.org/,https://profiles.health.ny.gov/nursing_home/view/150769,,,,,,,,,,,,,,,,,165-01 Chapin Parkway,,,Jamaica,,,NY,,11432,US,40.71473809999999,-73.801326,Jamaica,True
Charles T Sitrin Health Care Center Inc,,,,,,,,,,,,,,,,,,(315) 797-3114,,,http://www.sitrin.com/,https://profiles.health.ny.gov/nursing_home/view/150488,,,,,,,,,,,,,,,,,2050 Tilden Avenue,,,New Hartford,,,NY,,13413,US,43.054947,-75.2302648,,True
Chasehealth Rehab and Residential Care,,,,,,,,,,,,,,,,,,(607) 847-7000,,,,https://profiles.health.ny.gov/nursing_home/view/150333,,,,,,,,,,,,,,,,,1 Terrace Heights,P.o Box 250,,New Berlin,,,NY,,13411,US,42.625133,-75.34049759999999,,True
Chautauqua Nursing and Rehabilitation Center,,,,,,,,,,,,,,,,,,(716) 366-6400,,,http://www.co.chautauqua.ny.us/departments/CountyHome/,https://profiles.health.ny.gov/nursing_home/view/150324,,,,,,,,,,,,,,,,,10836 Temple Road,,,Dunkirk,,,NY,,14048,US,42.4731396,-79.36308389999999,,True
Chemung County Health Center-Nursing Facility,,,,,,,,,,,,,,,,,,(607) 737-2001,,,http://www.chemungcounty.com/index.asp?pageId=530,https://profiles.health.ny.gov/nursing_home/view/150331,,,,,,,,,,,,,,,,,103 Washington Street,,,Elmira,,,NY,,14901,US,42.0906607,-76.79501619999999,,True
Chenango Memorial Hospital Inc SNF,,,,,,,,,,,,,,,,,,(607) 337-4111,,,http://www.uhs.net/?id=188&sid=1,https://profiles.health.ny.gov/nursing_home/view/150334,,,,,,,,,,,,,,,,,179 North Broad Street,,,Norwich,,,NY,,13815,US,42.54122999999999,-75.525772,,True
Chestnut Park Rehabilitation and Nursing Center,,,,,,,,,,,,,,,,,,(607) 432-8501,,,http://chestnutparkrehab.com/,https://profiles.health.ny.gov/nursing_home/view/150519,,,,,,,,,,,,,,,,,330 Chestnut Street,,,Oneonta,,,NY,,13820,US,42.453569,-75.0855349,,True
Church Home of the Protestant Episcopal Church,,,,,,,,,,,,,,,,,,(585) 546-8400,,,http://episcopalseniorlife.org/church_home.asp,https://profiles.health.ny.gov/nursing_home/view/150414,,,,,,,,,,,,,,,,,505 Mt Hope Avenue,,,Rochester,,,NY,,14620,US,43.14054710000001,-77.614513,South Wedge,True
Cliffside Rehabilitation & Residential Health Care Center,,,,,,,,,,,,,,,,,,(718) 886-0700,,,http://www.cliffsiderehab.com/,https://profiles.health.ny.gov/nursing_home/view/150739,,,,,,,,,,,,,,,,,119-19 Graham Court,,,Flushing,,,NY,,11354,US,40.7754322,-73.8483363,Flushing,True
Clifton Springs Hospital and Clinic Extended Care,,,,,,,,,,,,,,,,,,(315) 462-9561,,,http://www.cliftonspringshospital.org/,https://profiles.health.ny.gov/nursing_home/view/150502,,,,,,,,,,,,,,,,,2 Coulter Road,,,Clifton Springs,,,NY,,14432,US,42.9601279,-77.1366832,,True
Clinton County Nursing Home,,,,,,,,,,,,,,,,,,(518) 563-0950,,,http://www.clintoncountygov.com/Departments/NursingHome/NursingHomeHomePage.html,https://profiles.health.ny.gov/nursing_home/view/150340,,,,,,,,,,,,,,,,,16 Flynn Avenue,,,Plattsburgh,,,NY,,12901,US,44.681094,-73.4571584,,True
"Clove Lakes Health Care and Rehabilitation Center, Inc",,,,,,,,,,,,,,,,,,(718) 289-7900,,,http://www.clovelakes.com/,https://profiles.health.ny.gov/nursing_home/view/150775,,,,,,,,,,,,,,,,,25 Fanning Street,,,Staten Island,,,NY,,10314,US,40.6083193,-74.1224364,Manor Heights,True
"Cobble Hill Health Center, Inc",,,,,,,,,,,,,,,,,,(718) 855-6789,,,http://www.cobblehill.org/,https://profiles.health.ny.gov/nursing_home/view/150697,,,,,,,,,,,,,,,,,380 Henry Street,,,Brooklyn,,,NY,,11201,US,40.6884445,-73.99764379999999,Cobble Hill,True
Cold Spring Hills Center for Nursing and Rehabilitation,,,,,,,,,,,,,,,,,,(516) 921-3900,,,http://www.coldspringhills.net/,https://profiles.health.ny.gov/nursing_home/view/150464,,,,,,,,,,,,,,,,,378 Syosset-woodbury Road,,,Woodbury,,,NY,,11797,US,40.8239822,-73.4714525,,True
Coler Rehabilitation and Nursing Care Center,,,,,,,,,,,,,,,,,,(212) 848-6300,,,http://www.nyc.gov/html/hhc/coler-goldwater/home.html,https://profiles.health.ny.gov/nursing_home/view/150292,,,,,,,,,,,,,,,,,900 Main Street,,,Roosevelt Island,,,NY,,10044,US,40.77028980000001,-73.9421553,,True
Colonial Park Rehabilitation and Nursing Center,,,,,,,,,,,,,,,,,,(315) 336-5400,,,http://www.colonialparkrehab.com/,https://profiles.health.ny.gov/nursing_home/view/150477,,,,,,,,,,,,,,,,,950 Floyd Avenue,,,Rome,,,NY,,13440,US,43.217384,-75.43310249999999,,True
Comprehensive Rehabilitation and Nursing Center at Williamsville,,,,,,,,,,,,,,,,,,(716) 633-5400,,,http://www.chsbuffalo.org/Facilities/NursingHomes/StFrancis,https://profiles.health.ny.gov/nursing_home/view/150369,,,,,,,,,,,,,,,,,147 Reist Street,,,Williamsville,,,NY,,14221,US,42.9661924,-78.7507143,,True
Concord Nursing Home Inc,,,,,,,,,,,,,,,,,,(718) 636-7500,,,http://www.concordcares.org/482209.ihtml,https://profiles.health.ny.gov/nursing_home/view/150708,,,,,,,,,,,,,,,,,300 Madison Street,,,Brooklyn,,,NY,,11216,US,40.68500409999999,-73.94635339999999,Bedford-Stuyvesant,True
"Concourse Rehabilitation and Nursing Center, Inc",,,,,,,,,,,,,,,,,,(718) 681-4000,,,http://concourserehab.com/,https://profiles.health.ny.gov/nursing_home/view/150674,,,,,,,,,,,,,,,,,1072 Grand Concourse,,,Bronx,,,NY,,10456,US,40.8316111,-73.9193887,West Bronx,True
Conesus Lake Nursing Home,,,,,,,,,,,,,,,,,,(585) 346-3001,,,http://www.hurlbutcare.com/our-communities/conesus-lake-nursing-facility,https://profiles.health.ny.gov/nursing_home/view/150405,,,,,,,,,,,,,,,,,6131 Big Tree Road Box F,,,Livonia,,,NY,,14487,US,42.827385,-77.686216,,True
Corning Center for Rehabilitation and Healthcare,,,,,,,,,,,,,,,,,,(607) 654-2400,,,http://corningcenter.net/,https://profiles.health.ny.gov/nursing_home/view/150556,,,,,,,,,,,,,,,,,205 East First Street,,,Corning,,,NY,,14830,US,42.1401074,-77.0454991,,True
Cortland Park Rehabilitation and Nursing Center,,,,,,,,,,,,,,,,,,(607) 756-9921,,,http://www.cortlandparkrehab.com/,https://profiles.health.ny.gov/nursing_home/view/150345,,,,,,,,,,,,,,,,,193 Clinton Avenue,,,Cortland,,,NY,,13045,US,42.611603,-76.164098,,True
Cortland Regional Nursing and Rehabilitation Center,,,,,,,,,,,,,,,,,,(607) 756-3909,,,http://www.cortlandregional.org/medical-services/nursing-rehabilitation-center,https://profiles.health.ny.gov/nursing_home/view/150866,,,,,,,,,,,,,,,,,134 Homer Avenue,,,Cortland,,,NY,,13045,US,42.60884199999999,-76.187635,,True
Cortlandt Healthcare,,,,,,,,,,,,,,,,,,(914) 739-9150,,,http://www.cortlandthealthcare.com/,https://profiles.health.ny.gov/nursing_home/view/150605,,,,,,,,,,,,,,,,,110 Oregon Road,,,Peekskill,,,NY,,10566,US,41.3126833,-73.904628,,True
Creekview Nursing and Rehab Center,,,,,,,,,,,,,,,,,,(585) 247-7880,,,http://www.westgatenursing.com/,https://profiles.health.ny.gov/nursing_home/view/150427,,,,,,,,,,,,,,,,,525 Beahan Road,,,Rochester,,,NY,,14624,US,43.128421,-77.689086,,True
Crest Manor Living and Rehabilitation Center,,,,,,,,,,,,,,,,,,(585) 223-3633,,,http://www.crestmanorliving.com/,https://profiles.health.ny.gov/nursing_home/view/150436,,,,,,,,,,,,,,,,,6745 Pittsford-palmyra Road,,,Fairport,,,NY,,14450,US,43.0682725,-77.4400758,,True
Crouse Community Center Inc,,,,,,,,,,,,,,,,,,(315) 684-9595,,,http://www.crousecommunity.com/,https://profiles.health.ny.gov/nursing_home/view/150854,,,,,,,,,,,,,,,,,101 South Street,,,Morrisville,,,NY,,13408,US,42.892198,-75.637227,,True
Crown Heights Center for Nursing and Rehabilitation,,,,,,,,,,,,,,,,,,(718) 467-7300,,,http://www.mgnh.com/,https://profiles.health.ny.gov/nursing_home/view/150711,,,,,,,,,,,,,,,,,810-20 St Marks Avenue,,,Brooklyn,,,NY,,11213,US,40.680391,-73.976883,Park Slope,True
Crown Park Rehabilitation and Nursing Center,,,,,,,,,,,,,,,,,,(607) 753-9631,,,http://crowncenterrehab.com/,https://profiles.health.ny.gov/nursing_home/view/150346,,,,,,,,,,,,,,,,,28 Kellogg Road,,,Cortland,,,NY,,13045,US,42.5945925,-76.15992150000001,,True
Cuba Memorial Hospital Inc SNF,,,,,,,,,,,,,,,,,,(585) 968-2000,,,http://www.cubamemorialhospital.com/longtermcare/,https://profiles.health.ny.gov/nursing_home/view/150307,,,,,,,,,,,,,,,,,140 West Main Street,,,Cuba,,,NY,,14727,US,42.212959,-78.2875474,,True
Cypress Garden Center for Nursing and Rehabilitation,,,,,,,,,,,,,,,,,,(718) 961-5300,,,http://www.flushingmanors.com/index.asp?pg=3,https://profiles.health.ny.gov/nursing_home/view/150764,,,,,,,,,,,,,,,,,139-62 35th Avenue,,,Flushing,,,NY,,11354,US,40.7653283,-73.8253891,Flushing,True
Daleview Care Center,,,,,,,,,,,,,,,,,,(516) 694-9800,,,http://www.daleviewcarecenter.com/home.php,https://profiles.health.ny.gov/nursing_home/view/150454,,,,,,,,,,,,,,,,,574 Fulton Street,,,Farmingdale,,,NY,,11735,US,40.72796379999999,-73.4481788,,True
Daughters of Sarah Nursing Center,,,,,,,,,,,,,,,,,,(518) 456-7831,,,http://www.daughtersofsarah.org/nursingcenter/overview.html,https://profiles.health.ny.gov/nursing_home/view/150300,,,,,,,,,,,,,,,,,180 Washington Ave Ext,,,Albany,,,NY,,12203,US,42.7006808,-73.85187359999999,Dunes,True
Degraff Memorial Hospital-Skilled Nursing Facility,,,,,,,,,,,,,,,,,,(716) 694-4500,,,http://www.kaleidahealth.org/DeGraff/services/display.asp?s=651,https://profiles.health.ny.gov/nursing_home/view/150472,,,,,,,,,,,,,,,,,445 Tremont Street,,,North Tonawanda,,,NY,,14120,US,43.025128,-78.862146,,True
Diamond Hill Nursing and Rehabilitation Center,,,,,,,,,,,,,,,,,,(518) 235-1410,,,,https://profiles.health.ny.gov/nursing_home/view/150526,,,,,,,,,,,,,,,,,100 New Turnpike Road,,,Troy,,,NY,,12182,US,42.792949,-73.663692,,True
Ditmas Park Care Center,,,,,,,,,,,,,,,,,,(718) 462-8100,,,http://ditmasparkrehabcare.com/index.html,https://profiles.health.ny.gov/nursing_home/view/150718,,,,,,,,,,,,,,,,,2107 Ditmas Avenue,,,Brooklyn,,,NY,,11226,US,40.6402315,-73.9576086,Flatbush - Ditmas Park,True
DR Susan Smith Mckinney Nursing and Rehabilitation Center,,,,,,,,,,,,,,,,,,(718) 245-7000,,,http://www.nyc.gov/html/hhc/dssm/,https://profiles.health.ny.gov/nursing_home/view/150922,,,,,,,,,,,,,,,,,594 Albany Avenue,,,Brooklyn,,,NY,,11203,US,40.6595228,-73.9403852,East Flatbush,True
DRY Harbor Nursing Home,,,,,,,,,,,,,,,,,,(718) 565-4200,,,http://www.dryharbornursinghome.com/,https://profiles.health.ny.gov/nursing_home/view/150761,,,,,,,,,,,,,,,,,61-35 Dry Harbor Road,,,Middle Village,,,NY,,11379,US,40.726874,-73.871355,Middle Village,True
Dumont Center for Rehabilitation and Nursing Care,,,,,,,,,,,,,,,,,,(914) 632-9600,,,http://dumontcenter.com/,https://profiles.health.ny.gov/nursing_home/view/150788,,,,,,,,,,,,,,,,,676 Pelham Road,,,New Rochelle,,,NY,,10805,US,40.890123,-73.7870291,,True
East Haven Nursing & Rehabilitation Center,,,,,,,,,,,,,,,,,,(718) 655-2848,,,,https://profiles.health.ny.gov/nursing_home/view/150680,,,,,,,,,,,,,,,,,2323-27 Eastchester Road,,,Bronx,,,NY,,10469,US,40.860327,-73.8431201,East Bronx,True
East Neck Nursing & Rehabilitation Center,,,,,,,,,,,,,,,,,,(631) 422-4800,,,http://www.eastneck.com/,https://profiles.health.ny.gov/nursing_home/view/150812,,,,,,,,,,,,,,,,,134 Great East Neck Road,,,West Babylon,,,NY,,11704,US,40.6909906,-73.34637839999999,,True
East Side Nursing Home,,,,,,,,,,,,,,,,,,(585) 786-8151,,,http://www.eastsidenursing.com/,https://profiles.health.ny.gov/nursing_home/view/150640,,,,,,,,,,,,,,,,,62 Prospect St,,,Warsaw,,,NY,,14569,US,42.738733,-78.127854,,True
Eastchester Rehabilitation and Health Care Center,,,,,,,,,,,,,,,,,,(718) 231-5550,,,http://www.sentosacare.com/showfacilities.php?facilityid=4,https://profiles.health.ny.gov/nursing_home/view/150655,,,,,,,,,,,,,,,,,2700 Eastchester Road,,,Bronx,,,NY,,10469,US,40.86523609999999,-73.84334129999999,East Bronx,True
Eddy Heritage House Nursing and Rehabilitation Center,,,,,,,,,,,,,,,,,,(518) 274-4125,,,http://www.nehealth.com/Senior_Services/Nursing_Homes/Eddy_Heritage_House_Nursing_Center/,https://profiles.health.ny.gov/nursing_home/view/150859,,,,,,,,,,,,,,,,,2920 Tibbits Avenue,,,Troy,,,NY,,12180,US,42.7321079,-73.6629018,,True
Eddy Village Green at Beverwyck,,,,,,,,,,,,,,,,,,(518) 451-2107,,,http://www.nehealth.com/Senior_Services/Nursing_Homes/Eddy_Village_Green_at_Beverwyck/,https://profiles.health.ny.gov/nursing_home/view/208957,,,,,,,,,,,,,,,,,40 Autumn Drive,,,Slingerlands,,,NY,,12159,US,42.65641859999999,-73.8390928,,True
Eddy Village Green,,,,,,,,,,,,,,,,,,(518) 237-5630,,,http://www.nehealth.com/Senior_Services/Nursing_Homes/Eddy_Village_Green_at_Beverwyck/,https://profiles.health.ny.gov/nursing_home/view/150837,,,,,,,,,,,,,,,,,421 W Columbia Street,,,Cohoes,,,NY,,12047,US,42.774565,-73.725033,,True
Edna Tina Wilson Living Center,,,,,,,,,,,,,,,,,,(585) 368-6100,,,,https://profiles.health.ny.gov/nursing_home/view/150868,,,,,,,,,,,,,,,,,700 Island Cottage Road,,,Rochester,,,NY,,14612,US,43.2649191,-77.6639443,,True
Eger Health Care and Rehabilitation Center,,,,,,,,,,,,,,,,,,(718) 979-1800,,,http://www.eger.org/,https://profiles.health.ny.gov/nursing_home/view/150773,,,,,,,,,,,,,,,,,140 Meisner Avenue,,,Staten Island,,,NY,,10306,US,40.57988350000001,-74.12989139999999,Lighthouse Hill,True
"Elant at Goshen, Inc.",,,,,,,,,,,,,,,,,,(845) 291-3700,,,http://elant.org/?page_id=132,https://profiles.health.ny.gov/nursing_home/view/150817,,,,,,,,,,,,,,,,,46 Harriman Drive,,,Goshen,,,NY,,10924,US,41.38907949999999,-74.3201536,,True
Elant at Meadow Hill,,,,,,,,,,,,,,,,,,(845) 564-1700,,,http://elant.org/?page_id=134,https://profiles.health.ny.gov/nursing_home/view/150507,,,,,,,,,,,,,,,,,172 Meadow Hill Road,,,Newburgh,,,NY,,12550,US,41.5259728,-74.0868914,,True
Elcor Nursing and Rehabilitation Center,,,,,,,,,,,,,,,,,,(607) 739-0304,,,http://www.elcorhealthservices.com/,https://profiles.health.ny.gov/nursing_home/view/150332,,,,,,,,,,,,,,,,,48 Colonial Drive,,,Horseheads,,,NY,,14845,US,42.161976,-76.8531869,,True
Elderwood at Amherst,,,,,,,,,,,,,,,,,,(716) 835-2543,,,http://www.elderwood.com/locations/wedgewood.php,https://profiles.health.ny.gov/nursing_home/view/150360,,,,,,,,,,,,,,,,,4459 Bailey Ave,,,Amherst,,,NY,,14226,US,42.9764117,-78.81322850000001,,True
Elderwood at Cheektowaga,,,,,,,,,,,,,,,,,,(716) 681-9480,,,http://www.elderwood.com/maplewood/,https://profiles.health.ny.gov/nursing_home/view/150853,,,,,,,,,,,,,,,,,225 Bennett Road,,,Cheektowaga,,,NY,,14227,US,42.8888161,-78.746691,,True
Elderwood at Grand Island,,,,,,,,,,,,,,,,,,(716) 773-5900,,,http://www.elderwood.com/riverwood/index.php,https://profiles.health.ny.gov/nursing_home/view/150379,,,,,,,,,,,,,,,,,2850 Grand Island Blvd,,,Grand Island,,,NY,,14072,US,43.039197,-78.980507,,True
Elderwood at Hamburg,,,,,,,,,,,,,,,,,,(716) 648-2820,,,http://www.elderwood.com/locations/lakewood.php,https://profiles.health.ny.gov/nursing_home/view/150811,,,,,,,,,,,,,,,,,5775 Maelou Drive,,,Hamburg,,,NY,,14075,US,42.73200600000001,-78.832787,,True
Elderwood at Hornell,,,,,,,,,,,,,,,,,,(607) 324-6900,,,http://www.stjamesmercy.org/mcauley-manor.shtml,https://profiles.health.ny.gov/nursing_home/view/150827,,,,,,,,,,,,,,,,,1 Bethesda Drive,,,N Hornell,,,NY,,14843,US,42.346397,-77.663512,,True
Elderwood at Lancaster,,,,,,,,,,,,,,,,,,(716) 683-6165,,,http://www.elderwood.com/locations/linwood.php,https://profiles.health.ny.gov/nursing_home/view/150368,,,,,,,,,,,,,,,,,1818 Como Park Blvd,,,Lancaster,,,NY,,14086,US,42.89400730000001,-78.68479959999999,,True
Elderwood at Liverpool,,,,,,,,,,,,,,,,,,(315) 457-9946,,,http://www.elderwood.com/locations/birchwood.php,https://profiles.health.ny.gov/nursing_home/view/150807,,,,,,,,,,,,,,,,,4800 Bear Road,,,Liverpool,,,NY,,13088,US,43.12219410000001,-76.18040959999999,,True
Elderwood at Waverly,,,,,,,,,,,,,,,,,,(607) 565-2861,,,http://www.elderwood.com/locations/tioga-health-care.php,https://profiles.health.ny.gov/nursing_home/view/150585,,,,,,,,,,,,,,,,,37 N Chemung St,,,Waverly,,,NY,,14892,US,42.01259900000001,-76.52864799999999,,True
Elderwood at Wheatfield,,,,,,,,,,,,,,,,,,(716) 215-8000,,,http://www.elderwood.com/locations/crestwood.php,https://profiles.health.ny.gov/nursing_home/view/150886,,,,,,,,,,,,,,,,,2600 Niagara Falls Boulevard,,,Niagara Falls,,,NY,,14304,US,43.0917945,-78.9067934,,True
Elderwood at Williamsville,,,,,,,,,,,,,,,,,,(716) 689-6681,,,http://www.elderwood.com/locations/oakwood.php,https://profiles.health.ny.gov/nursing_home/view/150791,,,,,,,,,,,,,,,,,200 Bassett Road,,,Williamsville,,,NY,,14221,US,42.9977234,-78.73038849999999,,True
Elderwood of Uihlein at Lake Placid,,,,,,,,,,,,,,,,,,(518) 523-2464,,,http://www.elderwood.com/location/longtermcare-lake-placid/,https://profiles.health.ny.gov/nursing_home/view/150383,,,,,,,,,,,,,,,,,185 Old Military Road,,,Lake Placid,,,NY,,12946,US,44.264939,-73.983042,,True
Elizabeth Church Manor Nursing Home,,,,,,,,,,,,,,,,,,(607) 722-3463,,,http://www.unitedmethodisthomes.org/facility/elizabeth-church-manor-nursing-home/,https://profiles.health.ny.gov/nursing_home/view/150309,,,,,,,,,,,,,,,,,863 Front Street,,,Binghamton,,,NY,,13905,US,42.1313734,-75.906866,,True
Elizabeth Seton Pediatric Center,,,,,,,,,,,,,,,,,,(914) 294-6300,,,http://www.setonpediatric.org/elizabeth-seton-pediatric-center,https://profiles.health.ny.gov/nursing_home/view/150834,,,,,,,,,,,,,,,,,300 Corporate Boulevard South,,,Yonkers,,,NY,,10701,US,40.9686011,-73.87730619999999,Northwest Yonkers,True
Ellis Residential & Rehabilitation Center,,,,,,,,,,,,,,,,,,(518) 243-4100,,,http://www.ellismedicine.org/nursing-home/,https://profiles.health.ny.gov/nursing_home/view/150843,,,,,,,,,,,,,,,,,600 Mcclellan Street,,,Schenectady,,,NY,,12304,US,42.804476,-73.91597399999999,,True
Elm Manor Nursing Home,,,,,,,,,,,,,,,,,,(585) 394-3883,,,http://www.hurlbutcare.com/our-communities/elm-manor,https://profiles.health.ny.gov/nursing_home/view/150504,,,,,,,,,,,,,,,,,210 N Main Street,,,Canandaigua,,,NY,,14424,US,42.893866,-77.2871436,,True
"Elmhurst Care Center, Inc",,,,,,,,,,,,,,,,,,(718) 205-8100,,,http://www.extendedcare.com/ElderCare/Facilities/NY/EastElmhurst/ElmhurstCC/,https://profiles.health.ny.gov/nursing_home/view/150929,,,,,,,,,,,,,,,,,100-17 23 Avenue,,,East Elmhurst,,,NY,,11369,US,40.76900499999999,-73.87010699999999,East Elmhurst,True
Emerald North Nursing and Rehabilitation Center,,,,,,,,,,,,,,,,,,(716) 885-3838,,,http://www.pscwny.org/harbour-hawthorn-home.html,https://profiles.health.ny.gov/nursing_home/view/150492,,,,,,,,,,,,,,,,,1205 Delaware Avenue,,,Buffalo,,,NY,,14209,US,42.9169007,-78.8685538,,True
Emerald South Nursing and Rehabilitation Center,,,,,,,,,,,,,,,,,,(716) 885-6733,,,http://www.pscwny.org/harbour-hawthorn-home.html,https://profiles.health.ny.gov/nursing_home/view/150362,,,,,,,,,,,,,,,,,1175 Delaware Ave,,,Buffalo,,,NY,,14209,US,42.9160318,-78.8682444,,True
Erie County Medical Center,,,,,,,,,,,,,,,,,,(716) 898-3000,,,,https://profiles.health.ny.gov/nursing_home/view/234610,,,,,,,,,,,,,,,,,462 Grider Street,,,Buffalo,,,NY,,14215,US,42.9254225,-78.8313324,Grider,True
Essex Center for Rehabilitation and Healthcare,,,,,,,,,,,,,,,,,,(518) 873-3570,,,http://www.co.essex.ny.us/HNH.asp,https://profiles.health.ny.gov/nursing_home/view/150381,,,,,,,,,,,,,,,,,81 Park Street,,,Elizabethtown,,,NY,,12932,US,44.2153993,-73.5950281,,True
Evergreen Commons Rehabilitation and Nursing Center,,,,,,,,,,,,,,,,,,(518) 479-4662,,,http://www.evergreen-commons.com/,https://profiles.health.ny.gov/nursing_home/view/150920,,,,,,,,,,,,,,,,,1070 Luther Road,,,East Greenbush,,,NY,,12061,US,42.6239448,-73.6982208,,True
"Excel at Woodbury for Rehabilitation and Nursing, LLC",,,,,,,,,,,,,,,,,,(516) 692-4100,,,,https://profiles.health.ny.gov/nursing_home/view/150465,,,,,,,,,,,,,,,,,8533 Jericho Tpke,,,Woodbury,,,NY,,11797,US,40.8191631,-73.4576838,,True
Fairport Baptist Homes,,,,,,,,,,,,,,,,,,(585) 377-0350,,,http://fairportbaptisthomes.org/,https://profiles.health.ny.gov/nursing_home/view/150420,,,,,,,,,,,,,,,,,4646 Nine Mile Point Road,,,Fairport,,,NY,,14450,US,43.10922860000001,-77.4408716,,True
Fairview Nursing Care Center Inc,,,,,,,,,,,,,,,,,,(718) 263-4600,,,http://fairviewrehab.weebly.com/,https://profiles.health.ny.gov/nursing_home/view/150741,,,,,,,,,,,,,,,,,69-70 Grand Central Parkway,,,Forest Hills,,,NY,,11375,US,40.72466379999999,-73.83824059999999,Flushing,True
Far Rockaway Center for Rehabilitation and Nursing,,,,,,,,,,,,,,,,,,(718) 327-2909,,,,https://profiles.health.ny.gov/nursing_home/view/150742,,,,,,,,,,,,,,,,,13-11 Virgina St,,,Far Rockaway,,,NY,,11691,US,40.6101076,-73.745741,Far Rockaway,True
Fasny Firemen's Home,,,,,,,,,,,,,,,,,,(518) 828-7695,,,http://www.firemenshome.com/,https://profiles.health.ny.gov/nursing_home/view/150341,,,,,,,,,,,,,,,,,125 Harry-howard Avenue,,,Hudson,,,NY,,12534,US,42.25813,-73.7800819,,True
Father Baker Manor,,,,,,,,,,,,,,,,,,(716) 667-0001,,,http://www.chsbuffalo.org/Facilities/NursingHomes/FatherBaker,https://profiles.health.ny.gov/nursing_home/view/150874,,,,,,,,,,,,,,,,,6400 Powers Road,,,Orchard Park,,,NY,,14127,US,42.7343361,-78.7525553,,True
Ferncliff Nursing Home Co Inc,,,,,,,,,,,,,,,,,,(845) 876-2011,,,http://www.archcare.org/ferncliff-nursing-home.html,https://profiles.health.ny.gov/nursing_home/view/150354,,,,,,,,,,,,,,,,,21 Ferncliff Dr,,,Rhinebeck,,,NY,,12572,US,41.94295049999999,-73.9344794,,True
Fiddlers Green Manor Rehabilitation and Nursing Center,,,,,,,,,,,,,,,,,,(716) 592-4781,,,http://www.fiddlersgreenmanor.com/,https://profiles.health.ny.gov/nursing_home/view/150373,,,,,,,,,,,,,,,,,168 West Main Street,,,Springville,,,NY,,14141,US,42.5083072,-78.67362609999999,,True
Field Home-Holy Comforter,,,,,,,,,,,,,,,,,,(914) 739-2244,,,http://www.fieldhome.com/,https://profiles.health.ny.gov/nursing_home/view/150823,,,,,,,,,,,,,,,,,2300 Catherine Street,,,Cortlandt Manor,,,NY,,10567,US,41.2830249,-73.8485831,,True
Fieldston Lodge Care Center,,,,,,,,,,,,,,,,,,(718) 549-1203,,,http://www.fieldstonlodgecarecenter.com/,https://profiles.health.ny.gov/nursing_home/view/150657,,,,,,,,,,,,,,,,,666 Kappock Street,,,Bronx,,,NY,,10463,US,40.8804409,-73.91906209999999,West Bronx,True
Finger Lakes Center for Living,,,,,,,,,,,,,,,,,,(315) 255-7188,,,http://www.auburnhospital.org/programs-services/fingerlakes-center-for-living.php,https://profiles.health.ny.gov/nursing_home/view/150882,,,,,,,,,,,,,,,,,20 Park Avenue,,,Auburn,,,NY,,13021,US,42.94157610000001,-76.56484259999999,,True
Fishkill Center for Rehabilitation and Nursing,,,,,,,,,,,,,,,,,,(845) 831-8704,,,http://elant.org/?page_id=136,https://profiles.health.ny.gov/nursing_home/view/150356,,,,,,,,,,,,,,,,,22 Robert R Kasin Way,,,Beacon,,,NY,,12508,US,41.521118,-73.97220399999999,,True
Flushing Hospital Medical Center,,,,,,,,,,,,,,,,,,(718) 670-5918,,,,https://profiles.health.ny.gov/nursing_home/view/240872,,,,,,,,,,,,,,,,,45th Avenue & Parsons Blvd,,,Flushing,,,NY,,11355,US,40.7554325,-73.8153107,Flushing,True
Focus Rehabilitation and Nursing Center at Otsego,,,,,,,,,,,,,,,,,,(607) 544-2600,,,http://www.otsegomanor.com/,https://profiles.health.ny.gov/nursing_home/view/150520,,,,,,,,,,,,,,,,,128 Phoenix Mills Cross Road,,,Cooperstown,,,NY,,13326,US,42.6681038,-74.95214,,True
Focus Rehabilitation and Nursing Center at Utica,,,,,,,,,,,,,,,,,,(315) 732-0100,,,http://www.FocusUtica.com/,https://profiles.health.ny.gov/nursing_home/view/150887,,,,,,,,,,,,,,,,,1445 Kemble Street,,,Utica,,,NY,,13501,US,43.0932453,-75.2418574,,True
Folts Home,,,,,,,,,,,,,,,,,,(315) 866-6964,,,http://www.foltshomes.com/,https://profiles.health.ny.gov/nursing_home/view/150395,,,,,,,,,,,,,,,,,104 North Washington Street,,,Herkimer,,,NY,,13350,US,43.02712,-74.9843538,,True
Fordham Nursing and Rehabilitation Center,,,,,,,,,,,,,,,,,,(718) 796-5800,,,http://www.terrace-healthcare.com/,https://profiles.health.ny.gov/nursing_home/view/150678,,,,,,,,,,,,,,,,,2678 Kingsbridge Terrace,,,Bronx,,,NY,,10463,US,40.8704379,-73.9040188,Jerome Park,True
Forest Hills Care Center,,,,,,,,,,,,,,,,,,(718) 544-4300,,,http://foresthillsnh.com/,https://profiles.health.ny.gov/nursing_home/view/150744,,,,,,,,,,,,,,,,,71-44 Yellowstone Blvd,,,Forest Hills,,,NY,,11375,US,40.72153300000001,-73.855137,Flushing,True
Forest View Center for Rehabilitation & Nursing,,,,,,,,,,,,,,,,,,(718) 793-3200,,,http://www.fvrehab.com/,https://profiles.health.ny.gov/nursing_home/view/150745,,,,,,,,,,,,,,,,,71-20 110th Street,,,Forest Hills,,,NY,,11375,US,40.7217442,-73.8415529,Forest Hills,True
"Fort Hudson Nursing Center, Inc.",,,,,,,,,,,,,,,,,,(518) 747-2811,,,http://www.forthudson.com/,https://profiles.health.ny.gov/nursing_home/view/150597,,,,,,,,,,,,,,,,,319 Upper Broadway,,,Fort Edward,,,NY,,12828,US,43.28071790000001,-73.5883662,,True
Fort Tryon Center for Rehabilitation and Nursing,,,,,,,,,,,,,,,,,,(212) 543-6400,,,,https://profiles.health.ny.gov/nursing_home/view/150723,,,,,,,,,,,,,,,,,801 W 190th St,,,New York,,,NY,,10040,US,40.8571783,-73.9348622,,True
Four Seasons Nursing and Rehabilitation Center,,,,,,,,,,,,,,,,,,(718) 927-6300,,,http://www.fourseasonsnh.com/,https://profiles.health.ny.gov/nursing_home/view/150804,,,,,,,,,,,,,,,,,1555 Rockaway Parkway,,,Brooklyn,,,NY,,11236,US,40.6428577,-73.8992095,Canarsie,True
Fox Run at Orchard Park,,,,,,,,,,,,,,,,,,(716) 662-5001,,,http://www.foxrunorchardpark.com/,https://profiles.health.ny.gov/nursing_home/view/150491,,,,,,,,,,,,,,,,,1 Fox Run Lane,,,Orchard Park,,,NY,,14127,US,42.7648087,-78.77648169999999,,True
Franklin Center for Rehabilitation and Nursing,,,,,,,,,,,,,,,,,,(718) 670-3400,,,,https://profiles.health.ny.gov/nursing_home/view/150763,,,,,,,,,,,,,,,,,142-27 Franklin Avenue,,,Flushing,,,NY,,11355,US,40.7570936,-73.8229096,Flushing,True
"Friedwald Center for Rehabilitation and Nursing, LLC",,,,,,,,,,,,,,,,,,(845) 354-7000,,,http://www.friedwaldcenter.com/,https://profiles.health.ny.gov/nursing_home/view/150533,,,,,,,,,,,,,,,,,475 New Hempstead Road,,,New City,,,NY,,10956,US,41.1483911,-74.0313946,,True
Fulton Center for Rehabilitation and Healthcare,,,,,,,,,,,,,,,,,,(518) 773-3400,,,http://fultoncenter.net/,https://profiles.health.ny.gov/nursing_home/view/150389,,,,,,,,,,,,,,,,,847 Cohwy 122,,,Gloversville,,,NY,,12078,US,43.0730681,-74.3694605,,False
Fulton Commons Care Center Inc,,,,,,,,,,,,,,,,,,(516) 222-9300,,,http://www.fultoncommons.com/,https://profiles.health.ny.gov/nursing_home/view/150904,,,,,,,,,,,,,,,,,60 Merrick Ave,,,East Meadows,,,NY,,11554,US,40.7211185,-73.5778687,,True
Garden Care Center,,,,,,,,,,,,,,,,,,(516) 775-2100,,,http://www.gardencarerehab.com/,https://profiles.health.ny.gov/nursing_home/view/150458,,,,,,,,,,,,,,,,,135 Franklin Avenue,,,Franklin Square,,,NY,,11010,US,40.7045115,-73.6768293,,True
Garden Gate Health Care Facility,,,,,,,,,,,,,,,,,,(716) 668-8100,,,http://www.mcguiregroup.com/garden%20gate%20page.html,https://profiles.health.ny.gov/nursing_home/view/150377,,,,,,,,,,,,,,,,,2365 Union Road,,,Cheektowaga,,,NY,,14227,US,42.8762029,-78.75190599999999,,True
Glen Arden Inc,,,,,,,,,,,,,,,,,,(845) 291-7800,,,http://www.glenardenny.com/,https://profiles.health.ny.gov/nursing_home/view/150917,,,,,,,,,,,,,,,,,46 Harriman Drive,,,Goshen,,,NY,,10924,US,41.38907949999999,-74.3201536,,True
Glen Cove Center for Nursing and Rehabilitation,,,,,,,,,,,,,,,,,,(516) 671-9010,,,http://www.glencoverehab.com/,https://profiles.health.ny.gov/nursing_home/view/150443,,,,,,,,,,,,,,,,,6 Medical Plaza,,,Glen Cove,,,NY,,11542,US,40.8740748,-73.6218564,,True
Glen Island Center for Nursing and Rehabilitation,,,,,,,,,,,,,,,,,,(914) 636-2800,,,http://www.glenislandcarecenter.com/,https://profiles.health.ny.gov/nursing_home/view/150615,,,,,,,,,,,,,,,,,490 Pelham Road,,,New Rochelle,,,NY,,10805,US,40.8945867,-73.7816457,,True
Glendale Home-Schdy CNTY Dept Social Services,,,,,,,,,,,,,,,,,,(518) 384-3601,,,http://www.schenectadycounty.com/FullStory.aspx?m=248&amid=804,https://profiles.health.ny.gov/nursing_home/view/150550,,,,,,,,,,,,,,,,,59 Hetcheltown Road,,,Scotia,,,NY,,12302,US,42.8757858,-73.90908859999999,,True
Glengariff Health Care Center,,,,,,,,,,,,,,,,,,(516) 676-1100,,,http://glengariffcare.com/,https://profiles.health.ny.gov/nursing_home/view/150441,,,,,,,,,,,,,,,,,141 Dosoris Lane,,,Glen Cove,,,NY,,11542,US,40.8859033,-73.6320951,,True
Gold Crest Care Center,,,,,,,,,,,,,,,,,,(718) 882-6400,,,http://www.goldcrestcc.com/,https://profiles.health.ny.gov/nursing_home/view/150653,,,,,,,,,,,,,,,,,2316 Bruner Avenue,,,Bronx,,,NY,,10469,US,40.8594022,-73.8330094,East Bronx,True
Golden Gate Rehabilitation & Health Care Center,,,,,,,,,,,,,,,,,,(718) 698-8800,,,http://goldengaterehab.com/contactus.php,https://profiles.health.ny.gov/nursing_home/view/150782,,,,,,,,,,,,,,,,,191 Bradley Ave,,,Staten Island,,,NY,,10314,US,40.60672400000001,-74.1313626,Manor Heights,True
Golden Hill Nursing and Rehabilitation Center,,,,,,,,,,,,,,,,,,(845) 340-3390,,,http://www.co.ulster.ny.us/resources/goldenhill.html,https://profiles.health.ny.gov/nursing_home/view/150590,,,,,,,,,,,,,,,,,99 Golden Hill Drive,,,Kingston,,,NY,,12401,US,41.9169948,-74.022559,,True
Good Samaritan Nursing Home,,,,,,,,,,,,,,,,,,(631) 244-2400,,,http://goodsamaritan.chsli.org/index.php/good-samaritan-nursing-home-,https://profiles.health.ny.gov/nursing_home/view/150795,,,,,,,,,,,,,,,,,101 Elm St,,,Sayville,,,NY,,11782,US,40.72622,-73.07910780000002,,True
Good Shepherd Village at Endwell,,,,,,,,,,,,,,,,,,(607) 757-3102,,,http://www.gsvillage.com/,https://profiles.health.ny.gov/nursing_home/view/208956,,,,,,,,,,,,,,,,,14 Village Drive,,,Endwell,,,NY,,13760,US,42.1508735,-76.019258,,True
Good Shepherd-Fairview Home Inc,,,,,,,,,,,,,,,,,,(607) 724-2477,,,http://www.gsfhome.com/,https://profiles.health.ny.gov/nursing_home/view/150310,,,,,,,,,,,,,,,,,80 Fairview Avenue,,,Binghamton,,,NY,,13904,US,42.1106996,-75.8758762,,True
Gowanda Rehabilitation and Nursing Center,,,,,,,,,,,,,,,,,,(716) 532-5700,,,http://gowandarehab.com/,https://profiles.health.ny.gov/nursing_home/view/150602,,,,,,,,,,,,,,,,,100 Miller Street,,,Gowanda,,,NY,,14070,US,42.4559782,-78.92612989999999,,True
Grace Plaza Nursing and Rehabilitation Center,,,,,,,,,,,,,,,,,,(516) 466-3001,,,http://www.graceplaza.com/,https://profiles.health.ny.gov/nursing_home/view/150453,,,,,,,,,,,,,,,,,15 St Pauls Place,,,Great Neck,,,NY,,11021,US,40.7888385,-73.7220543,,True
Grand Manor Nursing & Rehabilitation Center,,,,,,,,,,,,,,,,,,(718) 518-8892,,,http://www.grandmanor.org/,https://profiles.health.ny.gov/nursing_home/view/150553,,,,,,,,,,,,,,,,,700 White Plains Road,,,Bronx,,,NY,,10473,US,40.8203283,-73.85728259999999,East Bronx,True
Grandell Rehabilitation and Nursing Center,,,,,,,,,,,,,,,,,,(516) 889-1100,,,http://www.grandellrehab.com/,https://profiles.health.ny.gov/nursing_home/view/150445,,,,,,,,,,,,,,,,,645 W Broadway,,,Long Beach,,,NY,,11561,US,40.5848515,-73.68250359999999,,True
Greene Meadows Nursing and Rehabilitation Center,,,,,,,,,,,,,,,,,,(518) 943-9380,,,http://www.columbiamemorial.com/kaaterskill/,https://profiles.health.ny.gov/nursing_home/view/150393,,,,,,,,,,,,,,,,,161 Jefferson Heights,,,Catskill,,,NY,,12414,US,42.229805,-73.878947,,True
Greenfield Health & Rehab Center,,,,,,,,,,,,,,,,,,(716) 684-3000,,,http://www.niagaralutheran.org/content/pages/greenfield-rehab,https://profiles.health.ny.gov/nursing_home/view/150927,,,,,,,,,,,,,,,,,5949 Broadway,,,Lancaster,,,NY,,14086,US,42.891369,-78.6314859,,True
Groton Community Health Care Center Residential Care Facility,,,,,,,,,,,,,,,,,,(607) 898-5876,,,,https://profiles.health.ny.gov/nursing_home/view/150786,,,,,,,,,,,,,,,,,120 Sykes Street,,,Groton,,,NY,,13073,US,42.585374,-76.36950209999999,,True
Gurwin Jewish Nursing and Rehabilitation Center,,,,,,,,,,,,,,,,,,(631) 499-6500,,,http://www.gurwin.org/,https://profiles.health.ny.gov/nursing_home/view/150835,,,,,,,,,,,,,,,,,68 Hauppauge Road,,,Commack,,,NY,,11725,US,40.8291513,-73.30067269999999,,True
Hamilton Manor Nursing Home,,,,,,,,,,,,,,,,,,(585) 225-0450,,,http://www.lattaroadnh.com/about.htm,https://profiles.health.ny.gov/nursing_home/view/150428,,,,,,,,,,,,,,,,,1172 Long Pond Road,,,Rochester,,,NY,,14626,US,43.21603699999999,-77.69485490000001,,True
Hamilton Park Nursing and Rehabilitation Center,,,,,,,,,,,,,,,,,,(718) 567-1820,,,http://www.hamiltonparkrehab.com/,https://profiles.health.ny.gov/nursing_home/view/150847,,,,,,,,,,,,,,,,,691 92 Street,,,Brooklyn,,,NY,,11228,US,40.615404,-74.0230868,Bay Ridge,True
"Harlem Center for Nursing and Rehabilitation, LLC",,,,,,,,,,,,,,,,,,(212) 690-7400,,,http://www.ghnh.org/greater-harlem/index.php,https://profiles.health.ny.gov/nursing_home/view/150726,,,,,,,,,,,,,,,,,30 West 138th Street,,,New York,,,NY,,10037,US,40.81502340000001,-73.9375298,,True
"Harris Hill Nursing Facility, LLC",,,,,,,,,,,,,,,,,,(716) 632-3700,,,http://www.mcguiregroup.com/harris%20hill%20page.html,https://profiles.health.ny.gov/nursing_home/view/150822,,,,,,,,,,,,,,,,,2699 Wehrle Drive,,,Williamsville,,,NY,,14221,US,42.9564363,-78.70228929999999,,True
"Haven Manor Health Care Center,llc",,,,,,,,,,,,,,,,,,(718) 471-1500,,,,https://profiles.health.ny.gov/nursing_home/view/150808,,,,,,,,,,,,,,,,,1441 Gateway Boulevard,,,Far Rockaway,,,NY,,11691,US,40.60074600000001,-73.749802,Far Rockaway,True
Haym Solomon Home for the Aged,,,,,,,,,,,,,,,,,,(718) 373-1700,,,http://www.haymsalomonhome.com/,https://profiles.health.ny.gov/nursing_home/view/150682,,,,,,,,,,,,,,,,,2340 Cropsey Avenue,,,Brooklyn,,,NY,,11214,US,40.5948723,-73.99663269999999,Gravesend,True
Hebrew Home for the Aged at Riverdale,,,,,,,,,,,,,,,,,,(718) 581-1000,,,http://www.hebrewhome.org/,https://profiles.health.ny.gov/nursing_home/view/150643,,,,,,,,,,,,,,,,,5901 Palisade Avenue,,,Bronx,,,NY,,10471,US,40.91003229999999,-73.90920109999999,West Bronx,True
Helen Hayes Hospital RHCF,,,,,,,,,,,,,,,,,,(845) 786-4000,,,http://www.helenhayeshospital.org/,https://profiles.health.ny.gov/nursing_home/view/150896,,,,,,,,,,,,,,,,,51 N Route 9w,,,West Haverstraw,,,NY,,10993,US,41.21387060000001,-73.9859331,,True
Helen Hayes Hospital,,,,,,,,,,,,,,,,,,(845) 786-4000,,,,https://profiles.health.ny.gov/nursing_home/view/1253376,,,,,,,,,,,,,,,,,51 N Route 9w,,,West Haverstraw,,,NY,,10993,US,41.21387060000001,-73.9859331,,True
Hempstead Park Nursing Home,,,,,,,,,,,,,,,,,,(516) 705-9700,,,,https://profiles.health.ny.gov/nursing_home/view/150448,,,,,,,,,,,,,,,,,800 Front Street,,,Hempstead,,,NY,,11550,US,40.7087479,-73.6021713,,True
Henry J. Carter Skilled Nursing Facility,,,,,,,,,,,,,,,,,,(646) 686-0057,,,http://www.nyc.gov/html/hhc/coler-goldwater/,https://profiles.health.ny.gov/nursing_home/view/150293,,,,,,,,,,,,,,,,,1752 Park Avenue,,,New York,,,NY,,10035,US,40.8030224,-73.9411667,,True
Heritage Commons Residential Health Care,,,,,,,,,,,,,,,,,,(518) 585-6771,,,http://www.interlakeshealth.com/getpage.php?name=heritage_commons,https://profiles.health.ny.gov/nursing_home/view/150382,,,,,,,,,,,,,,,,,1019 Wicker Street,,,Ticonderoga,,,NY,,12883,US,43.8494699,-73.4372999,,True
Heritage Green Nursing Home,,,,,,,,,,,,,,,,,,(716) 483-5000,,,http://www.heritage1886.org/new/index.php?option=com_content&view=article&id=38&Itemid=45,https://profiles.health.ny.gov/nursing_home/view/150787,,,,,,,,,,,,,,,,,P.o Box 400 Route 430,,,Greenhurst,,,NY,,14742,US,42.1187444,-79.309792,,False
Heritage Health Care Center,,,,,,,,,,,,,,,,,,(315) 797-7392,,,http://hhcc.net/,https://profiles.health.ny.gov/nursing_home/view/150485,,,,,,,,,,,,,,,,,1657 Sunset Ave,,,Utica,,,NY,,13502,US,43.0903894,-75.2567263,,True
Heritage Park Health Care Center,,,,,,,,,,,,,,,,,,(716) 488-1921,,,http://www.heritage1886.org/new/index.php?option=com_content&view=article&id=36&Itemid=47,https://profiles.health.ny.gov/nursing_home/view/150325,,,,,,,,,,,,,,,,,150 Prather Avenue,,,Jamestown,,,NY,,14701,US,42.0901109,-79.2383068,,True
"Heritage Village Rehab and Skilled Nursing, Inc.",,,,,,,,,,,,,,,,,,(716) 985-4612,,,http://www.heritage1886.org/new/index.php?option=com_content&view=article&id=33&Itemid=207,https://profiles.health.ny.gov/nursing_home/view/150327,,,,,,,,,,,,,,,,,4570 Route 60,,,Gerry,,,NY,,14740,US,42.19555009999999,-79.2513999,,False
Highfield Gardens Care Center of Great Neck,,,,,,,,,,,,,,,,,,(516) 365-9229,,,http://www.highfieldgardens.com/,https://profiles.health.ny.gov/nursing_home/view/150461,,,,,,,,,,,,,,,,,199 Community Drive,,,Great Neck,,,NY,,11021,US,40.7819096,-73.704656,,True
Highland Care Center,,,,,,,,,,,,,,,,,,(718) 657-6363,,,http://www.extendedcare.com/ElderCare/Facilities/NY/Jamaica/HighlandCC/,https://profiles.health.ny.gov/nursing_home/view/150766,,,,,,,,,,,,,,,,,91-31 175th Street,,,Jamaica,,,NY,,11432,US,40.70863989999999,-73.78527210000001,Jamaica,True
Highland Nursing Home Inc,,,,,,,,,,,,,,,,,,(315) 769-9956,,,http://highlandnursinghome.com/,https://profiles.health.ny.gov/nursing_home/view/150539,,,,,,,,,,,,,,,,,182 Highland Road,,,Massena,,,NY,,13662,US,44.945459,-74.853156,,True
Highland Park Rehabilitation and Nursing Center,,,,,,,,,,,,,,,,,,(585) 593-3750,,,http://www.highlandparkrehab.com/,https://profiles.health.ny.gov/nursing_home/view/150308,,,,,,,,,,,,,,,,,160 Seneca St,,,Wellsville,,,NY,,14895,US,42.12462499999999,-77.96270299999999,,True
Highland Rehabilitation and Nursing Center,,,,,,,,,,,,,,,,,,(845) 342-1033,,,,https://profiles.health.ny.gov/nursing_home/view/150506,,,,,,,,,,,,,,,,,120 Highland Avenue,,,Middletown,,,NY,,10940,US,41.4537098,-74.418718,,True
Highlands Living Center,,,,,,,,,,,,,,,,,,(585) 383-1700,,,http://www.highlandsatpittsford.org/the-living-center/,https://profiles.health.ny.gov/nursing_home/view/150883,,,,,,,,,,,,,,,,,500 Hahnemann Trail,,,Pittsford,,,NY,,14534,US,43.08707,-77.499149,,True
Highpointe On Michigan Health Care Facility,,,,,,,,,,,,,,,,,,(716) 748-3101,,,http://www.highpointeonmichigan.org/,https://profiles.health.ny.gov/nursing_home/view/150802,,,,,,,,,,,,,,,,,1031 Michigan Avenue,,,Buffalo,,,NY,,14203,US,42.9012082,-78.86228419999999,Medical Park,True
Hilaire Rehab & Nursing,,,,,,,,,,,,,,,,,,(631) 427-0254,,,http://www.hilairerehabandnursing.com/AboutUs.php,https://profiles.health.ny.gov/nursing_home/view/150570,,,,,,,,,,,,,,,,,9 Hilaire Drive,,,Huntington,,,NY,,11743,US,40.86860019999999,-73.41060039999999,,True
Hill Haven Nursing Home,,,,,,,,,,,,,,,,,,(585) 671-4300,,,http://www.rochestergeneral.org/centers-and-services/senior-services/hill-haven/,https://profiles.health.ny.gov/nursing_home/view/150435,,,,,,,,,,,,,,,,,1550 Empire Blvd,,,Webster,,,NY,,14580,US,43.1798103,-77.50779399999999,,True
Hillside Manor Rehab & Extended Care Center,,,,,,,,,,,,,,,,,,(718) 291-8200,,,http://www.hillsidehealthcare.com/,https://profiles.health.ny.gov/nursing_home/view/150768,,,,,,,,,,,,,,,,,182-15 Hillside Avenue,,,Jamaica Estates,,,NY,,11432,US,40.71399580000001,-73.779954,Jamaica,True
Hollis Park Manor Nursing Home,,,,,,,,,,,,,,,,,,(718) 479-1010,,,,https://profiles.health.ny.gov/nursing_home/view/150809,,,,,,,,,,,,,,,,,191-06 Hillside Avenue,,,Hollis,,,NY,,11423,US,40.7158592,-73.7706517,Hollis,True
Holliswood Center for Rehabilitation and Healthcare,,,,,,,,,,,,,,,,,,(718) 740-3500,,,http://www.holliswood.net/,https://profiles.health.ny.gov/nursing_home/view/150767,,,,,,,,,,,,,,,,,195-44 Woodhull Avenue,,,Hollis,,,NY,,11423,US,40.71222220000001,-73.76392969999999,Hollis,True
Hope Center for Hiv and Nursing Care,,,,,,,,,,,,,,,,,,(718) 681-8700,,,http://www.projectsamaritan.org/,https://profiles.health.ny.gov/nursing_home/view/150850,,,,,,,,,,,,,,,,,1401 University Avenue,,,Bronx,,,NY,,10452,US,40.8429303,-73.92572249999999,West Bronx,True
Hopkins Center for Rehabilitation and Healthcare,,,,,,,,,,,,,,,,,,(718) 694-6700,,,http://www.hopkinscenter.com/,https://profiles.health.ny.gov/nursing_home/view/150876,,,,,,,,,,,,,,,,,155 Dean Street,,,Brooklyn,,,NY,,11217,US,40.68666769999999,-73.98733570000002,Boerum Hill,True
Horizon Care Center,,,,,,,,,,,,,,,,,,(718) 945-0700,,,,https://profiles.health.ny.gov/nursing_home/view/150771,,,,,,,,,,,,,,,,,64-11 Beach Channel Drive,,,Arverne,,,NY,,11692,US,40.5925172,-73.7935787,Far Rockaway,True
"Hornell Gardens, LLC",,,,,,,,,,,,,,,,,,(607) 324-7740,,,http://www.hurlbutcare.com/our-communities/hornell-gardens,https://profiles.health.ny.gov/nursing_home/view/150557,,,,,,,,,,,,,,,,,434 Monroe Avenue,,,Hornell,,,NY,,14843,US,42.31293629999999,-77.6575896,,True
Hudson Park Rehabilitation and Nursing Center,,,,,,,,,,,,,,,,,,(518) 449-1100,,,http://www.hudsonparkrehab.com/,https://profiles.health.ny.gov/nursing_home/view/150299,,,,,,,,,,,,,,,,,325 Northern Boulevard,,,Albany,,,NY,,12204,US,42.6718795,-73.753348,Bishop's Gate,True
Hudson Pointe at Riverdale Center for Nursing and Rehabilitation,,,,,,,,,,,,,,,,,,(718) 514-2000,,,http://www.hudsonpointerehab.com/,https://profiles.health.ny.gov/nursing_home/view/150656,,,,,,,,,,,,,,,,,3220 Henry Hudson Parkway,,,Bronx,,,NY,,10463,US,40.88465919999999,-73.91392619999999,West Bronx,True
Hudson Valley Rehabilitation & Extended Care Center,,,,,,,,,,,,,,,,,,(845) 691-7201,,,http://www.hudsonvalleyrehab.com/,https://profiles.health.ny.gov/nursing_home/view/150592,,,,,,,,,,,,,,,,,260 Vineyard Ave,,,Highland,,,NY,,12528,US,41.7031627,-73.9793179,,True
Humboldt House Rehabilitation and Nursing Center,,,,,,,,,,,,,,,,,,(716) 886-4377,,,http://www.niagaralutheran.org/content/pages/nl-rehabilitation-center,https://profiles.health.ny.gov/nursing_home/view/150361,,,,,,,,,,,,,,,,,64 Hager Street,,,Buffalo,,,NY,,14208,US,42.92096829999999,-78.8485543,Hamlin Park,True
Huntington Hills Center for Health and Rehabilitation,,,,,,,,,,,,,,,,,,(631) 439-3000,,,http://www.huntingtonhillscenter.com/,https://profiles.health.ny.gov/nursing_home/view/150931,,,,,,,,,,,,,,,,,400 South Service Road,,,Melville,,,NY,,11747,US,40.78172829999999,-73.4037142,,True
Huntington Living Center,,,,,,,,,,,,,,,,,,(315) 787-4920,,,http://www.flhealth.org/hlc,https://profiles.health.ny.gov/nursing_home/view/150296,,,,,,,,,,,,,,,,,369 East Main Street,,,Waterloo,,,NY,,13165,US,42.9042149,-76.8463428,,True
Ideal Senior Living Center,,,,,,,,,,,,,,,,,,(607) 786-7308,,,http://www.uhs.net/?id=185&sid=1,https://profiles.health.ny.gov/nursing_home/view/150313,,,,,,,,,,,,,,,,,601 High Avenue,,,Endicott,,,NY,,13760,US,42.0918942,-76.0677743,,True
Incarnation Childrens Center Inc,,,,,,,,,,,,,,,,,,(212) 928-2590,,,http://incarnationchildrenscenter.org/,https://profiles.health.ny.gov/nursing_home/view/150897,,,,,,,,,,,,,,,,,142 Audubon Ave,,,New York,,,NY,,10032,US,40.8433368,-73.936577,,True
Indian River Rehabilitation and Nursing Center,,,,,,,,,,,,,,,,,,(518) 642-2710,,,,https://profiles.health.ny.gov/nursing_home/view/150598,,,,,,,,,,,,,,,,,17 Madison Street,,,Granville,,,NY,,12832,US,43.4046234,-73.27201459999999,,True
Ira Davenport Memorial Hospital SNF HRF,,,,,,,,,,,,,,,,,,(607) 776-8500,,,http://www.arnothealth.org/ira-davenport-memorial-hospital,https://profiles.health.ny.gov/nursing_home/view/150844,,,,,,,,,,,,,,,,,7571 State Route 54,,,Bath,,,NY,,14810,US,42.37414399999999,-77.27869,,False
Iroquois Nursing Home Inc,,,,,,,,,,,,,,,,,,(315) 469-1300,,,http://www.iroquoisnursing.com/,https://profiles.health.ny.gov/nursing_home/view/150862,,,,,,,,,,,,,,,,,4600 Southwood Heights Drive,,,Jamesville,,,NY,,13078,US,42.99534500000001,-76.1186712,,True
Isabella Geriatric Center Inc,,,,,,,,,,,,,,,,,,(212) 781-9800,,,http://www.isabella.org/,https://profiles.health.ny.gov/nursing_home/view/150715,,,,,,,,,,,,,,,,,515 Audubon Avenue,,,New York,,,NY,,10040,US,40.8545202,-73.92753429999999,,True
Island Nursing and Rehab Center,,,,,,,,,,,,,,,,,,(631) 758-3336,,,http://www.islandnursing.org/,https://profiles.health.ny.gov/nursing_home/view/150906,,,,,,,,,,,,,,,,,5537 Expressway Drive North,,,Holtsville,,,NY,,11742,US,40.824675,-73.024452,,True
Jamaica Hospital Medical Center,,,,,,,,,,,,,,,,,,(718) 206-6000,,,http://jamaicahospital.org/pages/clinical_services/rehab/TheTransitionalCareUnit.html,https://profiles.health.ny.gov/nursing_home/view/153983,,,,,,,,,,,,,,,,,89th Avenue & Van Wyck Expressway,,,Jamaica,,,NY,,11418,US,40.7014063,-73.816302,Richmond Hill,True
Jamaica Hospital Nursing Home Co Inc,,,,,,,,,,,,,,,,,,(718) 206-5000,,,http://www.trumppavilion.org/,https://profiles.health.ny.gov/nursing_home/view/150765,,,,,,,,,,,,,,,,,89-40 135th Street,,,Jamaica,,,NY,,11418,US,40.69949500000001,-73.81688799999999,Jamaica,True
James A Eddy Memorial Geriatric Center,,,,,,,,,,,,,,,,,,(518) 274-9890,,,http://www.nehealth.com/Senior_Services/Nursing_Homes/Eddy_Memorial_Geriatric_Center/,https://profiles.health.ny.gov/nursing_home/view/150810,,,,,,,,,,,,,,,,,2256 Burdett Avenue,,,Troy,,,NY,,12180,US,42.7350814,-73.6701271,,True
James G. Johnston Memorial Nursing Home,,,,,,,,,,,,,,,,,,(607) 798-7818,,,http://www.unitedmethodisthomes.org/facility/james-g-johnston-memorial-nursing-home/,https://profiles.health.ny.gov/nursing_home/view/150806,,,,,,,,,,,,,,,,,285 Deyo Hill Road,,,Johnson City,,,NY,,13790,US,42.14467570000001,-75.95998159999999,,True
James Square Nursing and Rehabilitation Centre,,,,,,,,,,,,,,,,,,(315) 474-1561,,,http://www.jamessquare.com/,https://profiles.health.ny.gov/nursing_home/view/150499,,,,,,,,,,,,,,,,,918 James Street,,,Syracuse,,,NY,,13203,US,43.0570256,-76.1374675,Northside,True
Jeanne Jugan Residence,,,,,,,,,,,,,,,,,,(347) 329-1800,,,http://www.littlesistersofthepoorbronx.org/,https://profiles.health.ny.gov/nursing_home/view/150649,,,,,,,,,,,,,,,,,2999 Schurz Avenue,,,Bronx,,,NY,,10465,US,40.815305,-73.812708,East Bronx,True
Jefferson's Ferry,,,,,,,,,,,,,,,,,,(631) 650-2600,,,http://www.jeffersonsferry.org/,https://profiles.health.ny.gov/nursing_home/view/150905,,,,,,,,,,,,,,,,,500 Mather Drive,,,So Setauket,,,NY,,11720,US,40.8994261,-73.0783095,,True
Jennie B Richmond Chaffee Nursing Home Company Inc,,,,,,,,,,,,,,,,,,(716) 592-2871,,,http://www.bertrandchaffee.com/longtermcare,https://profiles.health.ny.gov/nursing_home/view/150372,,,,,,,,,,,,,,,,,222 East Main Street,,,Springville,,,NY,,14141,US,42.5100229,-78.658604,,True
Jewish Home of Central New York,,,,,,,,,,,,,,,,,,(315) 446-9111,,,http://menorahparkofcny.com/continuum-of-care/jewish-health-rehabilitation/,https://profiles.health.ny.gov/nursing_home/view/150493,,,,,,,,,,,,,,,,,4101 E Genesee St,,,Syracuse,,,NY,,13214,US,43.03858290000001,-76.0758171,Eastside,True
Jewish Home of Rochester,,,,,,,,,,,,,,,,,,(585) 427-7760,,,http://www.jewishseniorlife.org/our-campus/skilled-nursing/,https://profiles.health.ny.gov/nursing_home/view/150814,,,,,,,,,,,,,,,,,2021 Winton Road S,,,Rochester,,,NY,,14618,US,43.10602899999999,-77.57982899999999,,True
John T Mather Memorial Hospital of Port Jefferson New York Inc,,,,,,,,,,,,,,,,,,(631) 473-1320,,,http://www.matherhospital.org/transitional-care-unit.php,https://profiles.health.ny.gov/nursing_home/view/153981,,,,,,,,,,,,,,,,,75 North Country Road,,,Port Jefferson,,,NY,,11777,US,40.9399881,-73.0548336,,True
Katherine Luther Residential Health Care and Rehabilitation Center,,,,,,,,,,,,,,,,,,(315) 853-5515,,,http://www.lutherancare.org/services/facilities-1/skilled-nursing-1,https://profiles.health.ny.gov/nursing_home/view/150481,,,,,,,,,,,,,,,,,110 Utica Road,,,Clinton,,,NY,,13323,US,43.0554739,-75.36326199999999,,True
Kendal at Ithaca,,,,,,,,,,,,,,,,,,(607) 266-5310,,,http://kai.kendal.org/,https://profiles.health.ny.gov/nursing_home/view/150889,,,,,,,,,,,,,,,,,2230 North Triphammer Road,,,Ithaca,,,NY,,14850,US,42.4755498,-76.485689,,True
Kendal On Hudson,,,,,,,,,,,,,,,,,,(914) 922-1000,,,http://kohud.kendal.org/Default.aspx,https://profiles.health.ny.gov/nursing_home/view/150915,,,,,,,,,,,,,,,,,1 Kendal Way,,,Sleepy Hollow,,,NY,,10591,US,41.0838281,-73.8636628,,True
King David Center for Nursing and Rehabilitation,,,,,,,,,,,,,,,,,,(718) 266-6100,,,http://www.sephardichome.org/,https://profiles.health.ny.gov/nursing_home/view/150683,,,,,,,,,,,,,,,,,2266 Cropsey Avenue,,,Brooklyn,,,NY,,11214,US,40.5958566,-73.9975853,Gravesend,True
King Street Home Inc,,,,,,,,,,,,,,,,,,(914) 937-5800,,,http://www.kingstreetnursinghome.com/home.html,https://profiles.health.ny.gov/nursing_home/view/150621,,,,,,,,,,,,,,,,,787 King Street,,,Port Chester,,,NY,,10573,US,41.0276408,-73.66889669999999,,True
Kings Harbor Multicare Center,,,,,,,,,,,,,,,,,,(718) 320-0400,,,http://www.kingsharbor.com/,https://profiles.health.ny.gov/nursing_home/view/150671,,,,,,,,,,,,,,,,,2000 E Gunhill Road,,,Bronx,,,NY,,10469,US,40.8604455,-73.8301616,East Bronx,True
Kingsway Arms Nursing Center Inc,,,,,,,,,,,,,,,,,,(518) 393-4117,,,http://www.kingswaycommunity.com/kingsway-arms.cfm,https://profiles.health.ny.gov/nursing_home/view/150548,,,,,,,,,,,,,,,,,323 Kings Road,,,Schenectady,,,NY,,12304,US,42.7759098,-73.91420049999999,,True
Kirkhaven,,,,,,,,,,,,,,,,,,(585) 461-1991,,,http://www.seniorsfirst.com/kirkhaven/,https://profiles.health.ny.gov/nursing_home/view/150800,,,,,,,,,,,,,,,,,254 Alexander Street,,,Rochester,,,NY,,14607,US,43.1514803,-77.5947386,,True
Laconia Nursing Home,,,,,,,,,,,,,,,,,,(718) 654-5875,,,http://www.laconianursinghome.com/,https://profiles.health.ny.gov/nursing_home/view/150669,,,,,,,,,,,,,,,,,1050 East 230th Street,,,Bronx,,,NY,,10466,US,40.887625,-73.848219,East Bronx,True
"Lakeside - Beikirch Care Center, Inc",,,,,,,,,,,,,,,,,,(585) 395-6052,,,http://www.lakesidehealth.com/,https://profiles.health.ny.gov/nursing_home/view/150426,,,,,,,,,,,,,,,,,170 West Avenue,,,Brockport,,,NY,,14420,US,43.2214909,-77.94423859999999,,True
Latta Road Nursing Home East,,,,,,,,,,,,,,,,,,(585) 225-0920,,,http://www.lattaroadnh.com/about.htm,https://profiles.health.ny.gov/nursing_home/view/150431,,,,,,,,,,,,,,,,,2102 Latta Road,,,Rochester,,,NY,,14612,US,43.2536243,-77.66947809999999,,True
Latta Road Nursing Home West,,,,,,,,,,,,,,,,,,(585) 225-0910,,,http://www.lattaroadnh.com/about.htm,https://profiles.health.ny.gov/nursing_home/view/150429,,,,,,,,,,,,,,,,,2100 Latta Road,,,Rochester,,,NY,,14612,US,43.25637629999999,-77.6685822,,True
"Lawrence Nursing Care Center, Inc",,,,,,,,,,,,,,,,,,(718) 945-0400,,,,https://profiles.health.ny.gov/nursing_home/view/150762,,,,,,,,,,,,,,,,,350 Beach 54th Street,,,Arverne,,,NY,,11692,US,40.5942419,-73.7841673,Arverne,True
"Leroy Village Green Residential Health Care Facility, Inc",,,,,,,,,,,,,,,,,,(585) 768-2561,,,http://www.leroyvillagegreen.com/,https://profiles.health.ny.gov/nursing_home/view/150793,,,,,,,,,,,,,,,,,10 Munson Street,,,Leroy,,,NY,,14482,US,42.972113,-77.99447099999999,,True
Lewis County General Hospital-Nursing Home Unit,,,,,,,,,,,,,,,,,,(315) 376-5200,,,http://www.lcgh.net/,https://profiles.health.ny.gov/nursing_home/view/150402,,,,,,,,,,,,,,,,,7785 North State Street,,,Lowville,,,NY,,13367,US,43.795209,-75.49954799999999,,True
Linden Center for Nursing and Rehabilitation,,,,,,,,,,,,,,,,,,(718) 649-7000,,,http://lindengardensrehab.com/,https://profiles.health.ny.gov/nursing_home/view/150926,,,,,,,,,,,,,,,,,2237 Linden Boulevard,,,Brooklyn,,,NY,,11207,US,40.6634941,-73.8808208,East New York,True
Little Neck Care Center,,,,,,,,,,,,,,,,,,(718) 423-6400,,,,https://profiles.health.ny.gov/nursing_home/view/150757,,,,,,,,,,,,,,,,,260-19 Nassau Blvd,,,Little Neck,,,NY,,11362,US,40.7661686,-73.7242958,Flushing,True
Living Center at Geneva - North,,,,,,,,,,,,,,,,,,(585) 787-4730,,,http://www.flhealth.org/body.cfm?id=296,https://profiles.health.ny.gov/nursing_home/view/150294,,,,,,,,,,,,,,,,,196-198 North Street,,,Geneva,,,NY,,14456,US,42.876489,-76.9883041,,True
Living Center at Geneva - South,,,,,,,,,,,,,,,,,,(315) 787-4730,,,http://www.flhealth.org/body.cfm?id=297,https://profiles.health.ny.gov/nursing_home/view/150295,,,,,,,,,,,,,,,,,196-198 North Street,,,Geneva,,,NY,,14456,US,42.876489,-76.9883041,,True
Livingston County Center for Nursing and Rehabilitation,,,,,,,,,,,,,,,,,,(585) 243-7200,,,http://www.co.livingston.state.ny.us/cnr.htm,https://profiles.health.ny.gov/nursing_home/view/150404,,,,,,,,,,,,,,,,,11 Murray Hill Drive,,,Mt Morris,,,NY,,14510,US,42.7294375,-77.8808669,,True
Livingston Hills Nursing and Rehabilitation Center,,,,,,,,,,,,,,,,,,(518) 851-3041,,,http://livingstonhills.com/,https://profiles.health.ny.gov/nursing_home/view/150344,,,,,,,,,,,,,,,,,2781 Route 9,,,Livingston,,,NY,,12541,US,42.139454,-73.7849141,,False
Long Beach Nursing and Rehabilitation Center,,,,,,,,,,,,,,,,,,(516) 897-1110,,,http://www.lbmc.org/services/komanoff.htm,https://profiles.health.ny.gov/nursing_home/view/150446,,,,,,,,,,,,,,,,,375 East Bay Drive,,,Long Beach,,,NY,,11561,US,40.594673,-73.654034,,True
Long Island Care Center Inc,,,,,,,,,,,,,,,,,,(718) 939-7500,,,http://longislandcarecenter.com/,https://profiles.health.ny.gov/nursing_home/view/150746,,,,,,,,,,,,,,,,,144-61 38th Ave,,,Flushing,,,NY,,11354,US,40.76358949999999,-73.8203358,Flushing,True
Long Island State Veterans Home,,,,,,,,,,,,,,,,,,(631) 444-8606,,,http://www.listateveteranshome.org/,https://profiles.health.ny.gov/nursing_home/view/150818,,,,,,,,,,,,,,,,,Suny At Stonybrook 100 Patriots Road,,,Stonybrook,,,NY,,11790,US,40.9123761,-73.1233889,,False
Loretto Health and Rehabilitation Center,,,,,,,,,,,,,,,,,,(315) 469-5570,,,http://www.loretto-cny.org/,https://profiles.health.ny.gov/nursing_home/view/150494,,,,,,,,,,,,,,,,,700 East Brighton Avenue,,,Syracuse,,,NY,,13205,US,43.00578579999999,-76.13619849999999,Valley,True
"Lutheran Augustana Center for Extended Care & Rehabilitation, Inc",,,,,,,,,,,,,,,,,,(718) 630-6000,,,http://www.lutheranaugustanacenter.com/pages/main.html,https://profiles.health.ny.gov/nursing_home/view/150690,,,,,,,,,,,,,,,,,5434 Second Avenue,,,Brooklyn,,,NY,,11204,US,40.646826,-74.0202836,Sunset Park,True
"Lutheran Center at Poughkeepsie, Inc",,,,,,,,,,,,,,,,,,(845) 486-9494,,,http://www.lutherancarecenter.org/,https://profiles.health.ny.gov/nursing_home/view/150925,,,,,,,,,,,,,,,,,965 Duthcess Turnpike,,,Poughkeepsie,,,NY,,12603,US,41.712232,-73.8680911,,True
Lutheran Retirement Home,,,,,,,,,,,,,,,,,,(716) 665-4905,,,http://www.lutheran-jamestown.org/,https://profiles.health.ny.gov/nursing_home/view/150326,,,,,,,,,,,,,,,,,715 Falconer Street,,,Jamestown,,,NY,,14701,US,42.1151089,-79.2100576,,True
Lynbrook Restorative Therapy and Nursing,,,,,,,,,,,,,,,,,,(516) 599-2744,,,http://www.lynbrookrehab.com/,https://profiles.health.ny.gov/nursing_home/view/150452,,,,,,,,,,,,,,,,,243 Atlantic Avenue,,,Lynbrook,,,NY,,11563,US,40.64983000000001,-73.6677322,,True
M.M. Ewing Continuing Care Center,,,,,,,,,,,,,,,,,,(585) 396-6020,,,http://www.thompsonhealth.com/SeniorbrLiving/SeniorLiving/MMEwingContinuingCareCenter.aspx,https://profiles.health.ny.gov/nursing_home/view/150503,,,,,,,,,,,,,,,,,350 Parrish Street,,,Canandaigua,,,NY,,14424,US,42.8762316,-77.2897296,,True
Manhattanville Health Care Center,,,,,,,,,,,,,,,,,,(718) 601-8400,,,,https://profiles.health.ny.gov/nursing_home/view/150836,,,,,,,,,,,,,,,,,311 W 231st Street,,,Bronx,,,NY,,10463,US,40.8812463,-73.90867229999999,West Bronx,True
Maplewood Health Care and Rehabilitation Center,,,,,,,,,,,,,,,,,,(315) 386-4541,,,,https://profiles.health.ny.gov/nursing_home/view/150541,,,,,,,,,,,,,,,,,205 State Street Road,,,Canton,,,NY,,13617,US,44.6145142,-75.1624168,,True
Maplewood Nursing Home Inc,,,,,,,,,,,,,,,,,,(585) 872-1800,,,http://www.visitmaplewood.com/,https://profiles.health.ny.gov/nursing_home/view/150421,,,,,,,,,,,,,,,,,100 Daniel Drive,,,Webster,,,NY,,14580,US,43.212974,-77.4344804,,True
Margaret Tietz Center for Nursing Care Inc,,,,,,,,,,,,,,,,,,(718) 298-7800,,,http://www.margarettietz.org/,https://profiles.health.ny.gov/nursing_home/view/150733,,,,,,,,,,,,,,,,,164-11 Chapin Parkway,,,Jamaica,,,NY,,11432,US,40.7143917,-73.8019237,Jamaica,True
Maria Regina Residence Inc,,,,,,,,,,,,,,,,,,(631) 273-4500,,,http://www.mariareginaresidence.org/,https://profiles.health.ny.gov/nursing_home/view/150907,,,,,,,,,,,,,,,,,1725 Brentwood Rd,Bldg 1,,Brentwood,,,NY,,11717,US,40.7721609,-73.2461902,,True
Marquis Rehabilitation & Nursing Center,,,,,,,,,,,,,,,,,,(516) 671-0858,,,http://www.marquisrehabandnursing.com/,https://profiles.health.ny.gov/nursing_home/view/150442,,,,,,,,,,,,,,,,,2 Medical Plaza,,,Glen Cove,,,NY,,11542,US,40.8740754,-73.621817,,True
Martine Center for Rehabilitation and Nursing,,,,,,,,,,,,,,,,,,(914) 428-0910,,,http://www.schnurmacher.org/,https://profiles.health.ny.gov/nursing_home/view/150610,,,,,,,,,,,,,,,,,12 Tibbits Avenue,,,White Plains,,,NY,,10606,US,41.0236167,-73.7749891,,True
Mary Manning Walsh Nursing Home Co Inc,,,,,,,,,,,,,,,,,,(212) 628-2800,,,http://www.archcare.org/mary-manning-walsh.html,https://profiles.health.ny.gov/nursing_home/view/150716,,,,,,,,,,,,,,,,,1339 York Avenue,,,New York,,,NY,,10021,US,40.76650569999999,-73.9543095,,True
Masonic Care Community of New York,,,,,,,,,,,,,,,,,,(315) 798-4800,,,http://www.masonichomeny.org/,https://profiles.health.ny.gov/nursing_home/view/150482,,,,,,,,,,,,,,,,,2150 Bleecker Street,,,Utica,,,NY,,13501,US,43.0864712,-75.18825,,True
Mayfair Care Center,,,,,,,,,,,,,,,,,,(516) 538-7171,,,,https://profiles.health.ny.gov/nursing_home/view/150449,,,,,,,,,,,,,,,,,100 Baldwin Road,,,Hempstead,,,NY,,11550,US,40.6982051,-73.6164711,,True
Mcauley Residence,,,,,,,,,,,,,,,,,,(716) 447-6600,,,http://www.chsbuffalo.org/Facilities/NursingHomes/McAuley,https://profiles.health.ny.gov/nursing_home/view/150366,,,,,,,,,,,,,,,,,1503 Military Road,,,Kenmore,,,NY,,14217,US,42.97793829999999,-78.8855446,Kenmore NW,True
Meadow Park Rehabilitation and Health Care Center LLC,,,,,,,,,,,,,,,,,,(718) 591-8300,,,http://www.meadowparkrehab.com/,https://profiles.health.ny.gov/nursing_home/view/150747,,,,,,,,,,,,,,,,,78-10 164th Street,,,Flushing,,,NY,,11366,US,40.72254529999999,-73.8049997,Fresh Meadows,True
"Meadowbrook Care Center, Inc",,,,,,,,,,,,,,,,,,(516) 377-8200,,,http://meadowbrooklongisland.com/,https://profiles.health.ny.gov/nursing_home/view/150891,,,,,,,,,,,,,,,,,320 West Merrick Road,,,Freeport,,,NY,,11520,US,40.6524888,-73.59448259999999,,True
Meadowbrook Healthcare,,,,,,,,,,,,,,,,,,(518) 563-5440,,,http://www.meadowbrookhealth.com/,https://profiles.health.ny.gov/nursing_home/view/150339,,,,,,,,,,,,,,,,,154 Prospect Avenue,,,Plattsburgh,,,NY,,12901,US,44.7036941,-73.4729131,,True
Medford Multicare Center for Living,,,,,,,,,,,,,,,,,,(631) 730-3000,,,http://www.medfordmulticare.org/,https://profiles.health.ny.gov/nursing_home/view/150911,,,,,,,,,,,,,,,,,3115 Horseblock Road,,,Medford,,,NY,,11763,US,40.8266029,-72.9851765,,True
Medina Memorial Hospital SNF,,,,,,,,,,,,,,,,,,(585) 798-2000,,,http://medinamemorial.org/residential-care-unit/,https://profiles.health.ny.gov/nursing_home/view/150511,,,,,,,,,,,,,,,,,200 Ohio Street,,,Medina,,,NY,,14103,US,43.22345240000001,-78.3976345,,True
Menorah Home & Hospital for Aged & Infirm,,,,,,,,,,,,,,,,,,(718) 646-4441,,,http://www.mjhs.org/rehab-and-nursing-centers/menorah/,https://profiles.health.ny.gov/nursing_home/view/150784,,,,,,,,,,,,,,,,,1516 Oriental Blvd,,,Brooklyn,,,NY,,11235,US,40.57619830000001,-73.93856079999999,Manhattan Beach,True
Mercy Hospital Skilled Nursing Facility,,,,,,,,,,,,,,,,,,(716) 828-2300,,,http://www.chsbuffalo.org/Facilities/NursingHomes/MercySNF,https://profiles.health.ny.gov/nursing_home/view/150359,,,,,,,,,,,,,,,,,55 Melroy Avenue,,,Lackawanna,,,NY,,14218,US,42.8265205,-78.8215007,,True
Mercy Living Center,,,,,,,,,,,,,,,,,,(518) 359-3355,,,http://www.amccares.org/about-us/living-centers/history.html,https://profiles.health.ny.gov/nursing_home/view/150384,,,,,,,,,,,,,,,,,114 Wawbeek Ave,,,Tupper Lake,,,NY,,12986,US,44.21608699999999,-74.464541,,True
Methodist Home for Nursing and Rehabilitation,,,,,,,,,,,,,,,,,,(718) 548-5100,,,http://www.methodisthome.org/,https://profiles.health.ny.gov/nursing_home/view/150648,,,,,,,,,,,,,,,,,4499 Manhattan College Parkway,,,Bronx,,,NY,,10471,US,40.890469,-73.903206,West Bronx,True
"Michaud Residential Health Services, Inc.",,,,,,,,,,,,,,,,,,(315) 592-2009,,,http://www.stlukehs.com/michaud.php,https://profiles.health.ny.gov/nursing_home/view/150513,,,,,,,,,,,,,,,,,453 Park Street,,,Fulton,,,NY,,13069,US,43.3157548,-76.4072468,,True
Middletown Park Rehabilitation & Health Care Center,,,,,,,,,,,,,,,,,,(845) 343-0801,,,http://middletownparkrehab.com/,https://profiles.health.ny.gov/nursing_home/view/150783,,,,,,,,,,,,,,,,,121 Dunning Road,,,Middletown,,,NY,,10940,US,41.4513884,-74.3832445,,True
Midway Nursing Home,,,,,,,,,,,,,,,,,,(718) 429-2200,,,http://midwaynursinghome.com/,https://profiles.health.ny.gov/nursing_home/view/150760,,,,,,,,,,,,,,,,,69-95 Queens Midtown Expressway,,,Maspeth,,,NY,,11378,US,40.72614890000001,-73.8918783,Maspeth,True
Mills Pond Nursing and Rehabilitation Center,,,,,,,,,,,,,,,,,,(631) 862-8990,,,http://www.mpnrc.com/,https://profiles.health.ny.gov/nursing_home/view/150581,,,,,,,,,,,,,,,,,273 Moriches Road,,,St James,,,NY,,11780,US,40.8794161,-73.14118289999999,,True
Mohawk Valley Health Care Center,,,,,,,,,,,,,,,,,,(315) 895-4050,,,http://mohawkvalleyhcc.com/,https://profiles.health.ny.gov/nursing_home/view/150394,,,,,,,,,,,,,,,,,99 Sixth Avenue,,,Ilion,,,NY,,13357,US,43.01901369999999,-75.04739579999999,,True
Momentum at South Bay for Rehabilitation and Nursing,,,,,,,,,,,,,,,,,,(631) 581-6400,,,http://www.rehabmomentum.com/,https://profiles.health.ny.gov/nursing_home/view/150575,,,,,,,,,,,,,,,,,340 East Montauk Highway,,,East Islip,,,NY,,11730,US,40.7346749,-73.1747152,,True
Monroe Community Hospital,,,,,,,,,,,,,,,,,,(585) 760-6500,,,http://www.monroehosp.org/,https://profiles.health.ny.gov/nursing_home/view/150412,,,,,,,,,,,,,,,,,435 East Henrietta Road,,,Rochester,,,NY,,14620,US,43.1128794,-77.618011,Strong,True
Montgomery Nursing and Rehabilitation Center,,,,,,,,,,,,,,,,,,(845) 457-3155,,,http://www.montgomeryrehab.com/,https://profiles.health.ny.gov/nursing_home/view/150509,,,,,,,,,,,,,,,,,2817 Albany Post Road,Box 158,,Montgomery,,,NY,,12549,US,41.54552160000001,-74.2400992,,True
Morningside Nursing and Rehabilitation Center,,,,,,,,,,,,,,,,,,(718) 409-8200,,,http://www.aiamsh.org/,https://profiles.health.ny.gov/nursing_home/view/150673,,,,,,,,,,,,,,,,,1000 Pelham Parkway South,,,Bronx,,,NY,,10461,US,40.8566658,-73.859566,East Bronx,True
Morningstar Residential Care Center,,,,,,,,,,,,,,,,,,(315) 342-4790,,,http://www.morningstarcares.com/,https://profiles.health.ny.gov/nursing_home/view/150514,,,,,,,,,,,,,,,,,17 Sunrise Drive,,,Oswego,,,NY,,13126,US,43.44558,-76.527985,,True
Morris Park Nursing Home,,,,,,,,,,,,,,,,,,(718) 231-4300,,,,https://profiles.health.ny.gov/nursing_home/view/150659,,,,,,,,,,,,,,,,,1235 Pelham Parkway North,,,Bronx,,,NY,,10469,US,40.8587593,-73.8514993,East Bronx,True
Mosholu Parkway Nursing & Rehabilitation Center,,,,,,,,,,,,,,,,,,(718) 655-3568,,,,https://profiles.health.ny.gov/nursing_home/view/150660,,,,,,,,,,,,,,,,,3356 Perry Avenue,,,Bronx,,,NY,,10467,US,40.8785267,-73.8741956,West Bronx,True
Mountainside Residential Care Center,,,,,,,,,,,,,,,,,,(845) 586-1800,,,http://www.hahv.org/mountainside/,https://profiles.health.ny.gov/nursing_home/view/150348,,,,,,,,,,,,,,,,,42158 State Highway #28,,,Margaretville,,,NY,,12455,US,42.14598159999999,-74.64121229999999,,True
Nassau Rehabilitation & Nursing Center,,,,,,,,,,,,,,,,,,(516) 565-4800,,,,https://profiles.health.ny.gov/nursing_home/view/150881,,,,,,,,,,,,,,,,,1 Greenwich Street,,,Hempstead,,,NY,,11550,US,40.70435519999999,-73.6217125,,True
Nathan Littauer Hospital Nursing Home,,,,,,,,,,,,,,,,,,(518) 773-5611,,,http://www.nlh.org/nursing-home,https://profiles.health.ny.gov/nursing_home/view/150387,,,,,,,,,,,,,,,,,99 East State Street,,,Gloversville,,,NY,,12078,US,43.069516,-74.330007,,True
Nesconset Center for Nursing and Rehabilitation,,,,,,,,,,,,,,,,,,(631) 361-8800,,,http://www.ncnrehab.com/,https://profiles.health.ny.gov/nursing_home/view/150805,,,,,,,,,,,,,,,,,100 Southern Boulevard,,,Nesconset,,,NY,,11767,US,40.8500271,-73.1602448,,True
"New Carlton Rehab and Nursing Center, LLC",,,,,,,,,,,,,,,,,,(718) 789-6262,,,http://carltonnh.com/,https://profiles.health.ny.gov/nursing_home/view/150695,,,,,,,,,,,,,,,,,405 Carlton Ave,,,Brooklyn,,,NY,,11238,US,40.685517,-73.97098969999999,Fort Greene,True
New East Side Nursing Home,,,,,,,,,,,,,,,,,,(212) 673-8500,,,,https://profiles.health.ny.gov/nursing_home/view/150719,,,,,,,,,,,,,,,,,25 Bialystoker Place,,,New York,,,NY,,10002,US,40.7161382,-73.9829263,,True
"New Glen Oaks Nursing Home, Inc",,,,,,,,,,,,,,,,,,(718) 343-0770,,,,https://profiles.health.ny.gov/nursing_home/view/150753,,,,,,,,,,,,,,,,,260-01 79th Avenue,,,Glen Oaks,,,NY,,11004,US,40.7468024,-73.7117832,Glen Oaks,True
New Gouverneur Hospital SNF,,,,,,,,,,,,,,,,,,(212) 238-7000,,,http://www.nyc.gov/html/hhc/gouverneur/html/services/nursing.shtml,https://profiles.health.ny.gov/nursing_home/view/150728,,,,,,,,,,,,,,,,,227 Madison Street,,,New York,,,NY,,10002,US,40.7132144,-73.98781249999999,,True
New Roc Nursing and Rehabilitation Center,,,,,,,,,,,,,,,,,,(585) 544-4000,,,http://blossomnorth.com/,https://profiles.health.ny.gov/nursing_home/view/150417,,,,,,,,,,,,,,,,,1335 Portland Ave,,,Rochester,,,NY,,14621,US,43.1906535,-77.58534879999999,Group 14621,True
"New Surfside Nursing Home, LLC",,,,,,,,,,,,,,,,,,(718) 471-3400,,,,https://profiles.health.ny.gov/nursing_home/view/150833,,,,,,,,,,,,,,,,,22-41 New Haven Avenue,,,Far Rockaway,,,NY,,11691,US,40.60085979999999,-73.75702489999999,Far Rockaway,True
"New Vanderbilt Rehabilitation and Care Center, Inc",,,,,,,,,,,,,,,,,,(718) 447-0701,,,http://www.newvanderbiltrehab.com/,https://profiles.health.ny.gov/nursing_home/view/150777,,,,,,,,,,,,,,,,,135 Vanderbilt Ave,,,Staten Island,,,NY,,10304,US,40.62106,-74.07631219999999,Clifton,True
New York Center for Rehabilitation & Nursing,,,,,,,,,,,,,,,,,,(718) 626-4800,,,,https://profiles.health.ny.gov/nursing_home/view/150908,,,,,,,,,,,,,,,,,26-13 21st Street,,,Astoria,,,NY,,11102,US,40.7730224,-73.92507909999999,Long Island City,True
New York State Veterans Home at Montrose,,,,,,,,,,,,,,,,,,(914) 788-6000,,,http://www.nysvets.org/homes/montrose/default.aspx,https://profiles.health.ny.gov/nursing_home/view/150903,,,,,,,,,,,,,,,,,2090 Albany Post Rd,,,Montrose,,,NY,,10548,US,41.2404677,-73.9270611,,True
Newark Manor Nursing Home Inc,,,,,,,,,,,,,,,,,,(315) 331-4690,,,http://www.hurlbutcare.com/our-communities/newark-manor,https://profiles.health.ny.gov/nursing_home/view/150601,,,,,,,,,,,,,,,,,222 West Pearl Street,,,Newark,,,NY,,14513,US,43.0618279,-77.1002017,,True
Newfane Rehab & Health Care Center,,,,,,,,,,,,,,,,,,(716) 778-7111,,,http://www.enhs.org/newfane/the-newfane-rehabilitation-and-health-care-center/,https://profiles.health.ny.gov/nursing_home/view/150474,,,,,,,,,,,,,,,,,2709 Transit Rd,,,Newfane,,,NY,,14108,US,43.283138,-78.69659829999999,,True
Newyork-Presbyterian Queens,,,,,,,,,,,,,,,,,,(718) 670-1021,,,,https://profiles.health.ny.gov/nursing_home/view/234608,,,,,,,,,,,,,,,,,56-45 Main Street,,,Flushing,,,NY,,11355,US,40.7471206,-73.82514309999999,Flushing,True
Niagara Rehabilitation and Nursing Center,,,,,,,,,,,,,,,,,,(716) 282-1207,,,http://www.niagararehab.org/,https://profiles.health.ny.gov/nursing_home/view/150471,,,,,,,,,,,,,,,,,822 Cedar Avenue,,,Niagara Falls,,,NY,,14301,US,43.097383,-79.05203999999999,,True
North Gate Health Care Facility,,,,,,,,,,,,,,,,,,(716) 694-7700,,,http://www.mcguiregroup.com/northgate%20page.html,https://profiles.health.ny.gov/nursing_home/view/150722,,,,,,,,,,,,,,,,,7264 Nash Road,,,North Tonawanda,,,NY,,14120,US,43.0746064,-78.86711690000001,,True
North Shore-Lij Orzac Center for Rehabilitation,,,,,,,,,,,,,,,,,,(516) 256-6700,,,http://www.northshorelij.com/hospitals/location/orzac-center-for-extended-care-and-rehabilitation,https://profiles.health.ny.gov/nursing_home/view/150839,,,,,,,,,,,,,,,,,900 Franklin Avenue,,,Valley Stream,,,NY,,11580,US,40.6815512,-73.6862793,,True
North Westchester Restorative Therapy and Nursing Center,,,,,,,,,,,,,,,,,,(914) 528-2000,,,http://www.nwestchester.com/,https://profiles.health.ny.gov/nursing_home/view/150638,,,,,,,,,,,,,,,,,3550 Lexington Avenue,,,Mohegan Lake,,,NY,,10547,US,41.322297,-73.858761,,True
Northeast Center for Rehabilitation and Brain Injury,,,,,,,,,,,,,,,,,,(845) 336-3500,,,http://www.northeastcenter.com/,https://profiles.health.ny.gov/nursing_home/view/150930,,,,,,,,,,,,,,,,,300 Grant Ave,,,Lake Katrine,,,NY,,12449,US,41.98149799999999,-73.995023,,True
"Northern Dutchess Res Health Care Facility, Inc",,,,,,,,,,,,,,,,,,(845) 871-3760,,,,https://profiles.health.ny.gov/nursing_home/view/150353,,,,,,,,,,,,,,,,,6525 Springbrook Avenue,P.o Box 514,,Rhinebeck,,,NY,,12572,US,41.9367593,-73.9135115,Rhinebeck Village,True
Northern Manhattan Rehabilitation and Nursing Center,,,,,,,,,,,,,,,,,,(212) 426-1284,,,http://www.nmrehab.org/,https://profiles.health.ny.gov/nursing_home/view/150890,,,,,,,,,,,,,,,,,116 East 125th St,,,New York,,,NY,,10035,US,40.804375,-73.93845499999999,,True
Northern Manor Geriatric Center Inc,,,,,,,,,,,,,,,,,,(845) 623-3904,,,http://northernmanor.com/,https://profiles.health.ny.gov/nursing_home/view/150530,,,,,,,,,,,,,,,,,199 N Middletown Road,,,Nanuet,,,NY,,10954,US,41.1114469,-74.0115789,,True
Northern Metropolitan Residential Health Care Facility Inc,,,,,,,,,,,,,,,,,,(845) 352-9000,,,http://northernmet.com/,https://profiles.health.ny.gov/nursing_home/view/150535,,,,,,,,,,,,,,,,,225 Maple Avenue,,,Monsey,,,NY,,10952,US,41.1153324,-74.06688749999999,,True
"Northern Riverview Health Care Center, Inc",,,,,,,,,,,,,,,,,,(845) 429-5381,,,http://northernriverview.com/,https://profiles.health.ny.gov/nursing_home/view/150527,,,,,,,,,,,,,,,,,87 South Route 9w,,,Haverstraw,,,NY,,10927,US,41.1955695,-73.9715678,,True
Northern Westchester Hospital,,,,,,,,,,,,,,,,,,(914) 666-1303,,,,https://profiles.health.ny.gov/nursing_home/view/254385,,,,,,,,,,,,,,,,,400 East Main Street,,,Mount Kisco,,,NY,,10549,US,41.19689690000001,-73.7258602,,True
Northwell Health Stern Family Center for Rehabilitation,,,,,,,,,,,,,,,,,,(516) 562-8000,,,http://www.northshorelij.com/hospitals/location/stern-family-center-for-rehabilitation,https://profiles.health.ny.gov/nursing_home/view/150840,,,,,,,,,,,,,,,,,300 Community Drive,,,Manhasset,,,NY,,11030,US,40.7776457,-73.7016783,,True
Northwoods Rehabilitation and Nursing Center at Moravia,,,,,,,,,,,,,,,,,,(315) 497-0440,,,,https://profiles.health.ny.gov/nursing_home/view/150323,,,,,,,,,,,,,,,,,7 Keeler Avenue,,,Moravia,,,NY,,13118,US,42.7144915,-76.4228608,,True
Norwegian Christian Home and Health Center,,,,,,,,,,,,,,,,,,(718) 232-2322,,,http://www.nchhc.org/,https://profiles.health.ny.gov/nursing_home/view/150692,,,,,,,,,,,,,,,,,1270-67th Street,,,Brooklyn,,,NY,,11219,US,40.6248288,-74.00369649999999,Dyker Heights,True
Norwich Rehabilitation & Nursing Center,,,,,,,,,,,,,,,,,,(607) 336-3915,,,http://www.norwichrehab.com/,https://profiles.health.ny.gov/nursing_home/view/150856,,,,,,,,,,,,,,,,,88 Calvary Drive,,,Norwich,,,NY,,13815,US,42.54783399999999,-75.52808399999999,,True
Nottingham RCHF,,,,,,,,,,,,,,,,,,(315) 446-0123,,,,https://profiles.health.ny.gov/nursing_home/view/150895,,,,,,,,,,,,,,,,,1305 Nottingham Road,,,Jamesville,,,NY,,13078,US,43.0114312,-76.08479489999999,,True
"NY Congregational Nursing Center, Inc",,,,,,,,,,,,,,,,,,(718) 284-0039,,,http://www.nycnc.org/nursing.htm,https://profiles.health.ny.gov/nursing_home/view/150687,,,,,,,,,,,,,,,,,135 Linden Boulevard,,,Brooklyn,,,NY,,11226,US,40.65310859999999,-73.9542931,,True
Nyack Manor Nursing Home,,,,,,,,,,,,,,,,,,(845) 268-6861,,,http://www.nyackmanorhealth.net/,https://profiles.health.ny.gov/nursing_home/view/150532,,,,,,,,,,,,,,,,,476 Christian Herald Road,,,Valley Cottage,,,NY,,10989,US,41.1172611,-73.940799,,True
NYS Veterans Home in NYC,,,,,,,,,,,,,,,,,,(718) 990-0329,,,http://www.nysvets.org/homes/stalbans/default.aspx,https://profiles.health.ny.gov/nursing_home/view/150870,,,,,,,,,,,,,,,,,178-50 Linden Blvd,,,Jamaica,,,NY,,11434,US,40.6917694,-73.7691122,Jamaica,True
NYS Veterans Home,,,,,,,,,,,,,,,,,,(607) 843-3100,,,http://www.nysvets.org/homes/oxford/,https://profiles.health.ny.gov/nursing_home/view/150336,,,,,,,,,,,,,,,,,4211 State Highway 220,,,Oxford,,,NY,,13830,US,42.4460854,-75.5782235,,False
Oak Hill Manor Nursing Home,,,,,,,,,,,,,,,,,,(607) 272-8282,,,,https://profiles.health.ny.gov/nursing_home/view/150587,,,,,,,,,,,,,,,,,602 Hudson St,,,Ithaca,,,NY,,14850,US,42.4329283,-76.492127,,True
"Oasis Rehabilitation and Nursing, LLC",,,,,,,,,,,,,,,,,,(631) 878-4400,,,http://www.suffolkassistedliving.com/cedar_lodge.php,https://profiles.health.ny.gov/nursing_home/view/150568,,,,,,,,,,,,,,,,,6 Frowein Road,,,Center Moriches,,,NY,,11934,US,40.80843619999999,-72.7763341,,True
Oceanside Care Center Inc,,,,,,,,,,,,,,,,,,(516) 536-2300,,,http://www.oceansidecarecenter.com/,https://profiles.health.ny.gov/nursing_home/view/150457,,,,,,,,,,,,,,,,,2914 Lincoln Avenue,,,Oceanside,,,NY,,11572,US,40.640271,-73.6424755,,True
"Oceanview Nursing & Rehabilitation Center, LLC",,,,,,,,,,,,,,,,,,(718) 471-6000,,,http://www.oceanviewnh.com/,https://profiles.health.ny.gov/nursing_home/view/150748,,,,,,,,,,,,,,,,,315 Beach 9th Street,,,Far Rockaway,,,NY,,11691,US,40.5977874,-73.74517589999999,Far Rockaway,True
Odd Fellow & Rebekah Rehabilitation & Health Care Center Inc.,,,,,,,,,,,,,,,,,,(716) 434-6324,,,http://www.oddfellowhcclkpt.org/,https://profiles.health.ny.gov/nursing_home/view/150469,,,,,,,,,,,,,,,,,104 Old Niagara Road,,,Lockport,,,NY,,14094,US,43.186221,-78.672775,,True
Oneida Healthcare,,,,,,,,,,,,,,,,,,(315) 363-6000,,,http://www.oneidahealthcare.org/patient-care-services/nursing-home,https://profiles.health.ny.gov/nursing_home/view/150406,,,,,,,,,,,,,,,,,323 Genesee Street,,,Oneida,,,NY,,13421,US,43.0779124,-75.6543532,,True
Ontario Center for Rehabilitation and Healthcare,,,,,,,,,,,,,,,,,,(585) 396-4340,,,http://www.co.ontario.ny.us/healthfacility,https://profiles.health.ny.gov/nursing_home/view/150505,,,,,,,,,,,,,,,,,3062 County Complex Drive,,,Canandaigua,,,NY,,14424,US,42.88517359999999,-77.2150324,,True
Orchard Manor Rehabilitation and Nursing Center,,,,,,,,,,,,,,,,,,(585) 798-4100,,,,https://profiles.health.ny.gov/nursing_home/view/150512,,,,,,,,,,,,,,,,,600 Bates Road,,,Medina,,,NY,,14103,US,43.2145629,-78.371434,,True
Our Lady of Consolation Nursing and Rehabilitative Care Center,,,,,,,,,,,,,,,,,,(631) 587-1600,,,http://olc.chsli.org/,https://profiles.health.ny.gov/nursing_home/view/150576,,,,,,,,,,,,,,,,,111 Beach Drive,,,West Islip,,,NY,,11795,US,40.6897406,-73.2931779,,True
Our Lady of Mercy Life Center,,,,,,,,,,,,,,,,,,(518) 464-8100,,,http://www.sphcs.org/OurLadyofMercyLifeCenter,https://profiles.health.ny.gov/nursing_home/view/150864,,,,,,,,,,,,,,,,,2 Mercycare Lane,,,Guilderland,,,NY,,12084,US,42.7005306,-73.9066538,,True
Our Lady of Peace Nursing Care Residence,,,,,,,,,,,,,,,,,,(716) 298-2900,,,http://www.ladyofpeace.org/,https://profiles.health.ny.gov/nursing_home/view/150914,,,,,,,,,,,,,,,,,5285 Lewiston Road,,,Lewiston,,,NY,,14092,US,43.1538937,-79.0361374,,True
Oxford Nursing Home,,,,,,,,,,,,,,,,,,(718) 638-0360,,,,https://profiles.health.ny.gov/nursing_home/view/150699,,,,,,,,,,,,,,,,,144 So Oxford St,,,Brooklyn,,,NY,,11217,US,40.6849284,-73.9734836,Fort Greene,True
Ozanam Hall of Queens Nursing Home Inc,,,,,,,,,,,,,,,,,,(718) 423-2000,,,http://www.ozanamhall.org/,https://profiles.health.ny.gov/nursing_home/view/150734,,,,,,,,,,,,,,,,,42-41 201st Street,,,Bayside,,,NY,,11361,US,40.7587835,-73.782412,Flushing,True
