name,contact_first_name,contact_last_name,contact_name,email,contact_email,fax,mailing_address_line_1,mailing_address_line_2,mailing_city,mailing_contact_first_name,mailing_contact_last_name,mailing_contact_name,mailing_country,mailing_county,mailing_postalcode,mailing_province,provider_name,primary_phone,secondary_phone,twitter,website,source,contact_occupation,dsgne_first_name,dsgne_last_name,admin_name,co_address_line_1,co_address_line_2,co_company,co_city,co_postalcode,co_province,ombudsman_phone,typeofcare,typeofcare2,low_high_rate,low_rate,high_rate,address_line_1,address_line_2,address_directions,city,municipality,region,province,state_id,postal_code,country,latitude,longitude,neighborhood
ABBEY DELRAY,,,,,,,2105 SW 11TH COURT,,DELRAY BEACH,,,,,Palm Beach,33445,FL,,(561) 454-1300,,,,,,,,,,,,,,,,,Nursing Home,,,,2105 SW 11TH COURT,,,DELRAY BEACH,Palm Beach,,FL,,33445,,26.4439539,-80.09608829999999,
ABBEY DELRAY SOUTH,,,,,,,1717 HOMEWOOD BLVD,,DELRAY BEACH,,,,,Palm Beach,33445,FL,,(561) 272-9600,,,www.lifespacecommunities.com,,,,,,,,,,,,,,Nursing Home,,,,1717 HOMEWOOD BLVD,,,DELRAY BEACH,Palm Beach,,FL,,33445,,26.437097,-80.099734,
ABBEY REHABILITATION AND NURSING CENTER,,,,,,,7101 DR MARTIN LUTHER KING JR ST N,,SAINT PETERSBURG,,,,,Pinellas,33702,FL,,(727) 527-7231,,,Abbeyhealthand rehab.com,,,,,,,,,,,,,,Nursing Home,,,,7101 DR MARTIN LUTHER KING JR ST N,,,SAINT PETERSBURG,Pinellas,,FL,,33702,,27.8364761,-82.64649229999999,Fossil Park
ABBIEJEAN RUSSELL CARE CENTER LLC,,,,,,,700 S 29TH STREET,,FORT PIERCE,,,,,St. Lucie,34947,FL,,(772) 465-7560,,,,,,,,,,,,,,,,,Nursing Home,,,,700 S 29TH STREET,,,FORT PIERCE,St. Lucie,,FL,,34947,,27.441275,-80.35329200000001,
ADVANCED CARE CENTER,,,,,,,401 FAIRWOOD AVE,,CLEARWATER,,,,,Pinellas,33759,FL,,(727) 797-6480,,,http://www.advanced-cc.com/,,,,,,,,,,,,,,Nursing Home,,,,401 FAIRWOOD AVE,,,CLEARWATER,Pinellas,,FL,,33759,,27.9699738,-82.7221848,
ADVENTIST CARE CENTERS-COURTLAND  INC,,,,,,,730 COURTLAND STREET,,ORLANDO,,,,,Orange,32804,FL,,(407) 975-3800,,,www.acccourtland.com,,,,,,,,,,,,,,Nursing Home,,,,730 COURTLAND STREET,,,ORLANDO,Orange,,FL,,32804,,28.6033961,-81.3907258,
"ALEXANDER ""SANDY"" NININGER STATE VETERANS NURSING HOME",,,,,,,8401 W CYPRESS DR,,PEMBROKE PINES,,,,,Broward,33025,FL,,(954) 985-4824,,,www.floridavets.org,,,,,,,,,,,,,,Nursing Home,,,,8401 W CYPRESS DR,,,PEMBROKE PINES,Broward,,FL,,33025,,26.0042598,-80.2540083,
ALHAMBRA HEALTH AND REHABILITATION CENTER,,,,,,,7501 38TH AVE N,,SAINT PETERSBURG,,,,,Pinellas,33710,FL,,(727) 345-9307,,,www.greystonehealth.com,,,,,,,,,,,,,,Nursing Home,,,,7501 38TH AVE N,,,SAINT PETERSBURG,Pinellas,,FL,,33710,,27.80684,-82.742456,Jungle Terrace
ALLIANCE HEALTH AND REHABILITATION CENTER,,,,,,,130 W ARMSTRONG AVENUE,,DELAND,,,,,Volusia,32720,FL,,(386) 734-6401,,,www.alliancecommunity.org,,,,,,,,,,,,,,Nursing Home,,,,130 W ARMSTRONG AVENUE,,,DELAND,Volusia,,FL,,32720,,29.017776,-81.3038459,Kitchens
ALPINE HEALTH AND REHABILITATION CENTER,,,,,,,3456 21ST AVE S,,SAINT PETERSBURG,,,,,Pinellas,33711,FL,,(727) 327-1988,,,www.alpinehealthandrehab.com,,,,,,,,,,,,,,Nursing Home,,,,3456 21ST AVE S,,,SAINT PETERSBURG,Pinellas,,FL,,33711,,27.7492165,-82.6808294,Childs Park
ANCHOR CARE AND REHABILITATION CENTER,,,,,,,1515 PORT MALABAR BLVD NE,,PALM BAY,,,,,Brevard,32905-5455,FL,,(321) 723-1235,,,,,,,,,,,,,,,,,Nursing Home,,,,1515 PORT MALABAR BLVD NE,,,PALM BAY,Brevard,,FL,,32905-5455,,28.0196826,-80.6048668,
APOLLO HEALTH AND REHABILITATION CENTER,,,,,,,1000 24TH ST N,,SAINT PETERSBURG,,,,,Pinellas,33713,FL,,(727) 323-4711,,,www.greystonehealth.com,,,,,,,,,,,,,,Nursing Home,,,,1000 24TH ST N,,,SAINT PETERSBURG,Pinellas,,FL,,33713,,27.7821341,-82.6656221,North Kenwood
ARBOR TRAIL REHAB AND SKILLED NURSING CENTER,,,,,,,611 TURNER CAMP RD,,INVERNESS,,,,,Citrus,34453,FL,,(352) 637-1130,,,www.arbortrailrehab.com,,,,,,,,,,,,,,Nursing Home,,,,611 TURNER CAMP RD,,,INVERNESS,Citrus,,FL,,34453,,28.84684679999999,-82.3374316,
ARCADIA HEALTH & REHABILITATION CENTER,,,,,,,10095 HILLVIEW ROAD,,PENSACOLA,,,,,Escambia,32514,FL,,(850) 479-4000,,,,,,,,,,,,,,,,,Nursing Home,,,,10095 HILLVIEW ROAD,,,PENSACOLA,Escambia,,FL,,32514,,30.5392339,-87.21307560000001,North Northwest Pensacola
ARCH PLAZA NURSING & REHABILITATION CENTER,,,,,,,12505 NE 16TH AVE,,NORTH MIAMI,,,,,Miami-Dade,33161-6019,FL,,(305) 891-1710,,,plazahealth.org,,,,,,,,,,,,,,Nursing Home,,,,12505 NE 16TH AVE,,,NORTH MIAMI,Miami-Dade,,FL,,33161-6019,,25.891861,-80.165607,
ASTORIA HEALTH AND REHABILITATION CENTER,,,,,,,701 OVERLOOK DR SE,,WINTER HAVEN,,,,,Polk,33884-1671,FL,,(863) 318-5000,,,www.tlcmgmt.com,,,,,,,,,,,,,,Nursing Home,,,,701 OVERLOOK DR SE,,,WINTER HAVEN,Polk,,FL,,33884-1671,,28.0197835,-81.66176229999999,
ATLANTIC CARE AND REHABILITATION CENTER,,,,,,,3663 15TH AVE,,VERO BEACH,,,,,Indian River,32960,FL,,(772) 567-2552,,,,,,,,,,,,,,,,,Nursing Home,,,,3663 15TH AVE,,,VERO BEACH,Indian River,,FL,,32960,,27.6596863,-80.40066689999999,
ATLANTIC SHORES NURSING AND REHAB CENTER,,,,,,,4251 STACK BLVD,,MELBOURNE,,,,,Brevard,32901,FL,,(321) 953-2219,,,www.atlanticshoresrehab.com,,,,,,,,,,,,,,Nursing Home,,,,4251 STACK BLVD,,,MELBOURNE,Brevard,,FL,,32901,,28.0468177,-80.62807269999999,
AUBURNDALE OAKS CARE AND REHABILITATION CENTER,,,,,,,919 OLD WINTER HAVEN RD,,AUBURNDALE,,,,,Polk,33823-4329,FL,,(863) 967-4125,,,,,,,,,,,,,,,,,Nursing Home,,,,919 OLD WINTER HAVEN RD,,,AUBURNDALE,Polk,,FL,,33823-4329,,28.0594355,-81.770893,
AVALON HEALTHCARE CENTER,,,,,,,1270 SW MAIN BLVD,,LAKE CITY,,,,,Columbia,32025,FL,,(386) 752-7900,,,,,,,,,,,,,,,,,Nursing Home,,,,1270 SW MAIN BLVD,,,LAKE CITY,Columbia,,FL,,32025,,30.1724718,-82.6408809,
AVANTE AT BOCA RATON  INC.,,,,,,,4601 SHERIDAN STREET,SUITE #500,HOLLYWOOD,,,,,Broward,33021,FL,,(561) 394-6282,,,www.avantecenters.com,,,,,,,,,,,,,,Nursing Home,,,,1130 NW 15TH STREET,,,BOCA RATON,Palm Beach,,FL,,33486,,26.3629364,-80.10937129999999,
AVANTE AT INVERNESS INC,,,,,,,4601 SHERIDAN ST,STE 500,HOLLYWOOD,,,,,Broward,33021-3439,FL,,(352) 726-3141,,,www.avantecenters.com,,,,,,,,,,,,,,Nursing Home,,,,304 S CITRUS AVE,,,INVERNESS,Citrus,,FL,,34452,,28.8317083,-82.3356477,
AVANTE AT LAKE WORTH  INC.,,,,,,,4601 SHERIDAN STREET,,HOLLYWOOD,,,,,Broward,33021,FL,,(561) 585-9301,,,www.avantecenters.com,,,,,,,,,,,,,,Nursing Home,,,,2501 N A ST,,,LAKE WORTH,Palm Beach,,FL,,33460-6013,,26.6439949,-80.06465659999999,
AVANTE AT LEESBURG  INC,,,,,,,4601 SHERIDAN STREET,SUITE #500,HOLLYWOOD,,,,,Broward,33021,FL,,(352) 787-3545,,,www.avantecenters.com,,,,,,,,,,,,,,Nursing Home,,,,2000 EDGEWOOD AVE,,,LEESBURG,Lake,,FL,,34748,,28.8071231,-81.8949791,
AVANTE AT MELBOURNE INC,,,,,,,4601 SHERIDAN ST,STE 500,HOLLYWOOD,,,,,Broward,33021-3439,FL,,(321) 723-3215,,,www.avantecenters.com,,,,,,,,,,,,,,Nursing Home,,,,1420 SOUTH OAK STREET,,,MELBOURNE,Brevard,,FL,,32901,,28.0861858,-80.6156417,Woodlawn Park
AVANTE AT MT DORA  INC.,,,,,,,4601 SHERIDAN ST,STE 500,HOLLYWOOD,,,,,Broward,33021-3439,FL,,(352) 383-4161,,,www.avantecenters.com,,,,,,,,,,,,,,Nursing Home,,,,3050 BROWN AVE,,,MOUNT DORA,Lake,,FL,,32757,,28.8093275,-81.6758425,
AVANTE AT OCALA  INC,,,,,,,4601 SHERIDAN ST,STE 500,HOLLYWOOD,,,,,Broward,33021-3439,FL,,(352) 732-0042,,,www.avantecenters.com,,,,,,,,,,,,,,Nursing Home,,,,2021 SW 1ST AVE,,,OCALA,Marion,,FL,,34471,,29.1674432,-82.1357329,
AVANTE AT ORLANDO INC.,,,,,,,4601 SHERIDAN STREET,,HOLLYWOOD,,,,,Broward,33021,FL,,(407) 671-5400,,,www.avantecenters.com,,,,,,,,,,,,,,Nursing Home,,,,2000 NORTH SEMORAN BOULEVARD,,,ORLANDO,Orange,,FL,,32807,,28.5723174,-81.311838,
AVANTE AT ORMOND BEACH  INC,,,,,,,170 N KINGS ROAD,,ORMOND BEACH,,,,,Volusia,32174,FL,,(386) 677-7955,,,www.avantecenters.com,,,,,,,,,,,,,,Nursing Home,,,,170 N KINGS ROAD,,,ORMOND BEACH,Volusia,,FL,,32174,,29.2826262,-81.0817144,
AVANTE AT ST. CLOUD  INC.,,,,,,,4601 SHERIDAN STREET,SUITE #500,HOLLYWOOD,,,,,Broward,33021,FL,,(407) 892-5121,,,www.avantecenters.com,,,,,,,,,,,,,,Nursing Home,,,,1301 KANSAS AVE,,,SAINT CLOUD,Osceola,,FL,,34769-5999,,28.2453605,-81.30289549999999,
AVANTE VILLA AT JACKSONVILLE BEACH INC,,,,,,,1504 SEABREEZE AVE,,JACKSONVILLE BEACH,,,,,Duval,32250,FL,,(904) 249-7421,,,www.avantecenters.com,,,,,,,,,,,,,,Nursing Home,,,,1504 SEABREEZE AVE,,,JACKSONVILLE BEACH,Duval,,FL,,32250,,30.26996359999999,-81.401597,Beaches
AVENTURA PLAZA REHABILITATION & NURSING CENTER,,,,,,,1800 N E 168TH STREET,,NORTH MIAMI BEACH,,,,,Miami-Dade,33162,FL,,(305) 917-1800,,,www.hebrewhomes.org,,,,,,,,,,,,,,Nursing Home,,,,1800 N E 168TH STREET,,,NORTH MIAMI BEACH,Miami-Dade,,FL,,33162,,25.9300644,-80.163517,
AYERS HEALTH AND REHABILITATION CENTER,,,,,,,606 NE 7TH ST,,TRENTON,,,,,Gilchrist,32693,FL,,(352) 463-7101,,,AyersHealthandRehab.com,,,,,,,,,,,,,,Nursing Home,,,,606 NE 7TH ST,,,TRENTON,Gilchrist,,FL,,32693,,29.6175591,-82.81006239999999,
BALDOMERO LOPEZ MEMORIAL VETERANS NURSING HOME,,,,,,,6919 PARKWAY BLVD,,LAND O LAKES,,,,,Pasco,34639,FL,,(813) 558-5000,,,www.floridavets.org,,,,,,,,,,,,,,Nursing Home,,,,6919 PARKWAY BLVD,,,LAND O LAKES,Pasco,,FL,,34639,,28.2505528,-82.4486022,Land O Lakes
BARRINGTON TERRACE OF BOYNTON BEACH,,,,,,,400 CENTRE ST,,NEWTON,,,,,,02458-2094,MA,,(561) 369-7919,,,www.barringtonterrace-bb.com,,,,,,,,,,,,,,Nursing Home,,,,1425 S CONGRESS AVE,,,BOYNTON BEACH,Palm Beach,,FL,,33426-6381,,26.514616,-80.091106,
BARTOW CENTER,,,,,,,2055 E GEORGIA ST,,BARTOW,,,,,Polk,33830,FL,,(863) 533-0578,,,bartowcenter.com,,,,,,,,,,,,,,Nursing Home,,,,2055 E GEORGIA ST,,,BARTOW,Polk,,FL,,33830,,27.8818813,-81.8239812,
BARTRAM CROSSING,,,,,,,3599 UNIVERSITY BLVD S,ATTN: MANAGED CARE,JACKSONVILLE,,,,,Duval,32216-4252,FL,,(904) 528-3000,,,www.Brooksrehab.org,,,,,,,,,,,,,,Nursing Home,,,,6209 BROOKS BARTRAM DRIVE,,,JACKSONVILLE,Duval,,FL,,32258,,30.1356119,-81.5380103,Southside
BAY BREEZE HEALTH AND REHABILITATION CENTER,,,,,,,1026 ALBEE FARM RD,,VENICE,,,,,Sarasota,34285-6213,FL,,(941) 484-0425,,,www.consulatehealthcare.com,,,,,,,,,,,,,,Nursing Home,,,,1026 ALBEE FARM RD,,,VENICE,Sarasota,,FL,,34285-6213,,27.106048,-82.431422,
BAY BREEZE SENIOR LIVING AND REHABILITATION CENTER,,,,,,,3387 GULF BREEZE PARKWAY,,GULF BREEZE,,,,,Santa Rosa,32563,FL,,(850) 932-9257,,,,,,,,,,,,,,,,,Nursing Home,,,,3387 GULF BREEZE PARKWAY,,,GULF BREEZE,Santa Rosa,,FL,,32563,,30.3859234,-87.08246419999999,
BAY CENTER,,,,,,,1336 ST ANDREWS BLVD,,PANAMA CITY,,,,,Bay,32405,FL,,(850) 763-3911,,,www.baycenterhealthandrehab.com,,,,,,,,,,,,,,Nursing Home,,,,1336 ST ANDREWS BLVD,,,PANAMA CITY,Bay,,FL,,32405,,30.1984738,-85.6824938,St. Andrews Bay
BAY POINTE NURSING PAVILION,,,,,,,4201 31ST ST S,,SAINT PETERSBURG,,,,,Pinellas,33712,FL,,(727) 867-1104,,,Baypointenursingpavilion.com,,,,,,,,,,,,,,Nursing Home,,,,4201 31ST ST S,,,SAINT PETERSBURG,Pinellas,,FL,,33712,,27.7296983,-82.6760925,
BAY TREE CENTER,,,,,,,2600 HIGHLANDS BLVD N,,PALM HARBOR,,,,,Pinellas,34684-2114,FL,,(727) 785-5671,,,www.Genesishcc.com,,,,,,,,,,,,,,Nursing Home,,,,2600 HIGHLANDS BLVD N,,,PALM HARBOR,Pinellas,,FL,,34684-2114,,28.0870254,-82.738106,
BAY VILLAGE OF SARASOTA,,,,,,,8400 VAMO ROAD,,SARASOTA,,,,,Sarasota,34231,FL,,(941) 966-5611,,,www.bayvillage.org,,,,,,,,,,,,,,Nursing Home,,,,8400 VAMO ROAD,,,SARASOTA,Sarasota,,FL,,34231,,27.2288692,-82.4980501,
BAY VUE NURSING AND REHABILITATION CENTER,,,,,,,105 15TH ST E,,BRADENTON,,,,,Manatee,34208,FL,,(941) 747-8681,,,,,,,,,,,,,,,,,Nursing Home,,,,105 15TH ST E,,,BRADENTON,Manatee,,FL,,34208,,27.4988794,-82.5476537,
BAYA POINTE NURSING AND REHABILITATION CENTER,,,,,,,587 SE ERMINE AVE,,LAKE CITY,,,,,Columbia,32025,FL,,(386) 752-7800,,,www.consulatehealthcare.com,,,,,,,,,,,,,,Nursing Home,,,,587 SE ERMINE AVE,,,LAKE CITY,Columbia,,FL,,32025,,30.18190060000001,-82.6253942,
BAYSHORE POINTE NURSING AND REHAB CENTER,,,,,,,3117 W GANDY BLVD,,TAMPA,,,,,Hillsborough,33611-2927,FL,,(813) 261-5500,,,WWW.BAYSHOREPOINTREHAB.COM,,,,,,,,,,,,,,Nursing Home,,,,3117 W GANDY BLVD,,,TAMPA,Hillsborough,,FL,,33611-2927,,27.8940694,-82.4954061,South Tampa
BAYSIDE CARE CENTER,,,,,,,811 JACKSON ST N,,SAINT PETERSBURG,,,,,Pinellas,33705,FL,,(727) 209-1717,,,,,,,,,,,,,,,,,Nursing Home,,,,811 JACKSON ST N,,,SAINT PETERSBURG,Pinellas,,FL,,33705,,27.7808313,-82.6484531,Historic Uptown
BAYSIDE HEALTH AND REHABILITATION CENTER,,,,,,,4343 LANGLEY AVENUE,,PENSACOLA,,,,,Escambia,32504,FL,,(850) 477-4550,,,,,,,,,,,,,,,,,Nursing Home,,,,4343 LANGLEY AVENUE,,,PENSACOLA,Escambia,,FL,,32504,,30.4818394,-87.1684572,Northeast Pensacola
BAYVIEW CENTER,,,,,,,301 S BAY ST,,EUSTIS,,,,,Lake,32726,FL,,(352) 357-8105,,,www.opismr.com,,,,,,,,,,,,,,Nursing Home,,,,301 S BAY ST,,,EUSTIS,Lake,,FL,,32726,,28.8496071,-81.68511749999999,
BAYWOOD NURSING CENTER,,,,,,,2000 17TH AVE S,,SAINT PETERSBURG,,,,,Pinellas,33712,FL,,(727) 821-3544,,,www.baywoodcare.com,,,,,,,,,,,,,,Nursing Home,,,,2000 17TH AVE S,,,SAINT PETERSBURG,Pinellas,,FL,,33712,,27.7535794,-82.6601094,
BEAR CREEK NURSING CENTER,,,,,,,8041 STATE RD 52,,HUDSON,,,,,Pasco,34667-6726,FL,,(727) 863-5488,,,Bearcreeknursingcenter.com,,,,,,,,,,,,,,Nursing Home,,,,8041 STATE RD 52,,,HUDSON,Pasco,,FL,,34667-6726,,28.3320245,-82.6813203,
BELLEAIR HEALTH CARE CENTER,,,,,,,1150 PONCE DE LEON BLVD,,CLEARWATER,,,,,Pinellas,33756,FL,,(727) 585-5491,,,www.belleairrehab.com,,,,,,,,,,,,,,Nursing Home,,,,1150 PONCE DE LEON BLVD,,,CLEARWATER,Pinellas,,FL,,33756,,27.9360719,-82.79864119999999,
BENDERSON FAMILY SKILLED NURSING AND REHABILITATION CENTER,,,,,,,1959 N HONORE AVE,,SARASOTA,,,,,Sarasota,34235,FL,,(941) 379-3553,,,www.avivaseniorlife.org,,,,,,,,,,,,,,Nursing Home,,,,1959 N HONORE AVE,,,SARASOTA,Sarasota,,FL,,34235,,27.3553388,-82.4668624,
BENEVA LAKES HEALTHCARE AND REHABILITATION CENTER,,,,,,,741 SOUTH BENEVA ROAD,,SARASOTA,,,,,Sarasota,34232,FL,,(941) 957-0310,,,www.consulatehealthcare.com,,,,,,,,,,,,,,Nursing Home,,,,741 SOUTH BENEVA ROAD,,,SARASOTA,Sarasota,,FL,,34232,,27.32798,-82.49513809999999,
BENTLEY CARE CENTER,,,,,,,875 RETREAT DRIVE,,NAPLES,,,,,Collier,34110,FL,,(239) 431-2100,,,www.viliving.com,,,,,,,,,,,,,,Nursing Home,,,,875 RETREAT DRIVE,,,NAPLES,Collier,,FL,,34110,,26.30601859999999,-81.8051881,
BISHOPS GLEN RETIREMENT CENTER,,,,,,,911 N STUDEBAKER RD,,LONG BEACH,,,,,,90815-4900,CA,,(386) 226-9000,,,www.rhf.org,,,,,,,,,,,,,,Nursing Home,,,,900 LPGA BLVD,,,HOLLY HILL,Volusia,,FL,,32117-3100,,29.241664,-81.057017,Hopkins Fitch Grant
BLOUNTSTOWN HEALTH AND REHABILITATION CENTER,,,,,,,16690 SW CHIPOLA RD,,BLOUNTSTOWN,,,,,Calhoun,32424,FL,,(850) 674-4311,,,www.blountstownhealthandrehab.com,,,,,,,,,,,,,,Nursing Home,,,,16690 SW CHIPOLA RD,,,BLOUNTSTOWN,Calhoun,,FL,,32424,,30.4418301,-85.0581478,
BOCA CIEGA CENTER,,,,,,,1414 59TH ST S,,GULFPORT,,,,,Pinellas,33707,FL,,(727) 344-4608,,,Bocaciegacenter.com,,,,,,,,,,,,,,Nursing Home,,,,1414 59TH ST S,,,GULFPORT,Pinellas,,FL,,33707,,27.75603049999999,-82.71365349999999,
BOCA RATON REHABILITATION CENTER,,,,,,,755 MEADOWS ROAD,,BOCA RATON,,,,,Palm Beach,33486,FL,,(561) 391-5200,,,bocaratonhealthandrehab.com,,,,,,,,,,,,,,Nursing Home,,,,755 MEADOWS ROAD,,,BOCA RATON,Palm Beach,,FL,,33486,,26.3607238,-80.1024217,
BON SECOURS MARIA MANOR NURSING CARE CENTER,,,,,,,10300 4TH ST N,,SAINT PETERSBURG,,,,,Pinellas,33716,FL,,(727) 568-1000,,,www.bonsecoursstpete.org,,,,,,,,,,,,,,Nursing Home,,,,10300 4TH ST N,,,SAINT PETERSBURG,Pinellas,,FL,,33716,,27.8665038,-82.64019359999999,
BONIFAY NURSING AND REHAB CENTER,,,,,,,306 WEST BROCK AVENUE,,BONIFAY,,,,,Holmes,32425,FL,,(850) 547-9289,,,www.bonifayrehab.com,,,,,,,,,,,,,,Nursing Home,,,,306 WEST BROCK AVENUE,,,BONIFAY,Holmes,,FL,,32425,,30.7814369,-85.6832136,
BOULEVARD REHABILITATION CENTER,,,,,,,101 SUNNYTOWN RD,STE 201,CASSELBERRY,,,,,Seminole,32707-3862,FL,,(561) 732-2464,,,www.boulevardmanorrehab.com,,,,,,,,,,,,,,Nursing Home,,,,2839 S SEACREST BLVD,,,BOYNTON BEACH,Palm Beach,,FL,,33435-7994,,26.5031808,-80.07078849999999,
BOYNTON BEACH REHABILITATION CENTER,,,,,,,101 SUNNYTOWN RD,STE 201,CASSELBERRY,,,,,Seminole,32707-3862,FL,,(561) 740-4100,,,www.boyntonbeachrehab.com,,,,,,,,,,,,,,Nursing Home,,,,9600 LAWRENCE RD,,,BOYNTON BEACH,Palm Beach,,FL,,33436-3300,,26.5333093,-80.1056564,
BOYNTON HEALTH CARE CENTER,,,,,,,7900 VENTURE CENTER WAY,,BOYNTON BEACH,,,,,Palm Beach,33437-7402,FL,,(561) 736-6000,,,,,,,,,,,,,,,,,Nursing Home,,,,7900 VENTURE CENTER WAY,,,BOYNTON BEACH,Palm Beach,,FL,,33437-7402,,26.523005,-80.17016129999999,
BRADEN RIVER REHABILITATION CENTER LLC,,,,,,,101 SUNNYTOWN RD,STE 201,CASSELBERRY,,,,,Seminole,32707-3862,FL,,(941) 747-3706,,,www.bradenriverrehab.com,,,,,,,,,,,,,,Nursing Home,,,,2010 MANATEE AVE E,,,BRADENTON,Manatee,,FL,,34208-1560,,27.4960684,-82.5391544,
BRADENTON HEALTH CARE,,,,,,,6305 CORTEZ RD W,,BRADENTON,,,,,Manatee,34210-2604,FL,,(941) 761-3499,,,www.consulatehealthcare.com,,,,,,,,,,,,,,Nursing Home,,,,6305 CORTEZ RD W,,,BRADENTON,Manatee,,FL,,34210-2604,,27.4618472,-82.6248491,
BRANDON HEALTH AND REHABILITATION CENTER,,,,,,,1465 OAKFIELD DR,,BRANDON,,,,,Hillsborough,33511-4854,FL,,(813) 655-0404,,,www.consulatehealthcare.com,,,,,,,,,,,,,,Nursing Home,,,,1465 OAKFIELD DR,,,BRANDON,Hillsborough,,FL,,33511-4854,,27.9334646,-82.3064543,
BRANDYWYNE HEALTH CARE CENTER,,,,,,,1801 N LAKE MARIAM DR,,WINTER HAVEN,,,,,Polk,33884,FL,,(863) 293-1989,,,,,,,,,,,,,,,,,Nursing Home,,,,1801 N LAKE MARIAM DR,,,WINTER HAVEN,Polk,,FL,,33884,,28.0217663,-81.69610850000001,
BRIDGEVIEW CENTER,,,,,,,350 S RIDGEWOOD AVENUE,,ORMOND BEACH,,,,,Volusia,32174,FL,,(386) 677-4545,,,www.opismr.com,,,,,,,,,,,,,,Nursing Home,,,,350 S RIDGEWOOD AVENUE,,,ORMOND BEACH,Volusia,,FL,,32174,,29.2752053,-81.0548419,
BRIGHTON GARDENS OF TAMPA,,,,,,,16702 NORTH DALE MABRY HWY,,TAMPA,,,,,Hillsborough,33618-1055,FL,,(813) 908-2333,,,http://www.sunriseseniorliving.com/communities/brighton-gardens-of-tampa/overview.aspx,,,,,,,,,,,,,,Nursing Home,,,,16702 NORTH DALE MABRY HWY,,,TAMPA,Hillsborough,,FL,,33618-1055,,28.109484,-82.503829,
BRISTOL AT TAMPA REHABILITATION AND NURSING CENTER LLC  THE,,,,,,,1818 E FLETCHER AVE,,TAMPA,,,,,Hillsborough,33612-3770,FL,,(813) 971-2383,,,,,,,,,,,,,,,,,Nursing Home,,,,1818 E FLETCHER AVE,,,TAMPA,Hillsborough,,FL,,33612-3770,,28.070187,-82.439313,Cross Fletcher
BROOKDALE ATRIUM WAY 2,,,,,,,9960 ATRIUM WAY,,JACKSONVILLE,,,,,Duval,32225,FL,,(904) 724-4726,,,www.brookdale.com,,,,,,,,,,,,,,Nursing Home,,,,9960 ATRIUM WAY,,,JACKSONVILLE,Duval,,FL,,32225,,30.3297101,-81.5417119,Arlington
BROOKDALE PALMER RANCH SNF,,,,,,,5111 PALMER RANCH PARKWAY,,SARASOTA,,,,,Sarasota,34238,FL,,(941) 926-1966,,,www.brookdale.com,,,,,,,,,,,,,,Nursing Home,,,,5111 PALMER RANCH PARKWAY,,,SARASOTA,Sarasota,,FL,,34238,,27.2467985,-82.4678302,
BROOKSVILLE HEALTHCARE CENTER,,,,,,,1114 CHATMAN BLVD,,BROOKSVILLE,,,,,Hernando,34601,FL,,(352) 796-6701,,,BrooksvilleHealthcare.com,,,,,,,,,,,,,,Nursing Home,,,,1114 CHATMAN BLVD,,,BROOKSVILLE,Hernando,,FL,,34601,,28.5467529,-82.40270699999999,
BROWARD NURSING & REHABILITATION CENTER,,,,,,,1330 S ANDREWS AVE,,FORT LAUDERDALE,,,,,Broward,33316,FL,,(954) 524-5587,,,www.broward-rehab.com,,,,,,,,,,,,,,Nursing Home,,,,1330 S ANDREWS AVE,,,FORT LAUDERDALE,Broward,,FL,,33316,,26.1050541,-80.1424389,South Fort Lauderdale
BRYNWOOD HEALTH AND REHABILITATION CENTER,,,,,,,1656 SOUTH JEFFERSON STREET,,MONTICELLO,,,,,Jefferson,32344,FL,,(850) 997-1800,,,,,,,,,,,,,,,,,Nursing Home,,,,1656 SOUTH JEFFERSON STREET,,,MONTICELLO,Jefferson,,FL,,32344,,30.52408199999999,-83.874771,
BUFFALO CROSSING HEALTHCARE AND REHABILITATION CENTER,,,,,,,3875 WEDGEWOOD LANE,,THE VILLAGES,,,,,Sumter,32162,FL,,(727) 489-0857,,,www.buffalocrossings.com,,,,,,,,,,,,,,Nursing Home,,,,3875 WEDGEWOOD LANE,,,THE VILLAGES,Sumter,,FL,,32162,,28.92819360000001,-82.0117696,
CALUSA HARBOUR,,,,,,,400 CENTRE ST,ATTN: LICENSING,NEWTON,,,,,,02458-2094,MA,,(239) 332-3333,,,https://www.fivestarseniorliving.com/communities/fl/fort-myers/calusa-harbour,,,,,,,,,,,,,,Nursing Home,,,,2525 FIRST ST,,,FORT MYERS,Lee,,FL,,33901,,26.6482243,-81.8648058,
CANTERBURY TOWERS INC,,,,,,,3501 BAYSHORE BLVD,,TAMPA,,,,,Hillsborough,33629,FL,,(813) 837-1083,,,www.canterburytower.org,,,,,,,,,,,,,,Nursing Home,,,,3501 BAYSHORE BLVD,,,TAMPA,Hillsborough,,FL,,33629,,27.91111879999999,-82.4912373,South Tampa
CARLTON SHORES HEALTH AND REHABILITATION CENTER,,,,,,,1350 S NOVA RD,,DAYTONA BEACH,,,,,Volusia,32114,FL,,(386) 258-5544,,,www.greystonehealth.com,,,,,,,,,,,,,,Nursing Home,,,,1350 S NOVA RD,,,DAYTONA BEACH,Volusia,,FL,,32114,,29.178808,-81.030203,Bethune Grant
CARRINGTON PLACE OF ST PETE,,,,,,,10501 ROOSEVELT BLVD N,,SAINT PETERSBURG,,,,,Pinellas,33716,FL,,(727) 577-3800,,,www.carringtonplaces.com,,,,,,,,,,,,,,Nursing Home,,,,10501 ROOSEVELT BLVD N,,,SAINT PETERSBURG,Pinellas,,FL,,33716,,27.8680715,-82.6433268,
CARROLLWOOD CARE CENTER,,,,,,,15002 HUTCHINSON RD,,TAMPA,,,,,Hillsborough,33625,FL,,(813) 960-1969,,,carrollwoodcarecenter.com,,,,,,,,,,,,,,Nursing Home,,,,15002 HUTCHINSON RD,,,TAMPA,Hillsborough,,FL,,33625,,28.08789819999999,-82.54305219999999,
MEDICANA NURSING AND REHAB CENTER,,,,,,,1710 LAKE WORTH ROAD,,LAKE WORTH,,,,,Palm Beach,33460,FL,,(561) 582-5331,,,www.medicanarehab.com,,,,,,,,,,,,,,Nursing Home,,,,1710 LAKE WORTH ROAD,,,LAKE WORTH,Palm Beach,,FL,,33460,,26.6176497,-80.0658017,
MELBOURNE TERRACE REHABILITATION CENTER,,,,,,,251 FLORIDA AVE,,MELBOURNE,,,,,Brevard,32901,FL,,(321) 725-3990,,,www.MelbourneTerraceRehab,,,,,,,,,,,,,,Nursing Home,,,,251 FLORIDA AVE,,,MELBOURNE,Brevard,,FL,,32901,,28.0558775,-80.6182635,
MEMORIAL MANOR,,,,,,,777 SOUTH DOUGLAS ROAD,,PEMBROKE PINES,,,,,Broward,33025,FL,,(954) 276-6200,,,www.memorialmanor.com,,,,,,,,,,,,,,Nursing Home,,,,777 SOUTH DOUGLAS ROAD,,,PEMBROKE PINES,Broward,,FL,,33025,,26.0042123,-80.2622916,
MENORAH HOUSE,,,,,,,9945 CENTRAL PARK BLVD N,,BOCA RATON,,,,,Palm Beach,33428-1745,FL,,(561) 483-0498,,,,,,,,,,,,,,,,,Nursing Home,,,,9945 CENTRAL PARK BLVD N,,,BOCA RATON,Palm Beach,,FL,,33428-1745,,26.358569,-80.1985711,
METRO WEST NURSING AND REHAB CENTER,,,,,,,5900 WESTGATE DRIVE,,ORLANDO,,,,,Orange,32835,FL,,(407) 296-8164,,,www.metrowestrehab.com,,,,,,,,,,,,,,Nursing Home,,,,5900 WESTGATE DRIVE,,,ORLANDO,Orange,,FL,,32835,,28.5312683,-81.46278819999999,Southwest Orlando
MIAMI JEWISH HEALTH SYSTEMS  INC.,,,,,,,5200 NE 2ND AVENUE,,MIAMI,,,,,Miami-Dade,33137,FL,,(305) 751-8626,,,www.miamijewishhealthsystems.org,,,,,,,,,,,,,,Nursing Home,,,,5200 NE 2ND AVENUE,,,MIAMI,Miami-Dade,,FL,,33137,,25.82286779999999,-80.1924317,Little Haiti
MIAMI SHORES NURSING AND REHAB CENTER,,,,,,,9380 NW 7TH AVENUE,,MIAMI,,,,,Miami-Dade,33150,FL,,(305) 759-8711,,,,,,,,,,,,,,,,,Nursing Home,,,,9380 NW 7TH AVENUE,,,MIAMI,Miami-Dade,,FL,,33150,,25.86065679999999,-80.2102015,
MIRACLE HILL NURSING & REHABILITATION CENTER  INC,,,,,,,1329 ABRAHAM STREET,,TALLAHASSEE,,,,,Leon,32304,FL,,(850) 224-8486,,,www.miraclehillhealthcare.com,,,,,,,,,,,,,,Nursing Home,,,,1329 ABRAHAM STREET,,,TALLAHASSEE,Leon,,FL,,32304,,30.457351,-84.29952039999999,Griffin Hgts
MORTON PLANT REHABILITATION CENTER,,,,,,,400 CORBETT ST,,BELLEAIR,,,,,Pinellas,33756,FL,,(727) 462-7600,,,www.mpmhealth.com,,,,,,,,,,,,,,Nursing Home,,,,400 CORBETT ST,,,BELLEAIR,Pinellas,,FL,,33756,,27.950436,-82.801435,
MOULTRIE CREEK NURSING AND REHAB CENTER,,,,,,,200 MARINER HEALTH WAY,,SAINT AUGUSTINE,,,,,St. Johns,32086,FL,,(904) 797-1800,,,moultriecreekrehab.com,,,,,,,,,,,,,,Nursing Home,,,,200 MARINER HEALTH WAY,,,SAINT AUGUSTINE,St. Johns,,FL,,32086,,29.8094962,-81.3253429,
NORTH BEACH REHABILITATION CENTER,,,,,,,2201 NE  170TH STREET,,NORTH MIAMI BEACH,,,,,Miami-Dade,33160,FL,,(305) 945-1401,,,www.greystonehealth.com,,,,,,,,,,,,,,Nursing Home,,,,2201 NE 170TH STREET,,,NORTH MIAMI BEACH,Miami-Dade,,FL,,33160,,25.933089,-80.1557555,
NORTH CAMPUS REHABILITATION AND NURSING CENTER,,,,,,,700 NORTH PALMETTO ST,,LEESBURG,,,,,Lake,34748,FL,,(352) 323-2400,,,www.northcampusrehab.com,,,,,,,,,,,,,,Nursing Home,,,,700 N PALMETTO ST,,,LEESBURG,Lake,,FL,,34748,,28.81828699999999,-81.87451,
NORTH DADE NURSING AND REHABILITATION CENTER,,,,,,,1255 NE 135TH STREET,,NORTH MIAMI,,,,,Miami-Dade,33161,FL,,(305) 891-6850,,,,,,,,,,,,,,,,,Nursing Home,,,,1255 NE 135TH STREET,,,NORTH MIAMI,Miami-Dade,,FL,,33161,,25.9004991,-80.1735286,
NORTH FLORIDA REHABILITATION AND SPECIALTY CARE,,,,,,,6700 NW 10TH PLACE,,GAINESVILLE,,,,,Alachua,32605,FL,,(352) 331-3111,,,www.consulatehealthcare.com,,,,,,,,,,,,,,Nursing Home,,,,6700 NW 10TH PLACE,,,GAINESVILLE,Alachua,,FL,,32605,,29.66208409999999,-82.41387449999999,
NORTH LAKE CARE CENTER,,,,,,,750 BAYBERRY DRIVE,,LAKE PARK,,,,,Palm Beach,33403,FL,,(561) 881-3024,,,http://www.northlakecarecenter.com,,,,,,,,,,,,,,Nursing Home,,,,750 BAYBERRY DRIVE,,,LAKE PARK,Palm Beach,,FL,,33403,,26.7936825,-80.0684062,
NORTH REHABILITATION CENTER,,,,,,,1301 16TH ST N,,SAINT PETERSBURG,,,,,Pinellas,33705,FL,,(727) 898-5119,,,www.greystonehealth.com,,,,,,,,,,,,,,Nursing Home,,,,1301 16TH ST N,,,SAINT PETERSBURG,Pinellas,,FL,,33705,,27.7852329,-82.6545428,Euclid Place / St Paul
NORTHBROOK HEALTH AND REHABILITATION CENTER,,,,,,,575 LAMAR AVE,,BROOKSVILLE,,,,,Hernando,34601,FL,,(352) 799-2226,,,www.northbrookhrc.com,,,,,,,,,,,,,,Nursing Home,,,,575 LAMAR AVE,,,BROOKSVILLE,Hernando,,FL,,34601,,28.55046779999999,-82.3935691,
NURSING CENTER AT FREEDOM VILLAGE  THE,,,,,,,6410 21ST AVE W,,BRADENTON,,,,,Manatee,34209,FL,,(941) 798-8200,,,,,,,,,,,,,,,,,Nursing Home,,,,6410 21ST AVE W,,,BRADENTON,Manatee,,FL,,34209,,27.4818066,-82.6254145,
NURSING CENTER AT LA POSADA  THE,,,,,,,3600 MASTERPIECE WAY,,PALM BEACH GARDENS,,,,,Palm Beach,33410,FL,,(561) 514-5000,,,KISCOSENIORLIVING.COM,,,,,,,,,,,,,,Nursing Home,,,,3600 MASTERPIECE WAY,,,PALM BEACH GARDENS,Palm Beach,,FL,,33410,,26.8524325,-80.0858808,
NURSING CENTER AT MERCY  THE,,,,,,,3671 S MIAMI AVENUE,,MIAMI,,,,,Miami-Dade,33133,FL,,(305) 854-1110,,,,,,,,,,,,,,,,,Nursing Home,,,,3671 S MIAMI AVENUE,,,MIAMI,Miami-Dade,,FL,,33133,,25.741385,-80.2159066,Northeast Coconut Grove
NURSING CENTER AT UNIVERSITY VILLAGE  THE,,,,,,,12250 N 22ND ST,,TAMPA,,,,,Hillsborough,33612-4955,FL,,(813) 972-8001,,,,,,,,,,,,,,,,,Nursing Home,,,,12250 N 22ND ST,,,TAMPA,Hillsborough,,FL,,33612-4955,,28.0612068,-82.4351925,
NUVISTA LIVING AT HILLSBOROUGH LAKES,,,,,,,19091 N DALE MABRY HWY,,LUTZ,,,,,Hillsborough,33548,FL,,(813) 751-0557,,,www.nvliving.com,,,,,,,,,,,,,,Nursing Home,,,,19091 N DALE MABRY HWY,,,LUTZ,Hillsborough,,FL,,33548,,28.1522479,-82.4893367,
NUVISTA LIVING AT WELLINGTON GREEN,,,,,,,2979 PGA BLVD,201,PALM BEACH GARDENS,,,,,Palm Beach,33410,FL,,(561) 795-3360,,,www.nvliving.com,,,,,,,,,,,,,,Nursing Home,,,,10330 NUVISTA AVENUE,,,WELLINGTON,Palm Beach,,FL,,33414,,26.6404865,-80.208919,
OAK HAMMOCK AT THE UNIVERSITY OF FLORIDA INC,,,,,,,2660 SW 53RD LN,,GAINESVILLE,,,,,Alachua,32608-3981,FL,,(352) 548-1135,,,www.oakhammock.org,,,,,,,,,,,,,,Nursing Home,,,,2660 SW 53RD LN,,,GAINESVILLE,Alachua,,FL,,32608-3981,,29.6041558,-82.4226989,
OAK MANOR HEALTHCARE & REHABILITATION CENTER,,,,,,,3500 OAK MANOR LANE,,LARGO,,,,,Pinellas,33774,FL,,(727) 581-9427,,,www.oakmanorliving.com,,,,,,,,,,,,,,Nursing Home,,,,3500 OAK MANOR LANE,,,LARGO,Pinellas,,FL,,33774,,27.8954577,-82.82370399999999,
OAK VIEW REHABILITATION CENTER,,,,,,,833 KINGSLEY AVE,,ORANGE PARK,,,,,Clay,32073,FL,,(904) 269-2610,,,,,,,,,,,,,,,,,Nursing Home,,,,833 KINGSLEY AVE,,,ORANGE PARK,Clay,,FL,,32073,,30.1663958,-81.7120822,
OAKBRIDGE HEALTHCARE CENTER,,,,,,,3110 OAKBRIDGE BLVD E,,LAKELAND,,,,,Polk,33803-5987,FL,,(863) 648-4800,,,www.consulatehealthcare.com,,,,,,,,,,,,,,Nursing Home,,,,3110 OAKBRIDGE BLVD E,,,LAKELAND,Polk,,FL,,33803-5987,,28.0086247,-81.9737791,
OAKBROOK HEALTH AND REHABILITATION CENTER,,,,,,,250 BROWARD AVE,,LABELLE,,,,,Hendry,33935,FL,,(863) 675-1440,,,,,,,,,,,,,,,,,Nursing Home,,,,250 BROWARD AVE,,,LABELLE,Hendry,,FL,,33935,,26.7582852,-81.4341087,
OAKHURST CENTER,,,,,,,1501 SE 24TH RD,,OCALA,,,,,Marion,34471-6005,FL,,(352) 629-8900,,,www.genesishcc.com,,,,,,,,,,,,,,Nursing Home,,,,1501 SE 24TH RD,,,OCALA,Marion,,FL,,34471-6005,,29.161742,-82.117184,
OAKS AT AVON,,,,,,,1010 US 27 N,,AVON PARK,,,,,Highlands,33825,FL,,(863) 453-5200,,,oaksatavon.com,,,,,,,,,,,,,,Nursing Home,,,,1010 US 27 N,,,AVON PARK,Highlands,,FL,,33825,,27.6072618,-81.51337199999999,
OAKS OF CLEARWATER  THE,,,,,,,420 BAY AVE,,CLEARWATER,,,,,Pinellas,33756,FL,,(727) 445-4700,,,www.theoaksofclearwater.com,,,,,,,,,,,,,,Nursing Home,,,,420 BAY AVE,,,CLEARWATER,Pinellas,,FL,,33756,,27.9618046,-82.803209,Oak Bluffs
OAKS OF KISSIMMEE HEALTH AND REHABILITATION CENTER,,,,,,,320 N MITCHELL ST,,KISSIMMEE,,,,,Osceola,34741,FL,,(407) 847-7200,,,,,,,,,,,,,,,,,Nursing Home,,,,320 N MITCHELL ST,,,KISSIMMEE,Osceola,,FL,,34741,,28.2973595,-81.4045841,
OAKTREE HEALTHCARE,,,,,,,650 REED CANAL RD,,SOUTH DAYTONA,,,,,Volusia,32119-3230,FL,,(386) 767-4831,,,www.consulatehealthcare.com,,,,,,,,,,,,,,Nursing Home,,,,650 REED CANAL RD,,,SOUTH DAYTONA,Volusia,,FL,,32119-3230,,29.15892749999999,-81.00333959999999,Ganymede
OASIS HEALTH AND REHABILITATION CENTER,,,,,,,1201 12TH AVENUE SOUTH,,LAKE WORTH,,,,,Palm Beach,33460,FL,,(561) 586-7404,,,Oasirehab.com,,,,,,,,,,,,,,Nursing Home,,,,1201 12TH AVENUE SOUTH,,,LAKE WORTH,Palm Beach,,FL,,33460,,26.6008271,-80.0606707,
OCALA HEALTH AND REHABILITATION CENTER,,,,,,,1201 SE 24TH RD,,OCALA,,,,,Marion,34471,FL,,(352) 732-2449,,,www.ocalahealthandrehab.com,,,,,,,,,,,,,,Nursing Home,,,,1201 SE 24TH RD,,,OCALA,Marion,,FL,,34471,,29.1649201,-82.1229963,
OCALA OAKS REHABILITATION CENTER,,,,,,,3930 E SILVER SPRINGS BLVD,,OCALA,,,,,Marion,34470-5006,FL,,(352) 236-2626,,,www.ocalaoaksrehab.com,,,,,,,,,,,,,,Nursing Home,,,,3930 E SILVER SPRINGS BLVD,,,OCALA,Marion,,FL,,34470-5006,,29.2003729,-82.0805979,Fort King District
OCEAN VIEW NURSING & REHABILITATION CENTER  LLC,,,,,,,2810 SOUTH ATLANTIC AVENUE,,NEW SMYRNA BEACH,,,,,Volusia,32169,FL,,(386) 428-6424,,,www.oceanviewrehab.com,,,,,,,,,,,,,,Nursing Home,,,,2810 SOUTH ATLANTIC AVENUE,,,NEW SMYRNA BEACH,Volusia,,FL,,32169,,29.0159404,-80.8843211,
OCEANSIDE EXTENDED CARE CENTER,,,,,,,550 9TH STREET,,MIAMI BEACH,,,,,Miami-Dade,33139,FL,,(305) 531-3321,,,,,,,,,,,,,,,,,Nursing Home,,,,550 9TH STREET,,,MIAMI BEACH,Miami-Dade,,FL,,33139,,25.7791036,-80.13370619999999,South Beach
OCOEE HEALTH CARE CENTER,,,,,,,1556 MAGUIRE RD,,OCOEE,,,,,Orange,34761,FL,,(407) 877-2272,,,www.ocoeehealthcare.com,,,,,,,,,,,,,,Nursing Home,,,,1556 MAGUIRE RD,,,OCOEE,Orange,,FL,,34761,,28.5491013,-81.5405823,
OKEECHOBEE HEALTH CARE FACILITY,,,,,,,BOX 759,,OKEECHOBEE,,,,,Okeechobee,34973,FL,,(863) 763-2226,,,okeechobeehealthcare.com,,,,,,,,,,,,,,Nursing Home,,,,1646 HIGHWAY 441 N,,,OKEECHOBEE,Okeechobee,,FL,,34972,,27.2585877,-80.82809189999999,
ORANGE CITY NURSING AND REHAB CENTER,,,,,,,2810 ENTERPRISE RD,,DEBARY,,,,,Volusia,32713,FL,,(386) 668-8818,,,www.orangecityrehab.com,,,,,,,,,,,,,,Nursing Home,,,,2810 ENTERPRISE RD,,,DEBARY,Volusia,,FL,,32713,,28.9024647,-81.2894805,
ORCHARD RIDGE,,,,,,,4927 VOORHEES RD,,NEW PORT RICHEY,,,,,Pasco,34653,FL,,(727) 848-3578,,,www.genesishcc.com,,,,,,,,,,,,,,Nursing Home,,,,4927 VOORHEES RD,,,NEW PORT RICHEY,Pasco,,FL,,34653,,28.2306298,-82.70393299999999,
ORLANDO HEALTH AND REHABILITATION CENTER,,,,,,,830 WEST 29TH STREET,,ORLANDO,,,,,Orange,32805,FL,,(407) 843-3230,,,www.orlandohealthandrehab.com,,,,,,,,,,,,,,Nursing Home,,,,830 WEST 29TH STREET,,,ORLANDO,Orange,,FL,,32805,,28.5113334,-81.391745,Lake Holden Shores
OSPREY POINT NURSING CENTER,,,,,,,1104 NORTH MAIN STREET,,BUSHNELL,,,,,Sumter,33513-5045,FL,,(352) 568-8777,,,www.consulatehealthcare.com,,,,,,,,,,,,,,Nursing Home,,,,1104 NORTH MAIN STREET,,,BUSHNELL,Sumter,,FL,,33513-5045,,28.680425,-82.112143,
PAGE REHABILITATION AND HEALTHCARE CENTER,,,,,,,2310 N AIRPORT ROAD,,FORT MYERS,,,,,Lee,33907,FL,,(239) 931-8401,,,www.pagerehabcenter.com,,,,,,,,,,,,,,Nursing Home,,,,2310 N AIRPORT ROAD,,,FORT MYERS,Lee,,FL,,33907,,26.5944462,-81.8660542,
PALACE AT KENDALL NURSING AND REHABILITATION CENTER,,,,,,,11215 SW 84TH STREET,,MIAMI,,,,,Miami-Dade,33173,FL,,(305) 271-2225,,,www.thepalace.org,,,,,,,,,,,,,,Nursing Home,,,,11215 SW 84TH STREET,,,MIAMI,Miami-Dade,,FL,,33173,,25.6908509,-80.37442089999999,
PALATKA HEALTH CARE CENTER,,,,,,,110 KAY LARKIN DR,,PALATKA,,,,,Putnam,32177,FL,,(386) 325-0173,,,,,,,,,,,,,,,,,Nursing Home,,,,110 KAY LARKIN DR,,,PALATKA,Putnam,,FL,,32177,,29.649185,-81.69269,
PALM CITY NURSING & REHAB CENTER,,,,,,,2505 SW MARTIN HWY,,PALM CITY,,,,,Martin,34990,FL,,(772) 288-0060,,,www.palmcityrehab.com,,,,,,,,,,,,,,Nursing Home,,,,2505 SW MARTIN HWY,,,PALM CITY,Martin,,FL,,34990,,27.1621451,-80.28698279999999,
PALM GARDEN OF AVENTURA,,,,,,,21251 E DIXIE HIGHWAY,,NORTH MIAMI BEACH,,,,,Miami-Dade,33180,FL,,(305) 935-4827,,,www.palmgarden.com,,,,,,,,,,,,,,Nursing Home,,,,21251 E DIXIE HIGHWAY,,,NORTH MIAMI BEACH,Miami-Dade,,FL,,33180,,25.9721735,-80.1469371,
PALM GARDEN OF CLEARWATER,,,,,,,3480 MCMULLEN BOOTH RD,,CLEARWATER,,,,,Pinellas,33761,FL,,(727) 786-6697,,,www.palmgarden.com,,,,,,,,,,,,,,Nursing Home,,,,3480 MCMULLEN BOOTH RD,,,CLEARWATER,Pinellas,,FL,,33761,,28.0480596,-82.71058210000001,
PALM GARDEN OF GAINESVILLE,,,,,,,227 SW 62ND BLVD,,GAINESVILLE,,,,,Alachua,32607,FL,,(352) 331-0601,,,www.palmgarden.com,,,,,,,,,,,,,,Nursing Home,,,,227 SW 62ND BLVD,,,GAINESVILLE,Alachua,,FL,,32607,,29.6508112,-82.40648990000001,
PALM GARDEN OF JACKSONVILLE,,,,,,,5725 SPRING PARK ROAD,,JACKSONVILLE,,,,,Duval,32216,FL,,(904) 733-6954,,,www.palmgardencare.com,,,,,,,,,,,,,,Nursing Home,,,,5725 SPRING PARK ROAD,,,JACKSONVILLE,Duval,,FL,,32216,,30.2670243,-81.6078608,Southside
PALM GARDEN OF LARGO,,,,,,,10500 STARKEY RD,,LARGO,,,,,Pinellas,33777,FL,,(727) 397-8166,,,www.palmgarden.com,,,,,,,,,,,,,,Nursing Home,,,,10500 STARKEY RD,,,LARGO,Pinellas,,FL,,33777,,27.8669406,-82.7628962,
PALM GARDEN OF OCALA,,,,,,,2700 SW 34TH ST,,OCALA,,,,,Marion,34474,FL,,(352) 854-6262,,,www.palmgarden.com,,,,,,,,,,,,,,Nursing Home,,,,2700 SW 34TH ST,,,OCALA,Marion,,FL,,34474,,29.15236819999999,-82.1697107,
PALM GARDEN OF ORLANDO,,,,,,,654 N ECONLOCKHATCHEE TRAIL,,ORLANDO,,,,,Orange,32825-6402,FL,,(407) 273-6158,,,www.palmgarden.com,,,,,,,,,,,,,,Nursing Home,,,,654 N ECONLOCKHATCHEE TRAIL,,,ORLANDO,Orange,,FL,,32825-6402,,28.5531426,-81.2535298,
PALM GARDEN OF PINELLAS,,,,,,,200 16TH AVE SE,,LARGO,,,,,Pinellas,33771,FL,,(727) 585-9377,,,www.palmgarden.com,,,,,,,,,,,,,,Nursing Home,,,,200 16TH AVE SE,,,LARGO,Pinellas,,FL,,33771,,27.9027841,-82.78562579999999,
PALM GARDEN OF PORT ST. LUCIE,,,,,,,1751 SE HILLMOOR DRIVE,,PORT SAINT LUCIE,,,,,St. Lucie,34952,FL,,(772) 335-8844,,,www.palmgarden.com,,,,,,,,,,,,,,Nursing Home,,,,1751 SE HILLMOOR DRIVE,,,PORT SAINT LUCIE,St. Lucie,,FL,,34952,,27.2861704,-80.2935704,
PALM GARDEN OF SUN CITY,,,,,,,3850 UPPER CREEK DR,,SUN CITY CENTER,,,,,Hillsborough,33573,FL,,(813) 633-2875,,,www.palmgarden.com,,,,,,,,,,,,,,Nursing Home,,,,3850 UPPER CREEK DR,,,SUN CITY CENTER,Hillsborough,,FL,,33573,,27.7174633,-82.37081979999999,
PALM GARDEN OF TAMPA,,,,,,,3612 E 138TH AVE,,TAMPA,,,,,Hillsborough,33613,FL,,(813) 972-8775,,,www.palmgarden.com,,,,,,,,,,,,,,Nursing Home,,,,3612 E 138TH AVE,,,TAMPA,Hillsborough,,FL,,33613,,28.0736085,-82.418998,
PALM GARDEN OF VERO BEACH,,,,,,,1755 37TH STREET,,VERO BEACH,,,,,Indian River,32960,FL,,(772) 567-2443,,,www.palmgardencare.com,,,,,,,,,,,,,,Nursing Home,,,,1755 37TH STREET,,,VERO BEACH,Indian River,,FL,,32960,,27.6593263,-80.4021219,
PALM GARDEN OF WEST PALM BEACH,,,,,,,300 EXECUTIVE CENTER DRIVE,,WEST PALM BEACH,,,,,Palm Beach,33401,FL,,(561) 471-5566,,,WWW.PALMGARDEN.COM,,,,,,,,,,,,,,Nursing Home,,,,300 EXECUTIVE CENTER DRIVE,,,WEST PALM BEACH,Palm Beach,,FL,,33401,,26.7144208,-80.0791462,
PALM GARDEN OF WINTER HAVEN,,,,,,,1120 CYPRESS GARDENS BLVD,,WINTER HAVEN,,,,,Polk,33884,FL,,(863) 293-3100,,,WWW.PALMGARDEN.COM,,,,,,,,,,,,,,Nursing Home,,,,1120 CYPRESS GARDENS BLVD,,,WINTER HAVEN,Polk,,FL,,33884,,28.0048657,-81.70978819999999,
PALMETTO CARE CENTER,,,,,,,6750 WEST 22ND COURT,,HIALEAH,,,,,Miami-Dade,33016,FL,,(786) 587-1363,,,,,,,,,,,,,,,,,Nursing Home,,,,6750 WEST 22ND COURT,,,HIALEAH,Miami-Dade,,FL,,33016,,25.8836357,-80.3289267,
PALMETTO SUB ACUTE CARE CENTER  INC,,,,,,,7600 SW 8TH STREET,,MIAMI,,,,,Miami-Dade,33144,FL,,(305) 261-2525,,,www.palsub.com,,,,,,,,,,,,,,Nursing Home,,,,7600 SW 8TH STREET,,,MIAMI,Miami-Dade,,FL,,33144,,25.7620814,-80.3186542,
PALMS CARE CENTER,,,,,,,3370 NW 47TH TERRACE,,LAUDERDALE LAKES,,,,,Broward,33319,FL,,(954) 733-0655,,,,,,,,,,,,,,,,,Nursing Home,,,,3370 NW 47TH TERRACE,,,LAUDERDALE LAKES,Broward,,FL,,33319,,26.1677799,-80.21181639999999,
PALMS OF SEBRING  THE,,,,,,,725 S PINE ST,,SEBRING,,,,,Highlands,33870,FL,,(863) 385-0161,,,www.palmsofsebring.com,,,,,,,,,,,,,,Nursing Home,,,,725 S PINE ST,,,SEBRING,Highlands,,FL,,33870,,27.492743,-81.4414871,
PALMS REHABILITATION AND HEALTHCARE CENTER  THE,,,,,,,5405 BABCOCK SREET  NE,,PALM BAY,,,,,Brevard,32905,FL,,(321) 722-0660,,,www.consulatehealthcare.com,,,,,,,,,,,,,,Nursing Home,,,,5405 BABCOCK ST NE,,,PALM BAY,Brevard,,FL,,32905,,28.014885,-80.6212819,
PANAMA CITY HEALTH AND REHABILITATION CENTER,,,,,,,924 W 13TH ST,,PANAMA CITY,,,,,Bay,32401,FL,,(850) 763-8463,,,,,,,,,,,,,,,,,Nursing Home,,,,924 W 13TH ST,,,PANAMA CITY,Bay,,FL,,32401,,30.1721932,-85.6743245,Skyland Subdivision
PARK MEADOWS HEALTH AND REHABILITATION CENTER,,,,,,,3250 SW 41ST PLACE,,GAINESVILLE,,,,,Alachua,32608,FL,,(352) 378-1558,,,www.greystonehealth.com,,,,,,,,,,,,,,Nursing Home,,,,3250 SW 41ST PLACE,,,GAINESVILLE,Alachua,,FL,,32608,,29.616389,-82.370386,
PARK RIDGE NURSING CENTER,,,,,,,PO BOX 15369,,FERNANDINA,,,,,Nassau,32035-3107,FL,,(904) 358-6711,,,www.parkridgenursingcenter.com,,,,,,,,,,,,,,Nursing Home,,,,730 COLLEGE STREET,,,JACKSONVILLE,Duval,,FL,,32204,,30.3183317,-81.68191580000001,Northwest
PARK SUMMIT AT CORAL SPRINGS,,,,,,,400 CENTRE BLVD,,NEWTON,,,,,,02458,MA,,(954) 752-9500,,,www.fivestarseniorliving.com/communities/fl/coral-springs/park-summit,,,,,,,,,,,,,,Nursing Home,,,,8500 ROYAL PALM BLVD,,,CORAL SPRINGS,Broward,,FL,,33065,,26.2584302,-80.2403985,
PARKLANDS CARE CENTER,,,,,,,1000 SW 16TH AVE,,GAINESVILLE,,,,,Alachua,32601,FL,,(352) 376-2461,,,http://parklandsrehab.com,,,,,,,,,,,,,,Nursing Home,,,,1000 SW 16TH AVE,,,GAINESVILLE,Alachua,,FL,,32601,,29.6370967,-82.3360484,University Heights
PARKS HEALTHCARE AND REHABILITATION CENTER,,,,,,,9311 SOUTH ORANGE BLOSSOM TRAIL,,ORLANDO,,,,,Orange,32837,FL,,(407) 858-0455,,,www.consulatehealthcare.com,,,,,,,,,,,,,,Nursing Home,,,,9311 S ORANGE BLOSSOM TRL,,,ORLANDO,Orange,,FL,,32837-8301,,28.426444,-81.402817,
PARKSIDE HEALTH AND REHABILITATION CENTER,,,,,,,451 S AMELIA AVE,,DELAND,,,,,Volusia,32724,FL,,(386) 734-8614,,,,,,,,,,,,,,,,,Nursing Home,,,,451 S AMELIA AVE,,,DELAND,Volusia,,FL,,32724,,29.0215792,-81.2987413,
PAVILION FOR HEALTH CARE  THE,,,,,,,ONE PAVILION PLACE,,PENNEY FARMS,,,,,Clay,32079-0555,FL,,(904) 284-8578,,,VisitPRC.org,,,,,,,,,,,,,,Nursing Home,,,,ONE PAVILION PLACE,,,PENNEY FARMS,Clay,,FL,,32079,,29.9770883,-81.8098077,
PENINSULA CARE AND REHABILITATION CENTER,,,,,,,900 BECKETT WAY,,TARPON SPRINGS,,,,,Pinellas,34689,FL,,(727) 934-0876,,,,,,,,,,,,,,,,,Nursing Home,,,,900 BECKETT WAY,,,TARPON SPRINGS,Pinellas,,FL,,34689,,28.1660043,-82.7430241,
PINEBROOK CENTER,,,,,,,1240 PINEBROOK ROAD,,VENICE,,,,,Sarasota,34285,FL,,(941) 488-6733,,,www.genesishealthcare.com,,,,,,,,,,,,,,Nursing Home,,,,1240 PINEBROOK ROAD,,,VENICE,Sarasota,,FL,,34285,,27.1064924,-82.418401,
PINECREST REHABILITATION CENTER,,,,,,,13650 NE 3RD COURT,,NORTH MIAMI,,,,,Miami-Dade,33161,FL,,(305) 893-1170,,,www.pinecrest-rehab.com,,,,,,,,,,,,,,Nursing Home,,,,13650 NE 3RD COURT,,,NORTH MIAMI,Miami-Dade,,FL,,33161,,25.9005166,-80.19265999999999,
PINELLAS POINT NURSING AND REHAB CENTER,,,,,,,5601 31ST ST S,,SAINT PETERSBURG,,,,,Pinellas,33712,FL,,(727) 867-6955,,,www.pinellaspointrehab.com,,,,,,,,,,,,,,Nursing Home,,,,5601 31ST ST S,,,SAINT PETERSBURG,Pinellas,,FL,,33712,,27.71720809999999,-82.6759551,Greater Pinellas Point
PINES NURSING HOME,,,,,,,301 NE 141 STREET,,MIAMI,,,,,Miami-Dade,33161,FL,,(305) 893-1102,,,,,,,,,,,,,,,,,Nursing Home,,,,301 NE 141 STREET,,,MIAMI,Miami-Dade,,FL,,33161,,25.904968,-80.19182909999999,
PINES OF SARASOTA,,,,,,,1501 N ORANGE AVE,,SARASOTA,,,,,Sarasota,34236,FL,,(941) 365-0250,,,www.pinesofsarasota.org,,,,,,,,,,,,,,Nursing Home,,,,1501 N ORANGE AVE,,,SARASOTA,Sarasota,,FL,,34236,,27.35042219999999,-82.5387289,17th Street
PLANTATION BAY REHABILITATION CENTER,,,,,,,4641 OLD CANOE CREEK ROAD,,SAINT CLOUD,,,,,Osceola,34769,FL,,(407) 892-7344,,,www.consulatehealthcare.com,,,,,,,,,,,,,,Nursing Home,,,,4641 OLD CANOE CREEK ROAD,,,SAINT CLOUD,Osceola,,FL,,34769,,28.2539189,-81.313352,
PLANTATION KEY NURSING CENTER,,,,,,,48 HIGH POINT ROAD,,TAVERNIER,,,,,Monroe,33070,FL,,(305) 853-0799,,,http://www.plantationkeync.com/,,,,,,,,,,,,,,Nursing Home,,,,48 HIGH POINT ROAD,,,TAVERNIER,Monroe,,FL,,33070,,24.981894,-80.5507709,
PLANTATION NURSING & REHABILITATION CENTER,,,,,,,4250 NW 5TH ST,,PLANTATION,,,,,Broward,33317,FL,,(954) 587-3296,,,www.plantationrehab.com,,,,,,,,,,,,,,Nursing Home,,,,4250 NW 5TH ST,,,PLANTATION,Broward,,FL,,33317,,26.12773029999999,-80.2056911,
PLAZA WEST,,,,,,,912 AMERICAN EAGLE BLVD,,SUN CITY CENTER,,,,,Hillsborough,33573,FL,,(813) 633-3066,,,,,,,,,,,,,,,,,Nursing Home,,,,912 AMERICAN EAGLE BLVD,,,SUN CITY CENTER,Hillsborough,,FL,,33573,,27.721217,-82.3674489,
PLYMOUTH HARBOR INCORPORATED,,,,,,,700 JOHN RINGLING BLVD,,SARASOTA,,,,,Sarasota,34236,FL,,(941) 361-7246,,,www.plymouthharbor.org,,,,,,,,,,,,,,Nursing Home,,,,700 JOHN RINGLING BLVD,,,SARASOTA,Sarasota,,FL,,34236,,27.3207591,-82.5704895,John Ringling
POMPANO HEALTH AND REHABILITATION CENTER,,,,,,,51 W SAMPLE ROAD,,POMPANO BEACH,,,,,Broward,33064,FL,,(954) 942-5530,,,pompanohealthandrehab.com,,,,,,,,,,,,,,Nursing Home,,,,51 W SAMPLE ROAD,,,POMPANO BEACH,Broward,,FL,,33064,,26.2763465,-80.12384899999999,
PONCE PLAZA NURSING & REHABILITATION CENTER,,,,,,,335 SW 12 AVENUE,,MIAMI,,,,,Miami-Dade,33130,FL,,(305) 545-6695,,,,,,,,,,,,,,,,,Nursing Home,,,,335 SW 12 AVENUE,,,MIAMI,Miami-Dade,,FL,,33130,,25.7700162,-80.21424929999999,East Little Havana
PONCE THERAPY CARE CENTER  THE,,,,,,,1999 OLD MOULTRIE ROAD,,SAINT AUGUSTINE,,,,,St. Johns,32086,FL,,(904) 824-3311,,,www.poncecarecenter.com,,,,,,,,,,,,,,Nursing Home,,,,1999 OLD MOULTRIE ROAD,,,SAINT AUGUSTINE,St. Johns,,FL,,32086,,29.8644989,-81.3280288,
PORT CHARLOTTE REHABILITATION CENTER,,,,,,,25325 RAMPART BLVD,,PORT CHARLOTTE,,,,,Charlotte,33983,FL,,(941) 629-7466,,,www.deepcreekrehab.com,,,,,,,,,,,,,,Nursing Home,,,,25325 RAMPART BLVD,,,PORT CHARLOTTE,Charlotte,,FL,,33983,,26.9999513,-82.030529,
PORT ORANGE NURSING AND REHAB CENTER,,,,,,,5600 VICTORIA GARDENS BLVD,,PORT ORANGE,,,,,Volusia,32127,FL,,(386) 760-7773,,,www.portorangerehab.com,,,,,,,,,,,,,,Nursing Home,,,,5600 VICTORIA GARDENS BLVD,,,PORT ORANGE,Volusia,,FL,,32127,,29.1182863,-81.017507,
PORT ST LUCIE NURSING AND RESTORATIVE CARE CENTER,,,,,,,7300 OLEANDER AVE,,PORT ST LUCIE,,,,,St. Lucie,34952-8299,FL,,(772) 466-4100,,,portstlucienursingandrestorative.com,,,,,,,,,,,,,,Nursing Home,,,,7300 OLEANDER AVE,,,PORT ST LUCIE,St. Lucie,,FL,,34952-8299,,27.3401933,-80.3340283,
PREMIER PLACE AT THE GLENVIEW,,,,,,,100 GLENVIEW PLACE,,NAPLES,,,,,Collier,34108,FL,,(239) 591-0011,,,www.glenviewnaples.com,,,,,,,,,,,,,,Nursing Home,,,,100 GLENVIEW PLACE,,,NAPLES,Collier,,FL,,34108,,26.216838,-81.8108898,Pelican Bay
PRUITTHEALTH - SANTA ROSA,,,,,,,1626 JEURGENS CT,,NORCROSS,,,,,,30093-2219,GA,,(850) 983-8888,,,www.pruitthealth.com,,,,,,,,,,,,,,Nursing Home,,,,5530 NORTHROP ROAD,,,MILTON,Santa Rosa,,FL,,32570,,30.636029,-87.064573,
QUALITY HEALTH OF FERNANDINA BEACH,,,,,,,1625 LIME STREET,,FERNANDINA BEACH,,,,,Nassau,32034,FL,,(904) 261-0771,,,www.qualityhealthamelia.com,,,,,,,,,,,,,,Nursing Home,,,,1625 LIME STREET,,,FERNANDINA BEACH,Nassau,,FL,,32034,,30.65527009999999,-81.4497886,
QUALITY HEALTH OF NORTH PORT,,,,,,,6940 OUTREACH WAY,,NORTH PORT,,,,,Sarasota,34287-8411,FL,,(941) 426-8411,,,www.qualityhealthcarecenter.net,,,,,,,,,,,,,,Nursing Home,,,,6940 OUTREACH WAY,,,NORTH PORT,Sarasota,,FL,,34287-0947,,27.05159399999999,-82.2406395,
QUALITY HEALTH OF ORANGE COUNTY,,,,,,,12751 W COLONIAL DRIVE,,WINTER GARDEN,,,,,Orange,34787,FL,,(407) 877-6636,,,www.qualityrehabcenter.com,,,,,,,,,,,,,,Nursing Home,,,,12751 W COLONIAL DRIVE,,,WINTER GARDEN,Orange,,FL,,34787,,28.5521402,-81.5704526,
REGENTS PARK AT AVENTURA,,,,,,,18905 NE 25TH AVE,,AVENTURA,,,,,Miami-Dade,33180,FL,,(305) 932-6360,,,regentspark-aventura.com,,,,,,,,,,,,,,Nursing Home,,,,18905 NE 25TH AVE,,,AVENTURA,Miami-Dade,,FL,,33180,,25.9502818,-80.1503999,
REGENTS PARK NURSING & REHABILITATION CENTER,,,,,,,6363 VERDE TRAIL,,BOCA RATON,,,,,Palm Beach,33433,FL,,(561) 483-9282,,,www.RegentsParkBocaRaton.com,,,,,,,,,,,,,,Nursing Home,,,,6363 VERDE TRAIL,,,BOCA RATON,Palm Beach,,FL,,33433,,26.3594584,-80.1437704,
REGENTS PARK OF JACKSONVILLE,,,,,,,8700 A C SKINNER PARKWAY,,JACKSONVILLE,,,,,Duval,32256,FL,,(904) 642-7300,,,Regentsparkofjacksonville.com,,,,,,,,,,,,,,Nursing Home,,,,8700 A C SKINNER PARKWAY,,,JACKSONVILLE,Duval,,FL,,32256,,30.2447175,-81.5533231,Southside
REGENTS PARK OF SUNRISE,,,,,,,9711 W OAKLAND PARK BLVD,,SUNRISE,,,,,Broward,33351,FL,,(954) 572-4000,,,regentsparkofsunrise.com,,,,,,,,,,,,,,Nursing Home,,,,9711 W OAKLAND PARK BLVD,,,SUNRISE,Broward,,FL,,33351,,26.1708193,-80.28061269999999,
REGENTS PARK OF WINTER PARK,,,,,,,558 N SEMORAN BLVD,,WINTER PARK,,,,,Orange,32792,FL,,(407) 679-1515,,,regentsparkofwinterpark.com,,,,,,,,,,,,,,Nursing Home,,,,558 N SEMORAN BLVD,,,WINTER PARK,Orange,,FL,,32792,,28.6090423,-81.31038079999999,
REHAB & HEALTHCARE CENTER OF CAPE CORAL,,,,,,,2629 DEL PRADO BLVD,,CAPE CORAL,,,,,Lee,33904,FL,,(239) 574-4434,,,www.rehabandhealthcarecenterofcapecoral.com,,,,,,,,,,,,,,Nursing Home,,,,2629 DEL PRADO BLVD,,,CAPE CORAL,Lee,,FL,,33904,,26.6029534,-81.9406291,Caloosahatchee
REHABILITATION AND HEALTH CARE CENTER,,,,,,,1890 ST RD 436  SUITE 300,,WINTER PARK,,,,,Orange,32792,FL,,(352) 669-2133,,,www.lakeviewterrace.com,,,,,,,,,,,,,,Nursing Home,,,,110 LODGE TERRACE DR,,,ALTOONA,Lake,,FL,,32702,,28.9640015,-81.6565241,
REHABILITATION AND HEALTHCARE CENTER OF TAMPA,,,,,,,4411 N HABANA AVE,,TAMPA,,,,,Hillsborough,33614,FL,,(813) 872-2771,,,rehabilitationandhealthcareoftampa.com,,,,,,,,,,,,,,Nursing Home,,,,4411 N HABANA AVE,,,TAMPA,Hillsborough,,FL,,33614,,27.9823941,-82.48835559999999,Northwest Tampa
REHABILITATION CENTER AT JUPITER GARDENS LLC,,,,,,,17781 THELMA AVE,,JUPITER,,,,,Palm Beach,33458,FL,,(561) 746-2998,,,,,,,,,,,,,,,,,Nursing Home,,,,17781 THELMA AVE,,,JUPITER,Palm Beach,,FL,,33458,,26.9384082,-80.1274377,West Center Street
REHABILITATION CENTER AT PARK PLACE,,,,,,,1717 W AVERY ST,,PENSACOLA,,,,,Escambia,32501,FL,,(850) 434-2355,,,,,,,,,,,,,,,,,Nursing Home,,,,1717 W AVERY ST,,,PENSACOLA,Escambia,,FL,,32501,,30.43059189999999,-87.2389776,South Pensacola
REHABILITATION CENTER OF THE PALM BEACHES THE,,,,,,,301 NORTHPOINTE PARKWAY,,WEST PALM BEACH,,,,,Palm Beach,33407,FL,,(561) 712-1717,,,Rehabilitationcenterofthepalmbeaches.com,,,,,,,,,,,,,,Nursing Home,,,,301 NORTHPOINTE PARKWAY,,,WEST PALM BEACH,Palm Beach,,FL,,33407,,26.7614624,-80.09725279999999,
REHABILITATION CENTER OF WINTER PARK  THE,,,,,,,1700 MONROE AVE,,MAITLAND,,,,,Orange,32751,FL,,(407) 647-2092,,,,,,,,,,,,,,,,,Nursing Home,,,,1700 MONROE AVE,,,MAITLAND,Orange,,FL,,32751,,28.6110613,-81.3705566,
RENAISSANCE AT THE TERRACES,,,,,,,26475 SOUTH TAMIAMI TRAIL,,BONITA SPRINGS,,,,,Lee,34135,FL,,(239) 949-7555,,,www.theterracesatbonitaspring.com,,,,,,,,,,,,,,Nursing Home,,,,26475 SOUTH TAMIAMI TRAIL,,,BONITA SPRINGS,Lee,,FL,,34135,,26.3555613,-81.8060666,
RENAISSANCE HEALTH AND REHABILITATION,,,,,,,5065 WALLIS ROAD,,WEST PALM BEACH,,,,,Palm Beach,33415,FL,,(561) 689-1799,,,www.consulatehealthcare.com,,,,,,,,,,,,,,Nursing Home,,,,5065 WALLIS ROAD,,,WEST PALM BEACH,Palm Beach,,FL,,33415,,26.68187469999999,-80.1215579,
RIDGECREST NURSING AND REHABILITATION CENTER,,,,,,,4042 PARK OAKS BLVD,STE 300,TAMPA,,,,,Hillsborough,33610-9539,FL,,(386) 734-4334,,,www.greystonehealth.com,,,,,,,,,,,,,,Nursing Home,,,,1200 NORTH STONE STREET,,,DELAND,Volusia,,FL,,32720,,29.049335,-81.3176788,
RIO PINAR HEALTH CARE,,,,,,,7950 LAKE UNDERHILL ROAD,,ORLANDO,,,,,Orange,32822,FL,,(407) 658-2046,,,www.consulatehealthcare.com,,,,,,,,,,,,,,Nursing Home,,,,7950 LAKE UNDERHILL ROAD,,,ORLANDO,Orange,,FL,,32822,,28.536969,-81.278502,
RIVER GARDEN HEBREW HOME FOR THE AGED,,,,,,,11401 OLD SAINT AUGUSTINE RD,,JACKSONVILLE,,,,,Duval,32258-1402,FL,,(904) 260-1818,,,www.rivergarden.org,,,,,,,,,,,,,,Nursing Home,,,,11401 OLD SAINT AUGUSTINE RD,,,JACKSONVILLE,Duval,,FL,,32258-1402,,30.16597800000001,-81.59849190000001,Southside
RIVER VALLEY REHABILITATION CENTER,,,,,,,17884 NE CROZIER ST,,BLOUNTSTOWN,,,,,Calhoun,32424,FL,,(850) 674-5464,,,www.rivervalleyrehab.com,,,,,,,,,,,,,,Nursing Home,,,,17884 NE CROZIER ST,,,BLOUNTSTOWN,Calhoun,,FL,,32424,,30.4587341,-85.0519656,
RIVERCHASE HEALTH AND REHABILITATION CENTER,,,,,,,1017 STRONG RD,,QUINCY,,,,,Gadsden,32351,FL,,(850) 875-3711,,,,,,,,,,,,,,,,,Nursing Home,,,,1017 STRONG RD,,,QUINCY,Gadsden,,FL,,32351,,30.568911,-84.55507899999999,
RIVERSIDE CARE CENTER,,,,,,,899 NW 4TH STREET,,MIAMI,,,,,Miami-Dade,33128,FL,,(305) 326-1236,,,,,,,,,,,,,,,,,Nursing Home,,,,899 NW 4TH STREET,,,MIAMI,Miami-Dade,,FL,,33128,,25.7778516,-80.2091653,Little Havana
RIVERWOOD CENTER,,,,,,,2802 PARENTAL HOME ROAD,,JACKSONVILLE,,,,,Duval,32216,FL,,(904) 721-0088,,,www.opisriverwoodcenter.com,,,,,,,,,,,,,,Nursing Home,,,,2802 PARENTAL HOME ROAD,,,JACKSONVILLE,Duval,,FL,,32216,,30.2743198,-81.59207789999999,Southside
RIVERWOOD HEALTH & REHABILITATION CENTER,,,,,,,808 S COLLEY RD,,STARKE,,,,,Bradford,32091,FL,,(904) 964-6220,,,www.greystonehealth.com,,,,,,,,,,,,,,Nursing Home,,,,808 S COLLEY RD,,,STARKE,Bradford,,FL,,32091,,29.9362989,-82.1015725,
RIVIERA HEALTH RESORT,,,,,,,6901 YUMURI STREET,,CORAL GABLES,,,,,Miami-Dade,33146,FL,,(786) 517-6999,,,Rivierahealthresort.com,,,,,,,,,,,,,,Nursing Home,,,,6901 YUMURI STREET,,,CORAL GABLES,Miami-Dade,,FL,,33146,,25.7053942,-80.2819044,Riviera
RIVIERA PALMS REHABILITATION CENTER,,,,,,,926 HABEN BLVD,,PALMETTO,,,,,Manatee,34221,FL,,(941) 722-0553,,,www.rivierapalmsrehab.com,,,,,,,,,,,,,,Nursing Home,,,,926 HABEN BLVD,,,PALMETTO,Manatee,,FL,,34221,,27.5197985,-82.55174749999999,
ROCKLEDGE HEALTH AND REHABILITATION CENTER,,,,,,,587 BARTON BLVD,,ROCKLEDGE,,,,,Brevard,32955,FL,,(321) 632-6300,,,www.greystonehealth.com,,,,,,,,,,,,,,Nursing Home,,,,587 BARTON BLVD,,,ROCKLEDGE,Brevard,,FL,,32955,,28.3302213,-80.7373561,
ROHR HOME  THE,,,,,,,2120 MARSHALL EDWARDS DR,,BARTOW,,,,,Polk,33830,FL,,(863) 519-7579,,,polk-county.net,,,,,,,,,,,,,,Nursing Home,,,,2120 MARSHALL EDWARDS DR,,,BARTOW,Polk,,FL,,33830,,27.884853,-81.82171699999999,
ROSEWOOD HEALTH AND REHABILITATION CENTER,,,,,,,3920 ROSEWOOD WAY,,ORLANDO,,,,,Orange,32808,FL,,(407) 298-9335,,,www.consulatehealthcare.com,,,,,,,,,,,,,,Nursing Home,,,,3920 ROSEWOOD WAY,,,ORLANDO,Orange,,FL,,32808,,28.6070716,-81.427945,Northwest Orlando
ROSEWOOD HEALTHCARE AND REHABILITATION CENTER,,,,,,,3107 NORTH H STREET,,PENSACOLA,,,,,Escambia,32501-1043,FL,,(850) 435-8400,,,,,,,,,,,,,,,,,Nursing Home,,,,3107 NORTH H STREET,,,PENSACOLA,Escambia,,FL,,32501-1043,,30.4436519,-87.2326422,South Pensacola
ROYAL CARE OF AVON PARK,,,,,,,1213 W STRATFORD RD,,AVON PARK,,,,,Highlands,33825,FL,,(863) 453-6674,,,,,,,,,,,,,,,,,Nursing Home,,,,1213 W STRATFORD RD,,,AVON PARK,Highlands,,FL,,33825,,27.6278982,-81.517274,
ROYAL OAK NURSING CENTER,,,,,,,37300 ROYAL OAK LANE,,DADE CITY,,,,,Pasco,33525,FL,,(352) 567-3122,,,,,,,,,,,,,,,,,Nursing Home,,,,37300 ROYAL OAK LANE,,,DADE CITY,Pasco,,FL,,33525,,28.3514373,-82.1993687,
ROYAL OAKS NURSING AND REHAB CENTER,,,,,,,2225 KNOX MCRAE DR,,TITUSVILLE,,,,,Brevard,32780,FL,,(321) 267-0060,,,www.royaloaksrehab.com,,,,,,,,,,,,,,Nursing Home,,,,2225 KNOX MCRAE DR,,,TITUSVILLE,Brevard,,FL,,32780,,28.57068899999999,-80.82830299999999,
ROYAL PALM BEACH HEALTH AND REHABILITATION CENTER,,,,,,,600 BUSINESS PARK WAY,,ROYAL PALM BEACH,,,,,Palm Beach,33411-1747,FL,,(561) 798-3700,,,,,,,,,,,,,,,,,Nursing Home,,,,600 BUSINESS PARK WAY,,,ROYAL PALM BEACH,Palm Beach,,FL,,33411-1747,,26.6973159,-80.2103034,
RULEME CENTER,,,,,,,2810 RULEME ST,,EUSTIS,,,,,Lake,32726,FL,,(352) 357-1990,,,www.opisrulemecenter.com,,,,,,,,,,,,,,Nursing Home,,,,2810 RULEME ST,,,EUSTIS,Lake,,FL,,32726,,28.82587079999999,-81.6903663,
SABAL PALMS HEALTH CARE CENTER,,,,,,,499 ALTERNATE KEENE RD NE,,LARGO,,,,,Pinellas,33771,FL,,(727) 586-4211,,,www.sabalhcc.com,,,,,,,,,,,,,,Nursing Home,,,,499 ALTERNATE KEENE RD NE,,,LARGO,Pinellas,,FL,,33771,,27.9216621,-82.769387,
SALERNO BAY HEALTH AND REHABILITATION CENTER,,,,,,,4801 SE COVE RD,,STUART,,,,,Martin,34997-1602,FL,,(772) 286-9440,,,,,,,,,,,,,,,,,Nursing Home,,,,4801 SE COVE RD,,,STUART,Martin,,FL,,34997-1602,,27.1415138,-80.1893809,
SAMANTHA WILSON CARE CENTER,,,,,,,161A MARINE STREET,,SAINT AUGUSTINE,,,,,St. Johns,32084,FL,,(904) 829-3475,,,www.bay-view.org,,,,,,,,,,,,,,Nursing Home,,,,161A MARINE STREET,,,SAINT AUGUSTINE,St. Johns,,FL,,32084,,29.8815957,-81.3073012,
SAN JOSE HEALTH AND REHABILITATION CENTER,,,,,,,9355 SAN JOSE BLVD,,JACKSONVILLE,,,,,Duval,32257,FL,,(904) 739-0877,,,www.consulatehealthcare.com,,,,,,,,,,,,,,Nursing Home,,,,9355 SAN JOSE BLVD,,,JACKSONVILLE,Duval,,FL,,32257,,30.20855399999999,-81.61578,Southside
SANDALWOOD REHABILITATION AND NURSING CENTER,,,,,,,1001 S BEACH STREET,,DAYTONA BEACH,,,,,Volusia,32114,FL,,(386) 258-3334,,,www.SandalwoodDaytona.com,,,,,,,,,,,,,,Nursing Home,,,,1001 S BEACH STREET,,,DAYTONA BEACH,Volusia,,FL,,32114,,29.1945088,-81.01068339999999,
SANDY RIDGE HEALTH AND REHABILITATION,,,,,,,5360 GLOVER LANE,,MILTON,,,,,Santa Rosa,32570,FL,,(850) 626-9225,,,www.sandyridgehealth.com,,,,,,,,,,,,,,Nursing Home,,,,5360 GLOVER LANE,,,MILTON,Santa Rosa,,FL,,32570,,30.63012909999999,-87.06364839999999,
SANTA ROSA HEALTH & REHABILITATION CENTER,,,,,,,5386 BROAD ST,,MILTON,,,,,Santa Rosa,32570-2235,FL,,(850) 623-4661,,,www.srhrc.com,,,,,,,,,,,,,,Nursing Home,,,,5386 BROAD ST,,,MILTON,Santa Rosa,,FL,,32570-2235,,30.6296951,-87.03683579999999,
SARASOTA HEALTH AND REHABILITATION CENTER,,,,,,,1524 EAST AVENUE SOUTH,,SARASOTA,,,,,Sarasota,34239,FL,,(941) 365-2422,,,sarasotahealthandrehab.com,,,,,,,,,,,,,,Nursing Home,,,,1524 EAST AVENUE SOUTH,,,SARASOTA,Sarasota,,FL,,34239,,27.31964779999999,-82.5281795,Arlington Park
SARASOTA MEMORIAL NURSING AND REHABILITATION CENTER,,,,,,,5640 RAND BLVD,,SARASOTA,,,,,Sarasota,34238,FL,,(941) 917-4950,,,www.smh.com,,,,,,,,,,,,,,Nursing Home,,,,5640 RAND BLVD,,,SARASOTA,Sarasota,,FL,,34238,,27.263912,-82.45756639999999,
SARASOTA POINT REHABILITATION CENTER,,,,,,,2600 COURTLAND STREET,,SARASOTA,,,,,Sarasota,34237,FL,,(941) 331-4362,,,www.sarasotapointrehab.com,,,,,,,,,,,,,,Nursing Home,,,,2600 COURTLAND STREET,,,SARASOTA,Sarasota,,FL,,34237,,27.325953,-82.5171575,Alta Vista
SAVANNAH COVE,,,,,,,4611 JOHNSON RD,UNIT 1,COCONUT CREEK,,,,,Broward,33073-4361,FL,,(407) 645-3990,,,www.savannahcourtmaitland.com,,,,,,,,,,,,,,Nursing Home,,,,1301 W MAITLAND BLVD,,,MAITLAND,Orange,,FL,,32751,,28.63162509999999,-81.3787822,
SAVANNAH COVE,,,,,,,4611 JOHNSON ROAD,SUITE 1,COCONUT CREEK,,,,,Broward,33073,FL,,(561) 686-5100,,,www.savannahcourtpalmbeaches.com,,,,,,,,,,,,,,Nursing Home,,,,2090 N CONGRESS AVE,,,WEST PALM BEACH,Palm Beach,,FL,,33401,,26.7357945,-80.0890663,
SEA BREEZE HEALTH CARE,,,,,,,1937 JENKS AVE,,PANAMA CITY,,,,,Bay,32405-4510,FL,,(850) 769-7686,,,www.consulatehealthcare.com,,,,,,,,,,,,,,Nursing Home,,,,1937 JENKS AVE,,,PANAMA CITY,Bay,,FL,,32405-4510,,30.183912,-85.6635905,
SEASIDE HEALTH AND REHABILITATION CENTER,,,,,,,324 WILDER BLVD,,DAYTONA BEACH,,,,,Volusia,32114,FL,,(386) 252-2600,,,,,,,,,,,,,,,,,Nursing Home,,,,324 WILDER BLVD,,,DAYTONA BEACH,Volusia,,FL,,32114,,29.1891126,-81.0128618,Bethune Grant
SEAVIEW NURSING AND REHABILITATION CENTER,,,,,,,2401 NE 2ND STREET,,POMPANO BEACH,,,,,Broward,33062,FL,,(954) 943-5100,,,www.consulatehealthcare.com,,,,,,,,,,,,,,Nursing Home,,,,2401 NE 2ND STREET,,,POMPANO BEACH,Broward,,FL,,33062,,26.233963,-80.0996988,
SEMINOLE PAVILION REHABILITATION & NURSING SERVICES,,,,,,,10800 TEMPLE TERRACE,,SEMINOLE,,,,,Pinellas,33772,FL,,(727) 398-0166,,,,,,,,,,,,,,,,,Nursing Home,,,,10800 TEMPLE TERRACE,,,SEMINOLE,Pinellas,,FL,,33772,,27.8435842,-82.78912439999999,
SEVEN HILLS HEALTH & REHABILITATION CENTER,,,,,,,3333 CAPITAL MEDICAL BLVD,,TALLAHASSEE,,,,,Leon,32308,FL,,(850) 877-4115,,,www.sevenhillshealthandrehab.com,,,,,,,,,,,,,,Nursing Home,,,,3333 CAPITAL MEDICAL BLVD,,,TALLAHASSEE,Leon,,FL,,32308,,30.4752811,-84.225546,
SHELL POINT NURSING PAVILION,,,,,,,15071 SHELL POINT BLVD,,FORT MYERS,,,,,Lee,33908,FL,,(239) 466-1111,,,www.shellpoint.org,,,,,,,,,,,,,,Nursing Home,,,,15071 SHELL POINT BLVD,,,FORT MYERS,Lee,,FL,,33908,,26.5178858,-81.9972074,The Island at Shell Point
SHOAL CREEK REHABILITATION CENTER,,,,,,,500 HOSPITAL DRIVE,,CRESTVIEW,,,,,Okaloosa,32539,FL,,(850) 689-3146,,,www.consulatehealthcare.com,,,,,,,,,,,,,,Nursing Home,,,,500 HOSPITAL DRIVE,,,CRESTVIEW,Okaloosa,,FL,,32539,,30.73319,-86.562191,
SHORE ACRES CARE CENTER,,,,,,,4500 INDIANAPOLIS ST NE,,SAINT PETERSBURG,,,,,Pinellas,33703,FL,,(727) 527-5801,,,http://www.shoreacrescc.com/,,,,,,,,,,,,,,Nursing Home,,,,4500 INDIANAPOLIS ST NE,,,SAINT PETERSBURG,Pinellas,,FL,,33703,,27.8132124,-82.602584,Shore Acres
SIGNATURE HEALTHCARE AT COLLEGE PARK,,,,,,,13755 GOLF CLUB PKWY,,FORT MYERS,,,,,Lee,33919,FL,,(239) 482-2848,,,LTCREVOLUTION.COM,,,,,,,,,,,,,,Nursing Home,,,,13755 GOLF CLUB PKWY,,,FORT MYERS,Lee,,FL,,33919,,26.5492495,-81.8881299,
SIGNATURE HEALTHCARE AT THE COURTYARD,,,,,,,2600 FOREST GLEN TRAIL,,MARIANNA,,,,,Jackson,32446,FL,,(850) 526-2000,,,http://shcatthecourtyard.com/,,,,,,,,,,,,,,Nursing Home,,,,2600 FOREST GLEN TRAIL,,,MARIANNA,Jackson,,FL,,32446,,30.750934,-85.1843109,
SIGNATURE HEALTHCARE CENTER OF WATERFORD,,,,,,,8333 W. OKEECHOBEE ROAD,,HIALEAH GARDENS,,,,,Miami-Dade,33016,FL,,(305) 556-9900,,,,,,,,,,,,,,,,,Nursing Home,,,,8333 W OKEECHOBEE ROAD,,,HIALEAH GARDENS,Miami-Dade,,FL,,33016,,25.8636826,-80.33376009999999,
SIGNATURE HEALTHCARE OF BROOKWOOD GARDENS,,,,,,,1990 S CANAL DRIVE,,HOMESTEAD,,,,,Miami-Dade,33035,FL,,(305) 246-1200,,,,,,,,,,,,,,,,,Nursing Home,,,,1990 S CANAL DRIVE,,,HOMESTEAD,Miami-Dade,,FL,,33035,,25.4591326,-80.4490807,
SIGNATURE HEALTHCARE OF GAINESVILLE,,,,,,,4000 SW 20TH AVE,,GAINESVILLE,,,,,Alachua,32607,FL,,(352) 377-1981,,,,,,,,,,,,,,,,,Nursing Home,,,,4000 SW 20TH AVE,,,GAINESVILLE,Alachua,,FL,,32607,,29.6347287,-82.38346120000001,
SIGNATURE HEALTHCARE OF JACKSONVILLE,,,,,,,2061 HYDE PARK RD,,JACKSONVILLE,,,,,Duval,32210,FL,,(904) 786-7331,,,,,,,,,,,,,,,,,Nursing Home,,,,2061 HYDE PARK RD,,,JACKSONVILLE,Duval,,FL,,32210,,30.280276,-81.74486000000002,Westside
SIGNATURE HEALTHCARE OF NORTH FLORIDA,,,,,,,1083 SANDERS AVENUE,,GRACEVILLE,,,,,Jackson,32440,FL,,(850) 263-4447,,,http://shcofnorthflorida.com/,,,,,,,,,,,,,,Nursing Home,,,,1083 SANDERS AVENUE,,,GRACEVILLE,Jackson,,FL,,32440,,30.9640733,-85.50714699999999,
SIGNATURE HEALTHCARE OF ORANGE PARK,,,,,,,2029 PROFESSIONAL CENTER DR,,ORANGE PARK,,,,,Clay,32073,FL,,(904) 272-6194,,,,,,,,,,,,,,,,,Nursing Home,,,,2029 PROFESSIONAL CENTER DR,,,ORANGE PARK,Clay,,FL,,32073,,30.1672255,-81.73938059999999,
SIGNATURE HEALTHCARE OF ORMOND,,,,,,,103 NORTH CLYDE MORRIS BLVD,,ORMOND BEACH,,,,,Volusia,32174,FL,,(386) 673-0450,,,,,,,,,,,,,,,,,Nursing Home,,,,103 NORTH CLYDE MORRIS BLVD,,,ORMOND BEACH,Volusia,,FL,,32174,,29.1978244,-81.0538052,
SIGNATURE HEALTHCARE OF PALM BEACH,,,,,,,4405 LAKEWOOD ROAD,,LAKE WORTH,,,,,Palm Beach,33461,FL,,(561) 969-1400,,,,,,,,,,,,,,,,,Nursing Home,,,,4405 LAKEWOOD ROAD,,,LAKE WORTH,Palm Beach,,FL,,33461,,26.623148,-80.111797,
SIGNATURE HEALTHCARE OF PINELLAS PARK,,,,,,,8701 49TH ST N,,PINELLAS PARK,,,,,Pinellas,33782,FL,,(727) 546-4661,,,www.signaturehealthcarellc.com,,,,,,,,,,,,,,Nursing Home,,,,8701 49TH ST N,,,PINELLAS PARK,Pinellas,,FL,,33782,,27.85096,-82.699016,
SIGNATURE HEALTHCARE OF PORT CHARLOTTE,,,,,,,4033 BEAVER LANE,,PORT CHARLOTTE,,,,,Charlotte,33952,FL,,(941) 625-3200,,,,,,,,,,,,,,,,,Nursing Home,,,,4033 BEAVER LANE,,,PORT CHARLOTTE,Charlotte,,FL,,33952,,26.9706628,-82.078665,
SILVERCREST HEALTH AND REHABILITATION CENTER,,,,,,,910 BROOKMEADE DRIVE,,CRESTVIEW,,,,,Okaloosa,32539,FL,,(850) 682-1903,,,,,,,,,,,,,,,,,Nursing Home,,,,910 BROOKMEADE DRIVE,,,CRESTVIEW,Okaloosa,,FL,,32539,,30.7302928,-86.5650228,
SINAI PLAZA NURSING AND REHAB CENTER,,,,,,,201 NE 112TH STREET,,MIAMI,,,,,Miami-Dade,33161,FL,,(305) 899-4700,,,??www.sinaiplaza.org,,,,,,,,,,,,,,Nursing Home,,,,201 NE 112TH STREET,,,MIAMI,Miami-Dade,,FL,,33161,,25.8788266,-80.1934709,
SOLARIS HEALTHCARE BAYONET POINT,,,,,,,7210 BEACON WOODS DR,,HUDSON,,,,,Pasco,34667-1974,FL,,(727) 863-1521,,,solarishealthcare.org,,,,,,,,,,,,,,Nursing Home,,,,7210 BEACON WOODS DR,,,HUDSON,Pasco,,FL,,34667-1974,,28.3368786,-82.6956743,
SOLARIS HEALTHCARE CHARLOTTE HARBOR,,,,,,,4000 KINGS HWY,,PORT CHARLOTTE,,,,,Charlotte,33980,FL,,(941) 255-5855,,,solarishealthcare.org,,,,,,,,,,,,,,Nursing Home,,,,4000 KINGS HWY,,,PORT CHARLOTTE,Charlotte,,FL,,33980,,26.9712157,-82.0661959,
SOLARIS HEALTHCARE COCONUT CREEK,,,,,,,4125 WEST SAMPLE RD,,COCONUT CREEK,,,,,Broward,33073,FL,,(954) 968-8333,,,solarishealthcare.org,,,,,,,,,,,,,,Nursing Home,,,,4125 WEST SAMPLE RD,,,COCONUT CREEK,Broward,,FL,,33073,,26.274965,-80.1803255,
SOLARIS HEALTHCARE DAYTONA,,,,,,,550 NATIONAL HEALTHCARE DRIVE,,DAYTONA BEACH,,,,,Volusia,32114,FL,,(386) 257-6362,,,solarishealthcare.org,,,,,,,,,,,,,,Nursing Home,,,,550 NATIONAL HEALTHCARE DRIVE,,,DAYTONA BEACH,Volusia,,FL,,32114,,29.2057913,-81.0631508,National Healthcorp
SOLARIS HEALTHCARE IMPERIAL,,,,,,,900 IMPERIAL GOLF COURSE BLVD,,NAPLES,,,,,Collier,34110,FL,,(239) 591-4800,,,solarishealthcare.org,,,,,,,,,,,,,,Nursing Home,,,,900 IMPERIAL GOLF COURSE BLVD,,,NAPLES,Collier,,FL,,34110,,26.289022,-81.801647,
SOLARIS HEALTHCARE LAKE CITY,,,,,,,560 SW MCFARLANE AVE,,LAKE CITY,,,,,Columbia,32025,FL,,(386) 758-4777,,,solarishealthcare.org,,,,,,,,,,,,,,Nursing Home,,,,560 SW MCFARLANE AVE,,,LAKE CITY,Columbia,,FL,,32025,,30.1826151,-82.6504408,
SOLARIS HEALTHCARE MERRITT ISLAND,,,,,,,500 CROCKETT BLVD,,MERRITT ISLAND,,,,,Brevard,32953,FL,,(321) 454-4035,,,solarishealthcare.org,,,,,,,,,,,,,,Nursing Home,,,,500 CROCKETT BLVD,,,MERRITT ISLAND,Brevard,,FL,,32953,,28.3899514,-80.7082159,
SOLARIS HEALTHCARE OSCEOLA,,,,,,,4201 W NEW NOLTE ROAD,,SAINT CLOUD,,,,,Osceola,34772,FL,,(407) 957-3341,,,SolarisHealthCare.org,,,,,,,,,,,,,,Nursing Home,,,,4201 W NEW NOLTE ROAD,,,SAINT CLOUD,Osceola,,FL,,34772,,28.227596,-81.31492999999999,
SOLARIS HEALTHCARE PARKWAY,,,,,,,800 SE CENTRAL PKWY,,STUART,,,,,Martin,34994,FL,,(772) 287-9912,,,solarishealthcare.org,,,,,,,,,,,,,,Nursing Home,,,,800 SE CENTRAL PKWY,,,STUART,Martin,,FL,,34994,,27.177872,-80.2418867,
SOLARIS HEALTHCARE PENSACOLA,,,,,,,8475 UNIVERSITY PARKWAY,,PENSACOLA,,,,,Escambia,32514,FL,,(850) 474-1252,,,solarishealthcare.org,,,,,,,,,,,,,,Nursing Home,,,,8475 UNIVERSITY PARKWAY,,,PENSACOLA,Escambia,,FL,,32514,,30.5167011,-87.2226963,North Central Pensacola
SOLARIS HEALTHCARE PLANT CITY,,,,,,,701 N WILDER RD,,PLANT CITY,,,,,Hillsborough,33566-7547,FL,,(813) 752-3611,,,solarishealthcare.org,,,,,,,,,,,,,,Nursing Home,,,,701 N WILDER RD,,,PLANT CITY,Hillsborough,,FL,,33566-7547,,28.03061019999999,-82.09584,
SOLARIS HEALTHCARE WINDERMERE,,,,,,,4875 CASON COVE DRIVE,,ORLANDO,,,,,Orange,32811,FL,,(407) 420-2090,,,solarishealthcare.org,,,,,,,,,,,,,,Nursing Home,,,,4875 CASON COVE DRIVE,,,ORLANDO,Orange,,FL,,32811,,28.5004268,-81.443519,Southwest Orlando
SOLARIS SENIOR LIVING NORTH NAPLES,,,,,,,10949 PARNU STREET,,NAPLES,,,,,Collier,34109,FL,,(239) 592-5501,,,solarishealthcare.org,,,,,,,,,,,,,,Nursing Home,,,,10949 PARNU STREET,,,NAPLES,Collier,,FL,,34109,,26.271581,-81.7804865,
SOUTH CAMPUS CARE CENTER,,,,,,,715 E DIXIE AVE,,LEESBURG,,,,,Lake,34748,FL,,(352) 728-3020,,,www.Southcampusrehab.com,,,,,,,,,,,,,,Nursing Home,,,,715 E DIXIE AVE,,,LEESBURG,Lake,,FL,,34748,,28.8056786,-81.8673331,
SOUTH DADE NURSING AND REHABILITATION CENTER,,,,,,,17475 S DIXIE HWY,,MIAMI,,,,,Miami-Dade,33157,FL,,(305) 255-1045,,,,,,,,,,,,,,,,,Nursing Home,,,,17475 S DIXIE HWY,,,MIAMI,Miami-Dade,,FL,,33157,,25.6077178,-80.3470391,
SOUTH HERITAGE HEALTH & REHABILITATION CENTER,,,,,,,718 LAKEVIEW AVE S,,SAINT PETERSBURG,,,,,Pinellas,33705,FL,,(727) 894-5125,,,www.southernheritagehealthandrehab.com,,,,,,,,,,,,,,Nursing Home,,,,718 LAKEVIEW AVE S,,,SAINT PETERSBURG,Pinellas,,FL,,33705,,27.7481979,-82.6430005,Harbordale
SOUTH POINTE PLAZA REHABILITATION AND NURSING CENTER,,,,,,,42 COLLINS AVENUE,,MIAMI BEACH,,,,,Miami-Dade,33139,FL,,(305) 672-1771,,,www.plazahealth.org,,,,,,,,,,,,,,Nursing Home,,,,42 COLLINS AVENUE,,,MIAMI BEACH,Miami-Dade,,FL,,33139,,25.7694401,-80.13449059999999,South Beach
SOUTH TAMPA HEALTH AND REHABILITATION CENTER,,,,,,,4610 S MANHATTAN AVE,,TAMPA,,,,,Hillsborough,33611,FL,,(813) 839-5311,,,www.mySTHR.com,,,,,,,,,,,,,,Nursing Home,,,,4610 S MANHATTAN AVE,,,TAMPA,Hillsborough,,FL,,33611,,27.8960148,-82.5174452,Fairoaks Manhattan Manor
SOUTHERN OAKS CARE CENTER,,,,,,,600 W GREGORY ST,,PENSACOLA,,,,,Escambia,32502-4744,FL,,(850) 434-8071,,,http://www.southernoaks-cc.com,,,,,,,,,,,,,,Nursing Home,,,,600 W GREGORY ST,,,PENSACOLA,Escambia,,FL,,32502-4744,,30.4144452,-87.2243221,Downtown
SOUTHERN PINES HEALTHCARE CENTER,,,,,,,6140 CONGRESS ST,,NEW PORT RICHEY,,,,,Pasco,34653,FL,,(727) 842-8402,,,,,,,,,,,,,,,,,Nursing Home,,,,6140 CONGRESS ST,,,NEW PORT RICHEY,Pasco,,FL,,34653,,28.2485455,-82.7067314,
SPECIALTY HEALTH AND REHABILITATION CENTER,,,,,,,6984 PINE FOREST ROAD,,PENSACOLA,,,,,Escambia,32526,FL,,(850) 430-3400,,,,,,,,,,,,,,,,,Nursing Home,,,,6984 PINE FOREST ROAD,,,PENSACOLA,Escambia,,FL,,32526,,30.48966069999999,-87.30460819999999,Northwest Pensacola
SPRING HILL HEALTH AND REHABILITATION CENTER,,,,,,,12170 CORTEZ BLVD,,BROOKSVILLE,,,,,Hernando,34613-5578,FL,,(352) 597-5100,,,www.consulatehealthcare.com,,,,,,,,,,,,,,Nursing Home,,,,12170 CORTEZ BLVD,,,BROOKSVILLE,Hernando,,FL,,34613-5578,,28.532426,-82.52497699999999,
SPRING LAKE REHABILITATION CENTER,,,,,,,1540 6TH ST NW,,WINTER HAVEN,,,,,Polk,33881,FL,,(863) 294-3055,,,www.springlakerehab.com,,,,,,,,,,,,,,Nursing Home,,,,1540 6TH ST NW,,,WINTER HAVEN,Polk,,FL,,33881,,28.037211,-81.73186199999999,
SPRINGS AT BOCA CIEGA BAY,,,,,,,1255 PASADENA AVE S  SUITE C,,SOUTH PASADENA,,,,,Pinellas,33707,FL,,(727) 828-3500,,,www.springsbcb.com,,,,,,,,,,,,,,Nursing Home,,,,1255 PASADENA AVE S  SUITE C,,,SOUTH PASADENA,Pinellas,,FL,,33707,,27.7575772,-82.73975449999999,
SPRINGS AT LAKE POINTE WOODS,,,,,,,3280 LAKE POINTE BLVD,,SARASOTA,,,,,Sarasota,34231,FL,,(941) 929-2700,,,www.thesprings.biz,,,,,,,,,,,,,,Nursing Home,,,,3280 LAKE POINTE BLVD,,,SARASOTA,Sarasota,,FL,,34231,,27.239587,-82.49880399999999,
SPRINGTREE REHABILITATION & HEALTH CARE CENTER,,,,,,,4251 SPRINGTREE DRIVE,,SUNRISE,,,,,Broward,33351-6119,FL,,(954) 572-4251,,,www.springtreerehab.com,,,,,,,,,,,,,,Nursing Home,,,,4251 SPRINGTREE DRIVE,,,SUNRISE,Broward,,FL,,33351-6119,,26.1776559,-80.26606149999999,
SPRINGWOOD CENTER,,,,,,,4602 NORTHGATE COURT,,SARASOTA,,,,,Sarasota,34234,FL,,(941) 355-2913,,,www.GenesisHealthcare,,,,,,,,,,,,,,Nursing Home,,,,4602 NORTHGATE COURT,,,SARASOTA,Sarasota,,FL,,34234,,27.3754228,-82.5340411,
ST ANDREWS BAY SKILLED NURSING AND REHABILITATION CENTER,,,,,,,2100 JENKS AVE,,PANAMA CITY,,,,,Bay,32405,FL,,(850) 763-0446,,,www.standrewsbayrehab.com,,,,,,,,,,,,,,Nursing Home,,,,2100 JENKS AVE,,,PANAMA CITY,Bay,,FL,,32405,,30.18571670000001,-85.6612311,
ST ANNES NURSING CENTER  ST ANNES RESIDENCE INC,,,,,,,11855 QUAIL ROOST DRIVE,,MIAMI,,,,,Miami-Dade,33177,FL,,(305) 252-4000,,,www.catholichealthservices.org,,,,,,,,,,,,,,Nursing Home,,,,11855 QUAIL ROOST DRIVE,,,MIAMI,Miami-Dade,,FL,,33177,,25.5895487,-80.3839754,
ST AUGUSTINE HEALTH AND REHABILITATION CENTER,,,,,,,51 SUNRISE BLVD,,SAINT AUGUSTINE,,,,,St. Johns,32084,FL,,(904) 824-4479,,,www.staugustinehealthandrehab.com,,,,,,,,,,,,,,Nursing Home,,,,51 SUNRISE BLVD,,,SAINT AUGUSTINE,St. Johns,,FL,,32084,,29.8734613,-81.33092189999999,
ST CATHERINE LABOURE MANOR INC,,,,,,,1750 STOCKTON ST,,JACKSONVILLE,,,,,Duval,32204,FL,,(904) 308-4700,,,www.jaxhealth.com,,,,,,,,,,,,,,Nursing Home,,,,1750 STOCKTON ST,,,JACKSONVILLE,Duval,,FL,,32204,,30.3087111,-81.6879112,Northwest
ST JAMES HEALTH AND REHABILITATION CENTER,,,,,,,239 CROOKED RIVER ROAD,,CARRABELLE,,,,,Franklin,32322,FL,,(850) 697-2020,,,,,,,,,,,,,,,,,Nursing Home,,,,239 CROOKED RIVER ROAD,,,CARRABELLE,Franklin,,FL,,32322,,29.9040982,-84.5675229,
ST MARK VILLAGE,,,,,,,2655 NEBRASKA AVE,,PALM HARBOR,,,,,Pinellas,34684,FL,,(727) 785-2580,,,www.stmarkvillage.org,,,,,,,,,,,,,,Nursing Home,,,,2655 NEBRASKA AVE,,,PALM HARBOR,Pinellas,,FL,,34684,,28.079858,-82.73616,
ST PETERSBURG NURSING & REHABILITATION,,,,,,,521 69TH AVE N,,SAINT PETERSBURG,,,,,Pinellas,33702,FL,,(727) 526-7000,,,,,,,,,,,,,,,,,Nursing Home,,,,521 69TH AVE N,,,SAINT PETERSBURG,Pinellas,,FL,,33702,,27.8352484,-82.6403974,Fossil Park
ST. JOHN'S NURSING CENTER,,,,,,,3075 NW 35TH AVE,,LAUDERDALE LAKES,,,,,Broward,33311,FL,,(954) 739-6233,,,www.catholichealthservices.org,,,,,,,,,,,,,,Nursing Home,,,,3075 NW 35TH AVE,,,LAUDERDALE LAKES,Broward,,FL,,33311,,26.1645819,-80.19329599999999,
STRATFORD COURT OF BOCA RATON,,,,,,,6343 VIA DE SONRISA DEL SUR,,BOCA RATON,,,,,Palm Beach,33433,FL,,(561) 392-5940,,,www.sunriseseniorliving.com,,,,,,,,,,,,,,Nursing Home,,,,6343 VIA DE SONRISA DEL SUR,,,BOCA RATON,Palm Beach,,FL,,33433,,26.3306079,-80.1437627,
STRATFORD COURT OF PALM HARBOR,,,,,,,400 CENTRE ST,ATTN: LICENSING,NEWTON,,,,,,02458-2094,MA,,(727) 787-1500,,,https://www.fivestarseniorliving.com/communities/fl/palm-harbor/stratford-court-of-palm-harbor,,,,,,,,,,,,,,Nursing Home,,,,45 KATHERINE BLVD,,,PALM HARBOR,Pinellas,,FL,,34684,,28.063813,-82.71157199999999,
STUART NURSING AND RESTORATIVE CARE CENTER,,,,,,,1500 SE PALM BEACH RD,,STUART,,,,,Martin,34994,FL,,(772) 283-5887,,,www.stuartnursingandrestorative.com,,,,,,,,,,,,,,Nursing Home,,,,1500 SE PALM BEACH RD,,,STUART,Martin,,FL,,34994,,27.1857348,-80.2373029,
SUMMER BROOK HEALTH CARE CENTER,,,,,,,5377 MONCRIEF ROAD,,JACKSONVILLE,,,,,Duval,32209,FL,,(904) 768-1506,,,,,,,,,,,,,,,,,Nursing Home,,,,5377 MONCRIEF ROAD,,,JACKSONVILLE,Duval,,FL,,32209,,30.37117,-81.683909,Northwest
SUN TERRACE HEALTH CARE CENTER,,,,,,,105 TRINITY LAKES DR,,SUN CITY CENTER,,,,,Hillsborough,33573,FL,,(813) 634-3324,,,www.sunterracerehab.com,,,,,,,,,,,,,,Nursing Home,,,,105 TRINITY LAKES DR,,,SUN CITY CENTER,Hillsborough,,FL,,33573,,27.7109712,-82.35649959999999,
SUNBELT HEALTH & REHAB CENTER-APOPKA  INC,,,,,,,305 EAST OAK STREET,,APOPKA,,,,,Orange,32703,FL,,(407) 880-2266,,,www.sunbeltapopka.com,,,,,,,,,,,,,,Nursing Home,,,,305 EAST OAK STREET,,,APOPKA,Orange,,FL,,32703,,28.6810208,-81.5042923,
SUNNYSIDE NURSING HOME,,,,,,,5201 BAHIA VISTA STREET,,SARASOTA,,,,,Sarasota,34232,FL,,(941) 371-2729,,,www.sunnysidevillage.org,,,,,,,,,,,,,,Nursing Home,,,,5201 BAHIA VISTA STREET,,,SARASOTA,Sarasota,,FL,,34232,,27.3251586,-82.4664751,
SUNRISE HEALTH AND REHABILITATION CENTER,,,,,,,4800 N NOB HILL RD,,SUNRISE,,,,,Broward,33351-4722,FL,,(954) 577-3600,,,www.sunrisehc.com,,,,,,,,,,,,,,Nursing Home,,,,4800 N NOB HILL RD,,,SUNRISE,Broward,,FL,,33351-4722,,26.1851212,-80.2832471,
SUNSET LAKE HEALTH AND REHABILITATION CENTER,,,,,,,832 SUNSET LAKE BOULEVARD,,VENICE,,,,,Sarasota,34292,FL,,(941) 492-5313,,,www.greystonehealth.com,,,,,,,,,,,,,,Nursing Home,,,,832 SUNSET LAKE BOULEVARD,,,VENICE,Sarasota,,FL,,34292,,27.0833095,-82.3920267,
SUNSET POINT,,,,,,,1980 SUNSET POINT RD,,CLEARWATER,,,,,Pinellas,33765-1132,FL,,(727) 443-1588,,,www.genesishealthcare.com,,,,,,,,,,,,,,Nursing Home,,,,1980 SUNSET POINT RD,,,CLEARWATER,Pinellas,,FL,,33765-1132,,27.9910477,-82.75622680000001,
SURREY PLACE CARE CENTER,,,,,,,110 SE LEE AVE,,LIVE OAK,,,,,Suwannee,32060,FL,,(386) 364-5961,,,www.surreyplacecare.com,,,,,,,,,,,,,,Nursing Home,,,,110 SE LEE AVE,,,LIVE OAK,Suwannee,,FL,,32060,,30.2904401,-82.9718424,
SURREY PLACE HEALTHCARE AND REHABILITATION,,,,,,,5525 21ST AVE W,,BRADENTON,,,,,Manatee,34209,FL,,(941) 795-0448,,,www.surreyplacehealthandrehab.com,,,,,,,,,,,,,,Nursing Home,,,,5525 21ST AVE W,,,BRADENTON,Manatee,,FL,,34209,,27.4799452,-82.61749999999999,
SUSANNA WESLEY HEALTH CENTER,,,,,,,5300 W 16TH AVENUE,,HIALEAH,,,,,Miami-Dade,33012,FL,,(305) 556-3500,,,www.epworthvillagerc.com,,,,,,,,,,,,,,Nursing Home,,,,5300 W 16TH AVENUE,,,HIALEAH,Miami-Dade,,FL,,33012,,25.8703873,-80.31656339999999,
SUWANNEE HEALTH AND REHABILITATION CENTER,,,,,,,1620 SE HELVENSTON ST,,LIVE OAK,,,,,Suwannee,32064-3474,FL,,(386) 362-7860,,,,,,,,,,,,,,,,,Nursing Home,,,,1620 HELVENSTON ST SE,,,LIVE OAK,Suwannee,,FL,,32064-3474,,30.285728,-82.9641029,
SUWANNEE VALLEY NURSING CENTER,,,,,,,427 15TH AVENUE NORTHWEST,,JASPER,,,,,Hamilton,32052-5874,FL,,(386) 792-1868,,,svnc.us,,,,,,,,,,,,,,Nursing Home,,,,427 15TH AVENUE NORTHWEST,,,JASPER,Hamilton,,FL,,32052-5874,,30.52193159999999,-82.9594212,
SYLVAN HEALTH CENTER,,,,,,,2770 REGENCY OAKS BLVD,,CLEARWATER,,,,,Pinellas,33759,FL,,7277911500,,,,,,,,,,,,,,,,,Nursing Home,,,,2770 REGENCY OAKS BLVD,,,CLEARWATER,Pinellas,,FL,,33759,,27.9943643,-82.7241834,
TAMARAC REHABILITATION AND HEALTH CENTER,,,,,,,7901 NW 88TH AVENUE,,TAMARAC,,,,,Broward,33321,FL,,(954) 722-9330,,,www.tamaracrehab.com,,,,,,,,,,,,,,Nursing Home,,,,7901 NW 88TH AVENUE,,,TAMARAC,Broward,,FL,,33321,,26.219848,-80.27460289999999,
TAMPA LAKES HEALTH AND REHABILITATION CENTER,,,,,,,750 HAYES RD,,LUTZ,,,,,Hillsborough,33549,FL,,(813) 559-1500,,,tampalakes.com,,,,,,,,,,,,,,Nursing Home,,,,750 HAYES RD,,,LUTZ,Hillsborough,,FL,,33549,,28.0987815,-82.4541615,
TARPON BAYOU CENTER,,,,,,,515 CHESAPEAKE DR,,TARPON SPRINGS,,,,,Pinellas,34689,FL,,(727) 934-4629,,,www.tarponbayoucenter.com,,,,,,,,,,,,,,Nursing Home,,,,515 CHESAPEAKE DR,,,TARPON SPRINGS,Pinellas,,FL,,34689,,28.1517699,-82.7679884,
TARPON POINT NURSING AND REHABILITATION CENTER,,,,,,,5157 PARK CLUB DRIVE,,SARASOTA,,,,,Sarasota,34235,FL,,(941) 377-0022,,,www.tarponpointnursing.com,,,,,,,,,,,,,,Nursing Home,,,,5157 PARK CLUB DRIVE,,,SARASOTA,Sarasota,,FL,,34235,,27.3565324,-82.4665077,
TAYLOR CARE CENTER,,,,,,,6535 CHESTER AVENUE,,JACKSONVILLE,,,,,Duval,32217,FL,,(904) 731-8230,,,www.taylor-residences.org,,,,,,,,,,,,,,Nursing Home,,,,6535 CHESTER AVENUE,,,JACKSONVILLE,Duval,,FL,,32217,,30.257481,-81.6216747,Southside
TERRA VISTA REHAB AND HEALTH CENTER,,,,,,,1730 LUCERNE TERRACE,,ORLANDO,,,,,Orange,32806,FL,,(407) 423-1612,,,www.terravistarehab.com,,,,,,,,,,,,,,Nursing Home,,,,1730 LUCERNE TERRACE,,,ORLANDO,Orange,,FL,,32806,,28.5279136,-81.3807199,Southeast Orlando
TERRACE AT HOBE SOUND  THE,,,,,,,9555 SE FEDERAL HWY,,HOBE SOUND,,,,,Martin,33455,FL,,(772) 546-5800,,,Terraceathobesound.com,,,,,,,,,,,,,,Nursing Home,,,,9555 SE FEDERAL HWY,,,HOBE SOUND,Martin,,FL,,33455,,27.08877249999999,-80.14982049999999,
TERRACE HEALTH & REHABILITATION CENTER,,,,,,,7207 SW 24TH AVE,,GAINESVILLE,,,,,Alachua,32607,FL,,(352) 333-0600,,,www.greystonehealth.com,,,,,,,,,,,,,,Nursing Home,,,,7207 SW 24TH AVE,,,GAINESVILLE,Alachua,,FL,,32607,,29.6293977,-82.4192772,
TERRACE OF JACKSONVILLE  THE,,,,,,,10680 OLD ST AUGUSTINE RD,,JACKSONVILLE,,,,,Duval,32257,FL,,(904) 268-4953,,,,,,,,,,,,,,,,,Nursing Home,,,,10680 OLD ST AUGUSTINE RD,,,JACKSONVILLE,Duval,,FL,,32257,,30.181845,-81.608443,Southside
TERRACE OF KISSIMMEE  THE,,,,,,,221 PARK PLACE BLVD,,KISSIMMEE,,,,,Osceola,34741,FL,,(407) 935-0200,,,,,,,,,,,,,,,,,Nursing Home,,,,221 PARK PLACE BLVD,,,KISSIMMEE,Osceola,,FL,,34741,,28.3141651,-81.4075507,
TERRACE OF ST CLOUD  THE,,,,,,,3855 OLD CANOE CREEK ROAD,,SAINT CLOUD,,,,,Osceola,34769,FL,,(407) 957-2280,,,www.terraceofstcloud,,,,,,,,,,,,,,Nursing Home,,,,3855 OLD CANOE CREEK ROAD,,,SAINT CLOUD,Osceola,,FL,,34769,,28.2336661,-81.3169734,
TERRACES OF LAKE WORTH CARE CENTER,,,,,,,1711 6TH AVENUE SOUTH,,LAKE WORTH,,,,,Palm Beach,33460,FL,,(561) 586-0808,,,www.terracesrehab.com,,,,,,,,,,,,,,Nursing Home,,,,1711 6TH AVENUE SOUTH,,,LAKE WORTH,Palm Beach,,FL,,33460,,26.6084415,-80.0658219,
THE ARLINGTON OF NAPLES  INC.,,,,,,,8000 ARLINGTON CIRCLE,,NAPLES,,,,,Collier,34113,FL,,(239) 307-3100,,,www.arlingtonnaples.org,,,,,,,,,,,,,,Nursing Home,,,,8000 ARLINGTON CIRCLE,,,NAPLES,Collier,,FL,,34113,,26.102795,-81.692459,South Naples
THE EDGEWATER AT WATERMAN VILLAGE,,,,,,,300 BROOKFIELD AVE,,MOUNT DORA,,,,,Lake,32757-9562,FL,,(352) 383-0051,,,www.watermanvillage.com,,,,,,,,,,,,,,Nursing Home,,,,300 BROOKFIELD AVE,,,MOUNT DORA,Lake,,FL,,32757-9562,,28.8228454,-81.64637189999999,
THE GARDENS AT DEPUGH,,,,,,,550 W MORSE BLVD,,WINTER PARK,,,,,Orange,32789,FL,,(407) 644-6634,,,www.thegardensatdepugh.org,,,,,,,,,,,,,,Nursing Home,,,,550 W MORSE BLVD,,,WINTER PARK,Orange,,FL,,32789,,28.5974182,-81.3564446,
THE LODGE HEALTH AND REHABILITATION CENTER,,,,,,,635 SE 17TH STREET,,OCALA,,,,,Marion,34471,FL,,(352) 629-7921,,,www.greystonehealth.com,,,,,,,,,,,,,,Nursing Home,,,,635 SE 17TH STREET,,,OCALA,Marion,,FL,,34471,,29.1720381,-82.12998979999999,
TIERRA PINES CENTER,,,,,,,7380 ULMERTON RD,,LARGO,,,,,Pinellas,33771,FL,,(727) 535-9833,,,www.opistierrapinescenter.com,,,,,,,,,,,,,,Nursing Home,,,,7380 ULMERTON RD,,,LARGO,Pinellas,,FL,,33771,,27.892896,-82.7399234,
TIFFANY HALL NURSING AND REHAB CENTER,,,,,,,1800 SE HILLMOOR DRIVE,,PORT SAINT LUCIE,,,,,St. Lucie,34952,FL,,(772) 337-3565,,,www.tiffanyhallrehab.com,,,,,,,,,,,,,,Nursing Home,,,,1800 SE HILLMOOR DRIVE,,,PORT SAINT LUCIE,St. Lucie,,FL,,34952,,27.2829067,-80.2940383,
TIMBERRIDGE NURSING & REHABILITATION CENTER,,,,,,,9848 SW 110TH ST,,OCALA,,,,,Marion,34481,FL,,(352) 854-8200,,,,,,,,,,,,,,,,,Nursing Home,,,,9848 SW 110TH ST,,,OCALA,Marion,,FL,,34481,,29.0616179,-82.28147779999999,
TITUSVILLE REHABILITATION AND NURSING CENTER,,,,,,,1705 JESS PARRISH CT,,TITUSVILLE,,,,,Brevard,32796,FL,,(321) 269-5720,,,www.titusvillehealthandrehab.com,,,,,,,,,,,,,,Nursing Home,,,,1705 JESS PARRISH CT,,,TITUSVILLE,Brevard,,FL,,32796,,28.6269633,-80.8217311,
TREASURE ISLE CARE CENTER,,,,,,,1735 N TREASURE DRIVE,,NORTH BAY VILLAGE,,,,,Miami-Dade,33141,FL,,(305) 865-2383,,,treasureislecarecenter.com,,,,,,,,,,,,,,Nursing Home,,,,1735 N TREASURE DRIVE,,,NORTH BAY VILLAGE,Miami-Dade,,FL,,33141,,25.8476201,-80.1497248,
TRI-COUNTY NURSING HOME,,,,,,,7280 SW STATE RD 26,,TRENTON,,,,,Gilchrist,32693,FL,,(352) 463-1222,,,www.tricountynh.org,,,,,,,,,,,,,,Nursing Home,,,,7280 SW STATE RD 26,,,TRENTON,Gilchrist,,FL,,32693,,29.6064174,-82.92461709999999,
TRINITY REGIONAL REHAB CENTER,,,,,,,2144 WELBILT BLVD,,TRINITY,,,,,Pasco,34655,FL,,(727) 859-4100,,,www.trinityregionalrehab.com,,,,,,,,,,,,,,Nursing Home,,,,2144 WELBILT BLVD,,,TRINITY,Pasco,,FL,,34655,,28.1903227,-82.6808566,
TUSKAWILLA NURSING AND REHAB CENTER,,,,,,,1024 WILLA SPRINGS DR,,WINTER SPRINGS,,,,,Seminole,32708,FL,,(407) 699-5506,,,www.tuskawillarehab.com,,,,,,,,,,,,,,Nursing Home,,,,1024 WILLA SPRINGS DR,,,WINTER SPRINGS,Seminole,,FL,,32708,,28.6444493,-81.27325499999999,
UNITY HEALTH AND REHABILITATION CENTER,,,,,,,1404 NW 22ND STREET,,MIAMI,,,,,Miami-Dade,33142,FL,,(305) 325-1050,,,www.greystonehealth.com,,,,,,,,,,,,,,Nursing Home,,,,1404 NW 22ND STREET,,,MIAMI,Miami-Dade,,FL,,33142,,25.7974125,-80.2204278,Allapattah
UNIVERSITY CENTER EAST,,,,,,,991 E NEW YORK AVE,,DELAND,,,,,Volusia,32724,FL,,(386) 734-9083,,,universitycentereast.com,,,,,,,,,,,,,,Nursing Home,,,,991 E NEW YORK AVE,,,DELAND,Volusia,,FL,,32724,,29.028508,-81.28420799999999,Sunny Side Gardens
UNIVERSITY CENTER WEST,,,,,,,545 WEST EUCLID AVENUE,,DELAND,,,,,Volusia,32720,FL,,(386) 734-9085,,,universitycenterwest.com,,,,,,,,,,,,,,Nursing Home,,,,545 WEST EUCLID AVENUE,,,DELAND,Volusia,,FL,,32720,,29.0211824,-81.3132394,
UNIVERSITY CROSSING,,,,,,,6210 BEACH BLVD,,JACKSONVILLE,,,,,Duval,32216,FL,,(904) 737-6777,,,www.brooks.org,,,,,,,,,,,,,,Nursing Home,,,,6210 BEACH BLVD,,,JACKSONVILLE,Duval,,FL,,32216,,30.2907605,-81.5987036,Southside
UNIVERSITY HILLS HEALTH AND REHABILITATION,,,,,,,10040 HILLVIEW ROAD,,PENSACOLA,,,,,Escambia,32514,FL,,(850) 474-0570,,,www.consulatehealthcare.com,,,,,,,,,,,,,,Nursing Home,,,,10040 HILLVIEW ROAD,,,PENSACOLA,Escambia,,FL,,32514,,30.5408263,-87.2170929,North Northwest Pensacola
UNIVERSITY PLAZA REHABILITATION AND NURSING CENTER  INC,,,,,,,724 NW 19TH ST,,MIAMI,,,,,Miami-Dade,33136,FL,,(305) 325-2300,,,plazahealth.org,,,,,,,,,,,,,,Nursing Home,,,,724 NW 19TH ST,,,MIAMI,Miami-Dade,,FL,,33136,,25.7935388,-80.20774399999999,Allapattah
VALENCIA HILLS HEALTH AND REHABILITATION CENTER,,,,,,,1350 SLEEPY HILL RD,,LAKELAND,,,,,Polk,33810,FL,,(863) 858-4402,,,www.valenciahillshr.com,,,,,,,,,,,,,,Nursing Home,,,,1350 SLEEPY HILL RD,,,LAKELAND,Polk,,FL,,33810,,28.0960832,-81.9783679,
VI AT AVENTURA,,,,,,,19333 WEST COUNTRY CLUB DRIVE,,AVENTURA,,,,,Miami-Dade,33180,FL,,(305) 692-4700,,,www.viliving/aventura,,,,,,,,,,,,,,Nursing Home,,,,19333 WEST COUNTRY CLUB DRIVE,,,AVENTURA,Miami-Dade,,FL,,33180,,25.9545685,-80.1380911,
VI AT LAKESIDE VILLAGE,,,,,,,2792 DONNELLY DRIVE,,LANTANA,,,,,Palm Beach,33462,FL,,(561) 963-2100,,,www.viliving.com,,,,,,,,,,,,,,Nursing Home,,,,2792 DONNELLY DRIVE,,,LANTANA,Palm Beach,,FL,,33462,,26.5815696,-80.0848158,
VICAR'S LANDING NURSING HOME,,,,,,,1003 YORK ROAD,,PONTE VEDRA BEACH,,,,,St. Johns,32082,FL,,(904) 285-1055,,,www.vicarslanding.com,,,,,,,,,,,,,,Nursing Home,,,,1003 YORK ROAD,,,PONTE VEDRA BEACH,St. Johns,,FL,,32082,,30.2054159,-81.3859011,
VICTORIA NURSING & REHABILITATION CENTER  INC.,,,,,,,955 NW 3RD ST,,MIAMI,,,,,Miami-Dade,33128,FL,,(305) 548-4020,,,www.victorianursing.net,,,,,,,,,,,,,,Nursing Home,,,,955 NW 3RD ST,,,MIAMI,Miami-Dade,,FL,,33128,,25.777005,-80.2108495,Little Havana
VIERA HEALTH AND REHABILITATION CENTER,,,,,,,8050 SPYGLASS HILL RD,,VIERA,,,,,Brevard,32940-7983,FL,,(321) 752-1000,,,www.greystonehealth.com,,,,,,,,,,,,,,Nursing Home,,,,8050 SPYGLASS HILL RD,,,VIERA,Brevard,,FL,,32940,,28.238965,-80.708241,
VILLA HEALTH & REHABILITATION CENTER,,,,,,,120 CHIPOLA AVE,,DELAND,,,,,Volusia,32720,FL,,(386) 738-3433,,,www.greystonehealth.com,,,,,,,,,,,,,,Nursing Home,,,,120 CHIPOLA AVE,,,DELAND,Volusia,,FL,,32720,,29.003103,-81.30691689999999,
VILLA MARIA NURSING CENTER,,,,,,,1050 NE 125TH STREET,,NORTH MIAMI,,,,,Miami-Dade,33161,FL,,(305) 891-8850,,,www.catholichealthservices.org,,,,,,,,,,,,,,Nursing Home,,,,1050 NE 125TH STREET,,,NORTH MIAMI,Miami-Dade,,FL,,33161,,25.889931,-80.1771538,
VILLA MARIA WEST SKILLED NURSING FACILITY,,,,,,,8850 NW 122 ST,,HIALEAH GARDENS,,,,,Miami-Dade,33018,FL,,(305) 351-7181,,,catholichealthservices.org,,,,,,,,,,,,,,Nursing Home,,,,8850 NW 122 ST,,,HIALEAH GARDENS,Miami-Dade,,FL,,33018,,25.8837593,-80.3428947,
VILLAGE ON THE GREEN,,,,,,,500 VILLAGE PLACE,,LONGWOOD,,,,,Seminole,32779,FL,,(407) 682-0230,,,www.villageonthegreenrc.com,,,,,,,,,,,,,,Nursing Home,,,,500 VILLAGE PLACE,,,LONGWOOD,Seminole,,FL,,32779,,28.6929347,-81.4062208,
VILLAGE ON THE ISLE,,,,,,,920 TAMIAMI TRL S,,VENICE,,,,,Sarasota,34285-3652,FL,,(941) 484-9753,,,www.villageontheisle.com,,,,,,,,,,,,,,Nursing Home,,,,910 TAMIAMI TRAIL SOUTH,,,VENICE,Sarasota,,FL,,34285,,27.0843331,-82.4378235,
VILLAGE PLACE HEALTH AND REHABILITATION CENTER,,,,,,,2370 HARBOR BLVD,,PORT CHARLOTTE,,,,,Charlotte,33952,FL,,(941) 624-5966,,,www.greystonehealth.com,,,,,,,,,,,,,,Nursing Home,,,,2370 HARBOR BLVD,,,PORT CHARLOTTE,Charlotte,,FL,,33952,,26.9927891,-82.09563519999999,
VILLAGES REHABILITATION AND NURSING CENTER  THE,,,,,,,900 HIGHWAY 466,,LADY LAKE,,,,,Lake,32159,FL,,(352) 430-0017,,,www.thevillagesrehab.com,,,,,,,,,,,,,,Nursing Home,,,,900 HIGHWAY 466,,,LADY LAKE,Lake,,FL,,32159,,28.91375769999999,-81.9418701,
VISTA MANOR,,,,,,,1550 JESS PARRISH CT,,TITUSVILLE,,,,,Brevard,32796-2147,FL,,(321) 269-2200,,,www.consulatehealthcare.com,,,,,,,,,,,,,,Nursing Home,,,,1550 JESS PARRISH CT,,,TITUSVILLE,Brevard,,FL,,32796-2147,,28.6280519,-80.819285,
W FRANK WELLS NURSING HOME,,,,,,,210 N 2ND ST,,MACCLENNY,,,,,Baker,32063,FL,,(904) 259-6168,,,BCMEDSVCS.COM,,,,,,,,,,,,,,Nursing Home,,,,210 N 2ND ST,,,MACCLENNY,Baker,,FL,,32063,,30.2809091,-82.1170434,
WASHINGTON REHABILITATION AND NURSING CENTER,,,,,,,879 USERY ROAD,,CHIPLEY,,,,,Washington,32428,FL,,(850) 638-4654,,,http://washingtonrehabandnursing.com/,,,,,,,,,,,,,,Nursing Home,,,,879 USERY ROAD,,,CHIPLEY,Washington,,FL,,32428,,30.766751,-85.5439937,
WATER'S EDGE EXTENDED CARE,,,,,,,1500 SW CAPRI ST,,PALM CITY,,,,,Martin,34990,FL,,(772) 223-5863,,,www.sandhillcove.com,,,,,,,,,,,,,,Nursing Home,,,,1500 SW CAPRI ST,,,PALM CITY,Martin,,FL,,34990,,27.188677,-80.27536099999999,
WATERFORD  THE,,,,,,,601 UNIVERSE BLVD,,JUNO BEACH,,,,,Palm Beach,33408,FL,,(561) 627-3800,,,thewaterford.com,,,,,,,,,,,,,,Nursing Home,,,,601 UNIVERSE BLVD,,,JUNO BEACH,Palm Beach,,FL,,33408,,26.8573598,-80.05885599999999,
WAVE CREST HEALTH AND REHABILITATION CENTER,,,,,,,1415 S HICKORY ST,,MELBOURNE,,,,,Brevard,32901,FL,,(321) 723-1321,,,,,,,,,,,,,,,,,Nursing Home,,,,1415 S HICKORY ST,,,MELBOURNE,Brevard,,FL,,32901,,28.0866825,-80.6128207,
WEDGEWOOD HEALTHCARE CENTER,,,,,,,1010 CARPENTERS WAY,,LAKELAND,,,,,Polk,33809-3926,FL,,(863) 815-0488,,,www.consulatehealthcare.com,,,,,,,,,,,,,,Nursing Home,,,,1010 CARPENTERS WAY,,,LAKELAND,Polk,,FL,,33809-3926,,28.099727,-81.971131,
WEST BAY OF TAMPA,,,,,,,3865 TAMPA RD,,OLDSMAR,,,,,Pinellas,34677,FL,,(813) 855-4661,,,,,,,,,,,,,,,,,Nursing Home,,,,3865 TAMPA RD,,,OLDSMAR,Pinellas,,FL,,34677,,28.0420414,-82.6700598,
WEST BROWARD REHABILITATION AND HEALTHCARE,,,,,,,7751 W BROWARD BLVD,,PLANTATION,,,,,Broward,33324,FL,,(954) 473-8040,,,www.westbrowardcare.com,,,,,,,,,,,,,,Nursing Home,,,,7751 W BROWARD BLVD,,,PLANTATION,Broward,,FL,,33324,,26.1215547,-80.25097099999999,
WEST GABLES HEALTH CARE CENTER,,,,,,,2525 SW 75TH AVENUE,,MIAMI,,,,,Miami-Dade,33155,FL,,(305) 265-9391,,,www.westgableshealthcare.com,,,,,,,,,,,,,,Nursing Home,,,,2525 SW 75TH AVENUE,,,MIAMI,Miami-Dade,,FL,,33155,,25.7471447,-80.3170383,
WEST JACKSONVILLE CARE AND REHABILITATION CENTER,,,,,,,1600 FOURAKER RD,,JACKSONVILLE,,,,,Duval,32221,FL,,(904) 786-8668,,,,,,,,,,,,,,,,,Nursing Home,,,,1650 FOURAKER RD,,,JACKSONVILLE,Duval,,FL,,32221,,30.2904097,-81.782321,Westside
WEST MELBOURNE HEALTH & REHABILITATION CENTER,,,,,,,2125 WEST NEW HAVEN AVE,,WEST MELBOURNE,,,,,Brevard,32904,FL,,(321) 725-7360,,,www.westmelbournehealthandrehab.com,,,,,,,,,,,,,,Nursing Home,,,,2125 WEST NEW HAVEN AVE,,,WEST MELBOURNE,Brevard,,FL,,32904,,28.0777468,-80.6566438,
WESTCHESTER GARDENS HEALTH & REHABILITATION,,,,,,,3301 N MCMULLEN BOOTH RD,,CLEARWATER,,,,,Pinellas,33761,FL,,(727) 785-8335,,,www.westchestergardens.com,,,,,,,,,,,,,,Nursing Home,,,,3301 N MCMULLEN BOOTH RD,,,CLEARWATER,Pinellas,,FL,,33761,,28.0413711,-82.70692059999999,
WESTMINSTER MANOR OF BRADENTON,,,,,,,80 W LUCERNE CIR,,ORLANDO,,,,,Orange,32801-3779,FL,,(941) 748-4161,,,westminsterretirement.com,,,,,,,,,,,,,,Nursing Home,,,,1700 21ST AVE W,,,BRADENTON,Manatee,,FL,,34205,,27.481806,-82.57874,
WESTMINSTER OAKS,,,,,,,4449 MEANDERING WAY,,TALLAHASSEE,,,,,Leon,32308,FL,,(850) 878-1136,,,westminsterretirement.com,,,,,,,,,,,,,,Nursing Home,,,,4449 MEANDERING WAY,,,TALLAHASSEE,Leon,,FL,,32308,,30.4782909,-84.20479739999999,
WESTMINSTER PALMS,,,,,,,830 NORTH SHORE DR NE,,SAINT PETERSBURG,,,,,Pinellas,33701,FL,,(727) 894-2102,,,westminsterretirement.com,,,,,,,,,,,,,,Nursing Home,,,,830 NORTH SHORE DR NE,,,SAINT PETERSBURG,Pinellas,,FL,,33701,,27.78101,-82.6280007,Historic Old Northeast
WESTMINSTER SUNCOAST,,,,,,,80 W LUCERNE CIR,,ORLANDO,,,,,Orange,32801-3779,FL,,(727) 867-1131,,,westminsterretirement.com,,,,,,,,,,,,,,Nursing Home,,,,1095 PINELLAS POINT DR S,,,SAINT PETERSBURG,Pinellas,,FL,,33705-6272,,27.7066785,-82.6469233,Greater Pinellas Point
WESTMINSTER TOWERS,,,,,,,70 WEST LUCERNE CIRCLE,,ORLANDO,,,,,Orange,32801,FL,,(407) 841-1310,,,www.westminsterretirement.com,,,,,,,,,,,,,,Nursing Home,,,,70 WEST LUCERNE CIRCLE,,,ORLANDO,Orange,,FL,,32801,,28.5329889,-81.3791962,Southeast Orlando
WESTMINSTER TOWERS AND SHORES OF BRADENTON,,,,,,,1533 4TH AVE W,,BRADENTON,,,,,Manatee,34205,FL,,(941) 747-1881,,,westminsterretirement.com,,,,,,,,,,,,,,Nursing Home,,,,1533 4TH AVE W,,,BRADENTON,Manatee,,FL,,34205,,27.496834,-82.57727899999999,
WESTMINSTER WINTER  PARK,,,,,,,1111 S LAKEMONT AVE,STE 101,WINTER PARK,,,,,Orange,32792-5469,FL,,(407) 647-4083,,,www.westminsterretirement.com,,,,,,,,,,,,,,Nursing Home,,,,1111 S LAKEMONT AVE,,,WINTER PARK,Orange,,FL,,32792-5469,,28.583012,-81.3292728,
WESTMINSTER WOODS ON JULINGTON CREEK,,,,,,,25 STATE ROAD 13,,JACKSONVILLE,,,,,St. Johns,32259,FL,,(904) 287-7300,,,westminsterretirement.com,,,,,,,,,,,,,,Nursing Home,,,,25 STATE ROAD 13,,,JACKSONVILLE,St. Johns,,FL,,32259,,30.127687,-81.623677,
WESTWOOD NURSING AND REHABILITATION CENTER,,,,,,,1001 MAR-WALT DR,,FORT WALTON BEACH,,,,,Okaloosa,32547,FL,,(850) 863-5174,,,,,,,,,,,,,,,,,Nursing Home,,,,1001 MAR-WALT DRIVE,,,FORT WALTON BEACH,Okaloosa,,FL,,32547,,30.4563365,-86.63112009999999,
WHISPERING OAKS,,,,,,,1514 E CHELSEA ST,,TAMPA,,,,,Hillsborough,33610,FL,,(813) 238-6406,,,whisperingoakshealthandrehab.com,,,,,,,,,,,,,,Nursing Home,,,,1514 E CHELSEA ST,,,TAMPA,Hillsborough,,FL,,33610,,27.9855446,-82.44199460000002,East Tampa
WHITEHALL BOCA RATON,,,,,,,7300 DEL PRADO CIRCLE SOUTH,,BOCA RATON,,,,,Palm Beach,33433,FL,,(561) 392-3000,,,www.whitehallboca.com,,,,,,,,,,,,,,Nursing Home,,,,7300 DEL PRADO CIRCLE SOUTH,,,BOCA RATON,Palm Beach,,FL,,33433,,26.3525855,-80.1590678,
WILLISTON CARE CENTER,,,,,,,300 NW 1ST AVE,,WILLISTON,,,,,Levy,32696,FL,,(352) 528-3561,,,http://willistonrehab.com,,,,,,,,,,,,,,Nursing Home,,,,300 NW 1ST AVE,,,WILLISTON,Levy,,FL,,32696,,29.388386,-82.4510088,
WILLOWBROOKE COURT AT AZALEA TRACE,,,,,,,10100 HILLVIEW DR,,PENSACOLA,,,,,Escambia,32514,FL,,(850) 478-5200,,,https://www.actsretirement.org/communities/florida/azalea-trace-pensacola/,,,,,,,,,,,,,,Nursing Home,,,,10100 HILLVIEW DR,,,PENSACOLA,Escambia,,FL,,32514,,30.53915499999999,-87.206732,North Northwest Pensacola
WILLOWBROOKE COURT AT INDIAN RIVER ESTATES,,,,,,,2440 CITRUS BLOSSOM CIR,,VERO BEACH,,,,,Indian River,32966-5148,FL,,(772) 562-8700,,,actsretirement.org,,,,,,,,,,,,,,Nursing Home,,,,2440 CITRUS BLOSSOM CIR,,,VERO BEACH,Indian River,,FL,,32966-5148,,27.6411949,-80.4816554,
WILLOWBROOKE COURT AT ST ANDREWS ESTATES,,,,,,,6152 N VERDE TRAIL,,BOCA RATON,,,,,Palm Beach,33433,FL,,(561) 487-5200,,,www.actsretirement.org,,,,,,,,,,,,,,Nursing Home,,,,6152 N VERDE TRAIL,,,BOCA RATON,Palm Beach,,FL,,33433,,26.3629968,-80.1404592,
WILLOWBROOKE COURT SKILLED CARE CENTER- EDGEWATER AT BOCA POINTE,,,,,,,23305 BLUE WATER CIRCLE,,BOCA RATON,,,,,Palm Beach,33433-7053,FL,,(561) 368-5600,,,www.actsretirement.org,,,,,,,,,,,,,,Nursing Home,,,,23305 BLUE WATER CIRCLE,,,BOCA RATON,Palm Beach,,FL,,33433,,26.3297937,-80.15177179999999,
WILTON MANORS HEALTH & REHABILITATION CENTER,,,,,,,2675 N ANDREWS AVE,,WILTON MANORS,,,,,Broward,33311,FL,,(954) 563-5711,,,www.greystonehealth.com,,,,,,,,,,,,,,Nursing Home,,,,2675 N ANDREWS AVE,,,WILTON MANORS,Broward,,FL,,33311,,26.1604512,-80.1470594,
WINDSOR HEALTH AND REHABILITATION CENTER,,,,,,,602 E LAURA ST,,STARKE,,,,,Bradford,32091,FL,,(904) 964-3383,,,,,,,,,,,,,,,,,Nursing Home,,,,602 E LAURA ST,,,STARKE,Bradford,,FL,,32091,,29.93947069999999,-82.1069821,
WINDSOR WOODS REHAB AND HEALTHCARE CENTER,,,,,,,13719 DALLAS DR,,HUDSON,,,,,Pasco,34667,FL,,(727) 862-6795,,,windsorwoodshealthandrehab.com,,,,,,,,,,,,,,Nursing Home,,,,13719 DALLAS DR,,,HUDSON,Pasco,,FL,,34667,,28.3576348,-82.6919011,
WINKLER COURT,,,,,,,3250 WINKLER AVENUE EXTENSION,,FORT MYERS,,,,,Lee,33916,FL,,(239) 939-4993,,,www.winklercourt.com,,,,,,,,,,,,,,Nursing Home,,,,3250 WINKLER AVENUE EXTENSION,,,FORT MYERS,Lee,,FL,,33916,,26.6041976,-81.8456332,Colonial Oaks
WINTER HAVEN HEALTH AND REHABILITATION CENTER,,,,,,,202 AVE O NE,,WINTER HAVEN,,,,,Polk,33881,FL,,(863) 293-3103,,,winterhavenhealthandrehab.com,,,,,,,,,,,,,,Nursing Home,,,,202 AVE O NE,,,WINTER HAVEN,Polk,,FL,,33881,,28.03607389999999,-81.7249691,
WINTER PARK CARE & REHABILITATION CENTER,,,,,,,2970 SCARLETT RD,,WINTER PARK,,,,,Orange,32792,FL,,(407) 671-8030,,,,,,,,,,,,,,,,,Nursing Home,,,,2970 SCARLETT RD,,,WINTER PARK,Orange,,FL,,32792,,28.5967983,-81.3090666,
WOOD LAKE HEALTH AND REHABILITATION CENTER,,,,,,,6414 13TH RD S,,GREENACRES,,,,,Palm Beach,33415-1401,FL,,(561) 478-9900,,,www.consulatehealthcare.com,,,,,,,,,,,,,,Nursing Home,,,,6414 13TH RD S,,,GREENACRES,Palm Beach,,FL,,33415-1401,,26.6569823,-80.1435856,
WOODBRIDGE CARE CENTER,,,,,,,8720 JACKSON SPRINGS RD,,TAMPA,,,,,Hillsborough,33615-3210,FL,,(813) 341-5600,,,,,,,,,,,,,,,,,Nursing Home,,,,8720 JACKSON SPRINGS RD,,,TAMPA,Hillsborough,,FL,,33615-3210,,28.0006295,-82.579844,Town N Country Alliance
WOODLAND GROVE HEALTH & REHABILITATION CENTER,,,,,,,4325 SOUTHPOINT BLVD,,JACKSONVILLE,,,,,Duval,32216,FL,,(904) 245-7620,,,www.greystonehealth.com,,,,,,,,,,,,,,Nursing Home,,,,4325 SOUTHPOINT BOULEVARD,,,JACKSONVILLE,Duval,,FL,,32216,,30.2539738,-81.5872002,Southside
WRIGHTS HEALTHCARE AND REHABILITATION CENTER,,,,,,,11300 110TH AVE N,,SEMINOLE,,,,,Pinellas,33778-3711,FL,,(727) 391-9986,,,www.wrightshealthcare.com,,,,,,,,,,,,,,Nursing Home,,,,11300 110TH AVE N,,,SEMINOLE,Pinellas,,FL,,33778-3711,,27.872577,-82.79598,
YBOR CITY HEALTHCARE AND REHABILITATION CENTER,,,,,,,1709 TALIAFERRO AVE,,TAMPA,,,,,Hillsborough,33602,FL,,(813) 223-4623,,,www.yborcityhealthandrehab.com,,,,,,,,,,,,,,Nursing Home,,,,1709 TALIAFERRO AVE,,,TAMPA,Hillsborough,,FL,,33602,,27.9601056,-82.45247820000002,South Nebraska
ZEPHYR HAVEN HEALTH & REHAB CENTER  INC,,,,,,,38250 A AVE,,ZEPHYRHILLS,,,,,Pasco,33542,FL,,(813) 782-5508,,,www.zephyrhaven.com,,,,,,,,,,,,,,Nursing Home,,,,38250 A AVE,,,ZEPHYRHILLS,Pasco,,FL,,33542,,28.2283963,-82.1832149,Moores
ZEPHYRHILLS HEALTH & REHAB CENTER  INC,,,,,,,7350 DAIRY RD,,ZEPHYRHILLS,,,,,Pasco,33540,FL,,(813) 788-4300,,,www.zephyrhillshealth.com,,,,,,,,,,,,,,Nursing Home,,,,7350 DAIRY RD,,,ZEPHYRHILLS,Pasco,,FL,,33540,,28.264687,-82.1826109,Zephyrhills Colony Company
CASA MORA REHABILITATION AND EXTENDED CARE,,,,,,,1902 59TH ST W,,BRADENTON,,,,,Manatee,34209,FL,,(941) 761-1000,,,Casamorarehabilitationandextendedcare.com,,,,,,,,,,,,,,Nursing Home,,,,1902 59TH ST W,,,BRADENTON,Manatee,,FL,,34209,,27.4842332,-82.62406550000001,
CATHEDRAL GERONTOLOGY CENTER  INC,,,,,,,333 E ASHLEY ST,,JACKSONVILLE,,,,,Duval,32202,FL,,(904) 798-5300,,,cathedralcarejax.com,,,,,,,,,,,,,,Nursing Home,,,,333 E ASHLEY ST,,,JACKSONVILLE,Duval,,FL,,32202,,30.33012699999999,-81.652002,Downtown
CENTRAL PARK HEALTHCARE AND REHABILITATION CENTER,,,,,,,702 S KINGS AVE,,BRANDON,,,,,Hillsborough,33511-5925,FL,,(813) 651-1818,,,www.consulatehealthcare.com,,,,,,,,,,,,,,Nursing Home,,,,702 S KINGS AVE,,,BRANDON,Hillsborough,,FL,,33511-5925,,27.9281592,-82.2949826,
CENTRE POINTE HEALTH AND REHAB CENTER,,,,,,,2255 CENTERVILLE ROAD,,TALLAHASSEE,,,,,Leon,32308-4315,FL,,(850) 386-4054,,,www.centrepointerehab.com,,,,,,,,,,,,,,Nursing Home,,,,2255 CENTERVILLE ROAD,,,TALLAHASSEE,Leon,,FL,,32308,,30.4755641,-84.2404329,Melody Hills
CENTURY HEALTH AND REHABILITATION CENTER,,,,,,,6020 INDUSTRIAL BLVD,,CENTURY,,,,,Escambia,32535,FL,,(850) 256-1540,,,www.centuryhrc.com,,,,,,,,,,,,,,Nursing Home,,,,6020 INDUSTRIAL BLVD,,,CENTURY,Escambia,,FL,,32535,,30.971315,-87.27308699999999,Century Industrial Park
CHATEAU AT MOORINGS PARK  THE,,,,,,,130 MOORINGS PARK DRIVE,,NAPLES,,,,,Collier,34105,FL,,(239) 430-6319,,,www.mooringspark.org,,,,,,,,,,,,,,Nursing Home,,,,130 MOORINGS PARK DRIVE,,,NAPLES,Collier,,FL,,34105,,26.2027366,-81.7910947,Central Naples
CHATSWORTH AT PGA NATIONAL  LLC,,,,,,,347 HIATT DRIVE,,PALM BEACH GARDENS,,,,,Palm Beach,33418,FL,,(561) 227-3200,,,www.chatsworthpga.com,,,,,,,,,,,,,,Nursing Home,,,,347 HIATT DRIVE,,,PALM BEACH GARDENS,Palm Beach,,FL,,33418,,26.8102567,-80.13539279999999,
CHAUTAUQUA REHABILITATION AND NURSING CENTER,,,,,,,785 S 2ND STREET,,DEFUNIAK SPRINGS,,,,,Walton,32435,FL,,(850) 892-2176,,,http://chautauquarehab.com/,,,,,,,,,,,,,,Nursing Home,,,,785 S 2ND STREET,,,DEFUNIAK SPRINGS,Walton,,FL,,32433,,30.70956619999999,-86.1071434,
CHILDREN'S COMPREHENSIVE CARE CENTER  INC.,,,,,,,200 SE 19TH AVENUE,,POMPANO BEACH,,,,,Broward,33060,FL,,(954) 943-7638,,,www.bcckids.org,,,,,,,,,,,,,,Nursing Home,,,,200 SE 19TH AVENUE,,,POMPANO BEACH,Broward,,FL,,33060,,26.2298158,-80.10440679999999,
CHIPOLA HEALTH AND REHABILITATION CENTER,,,,,,,4294 3RD AVENUE,,MARIANNA,,,,,Jackson,32446,FL,,(850) 526-3191,,,,,,,,,,,,,,,,,Nursing Home,,,,4294 3RD AVENUE,,,MARIANNA,Jackson,,FL,,32446,,30.7858426,-85.2379153,
CITRUS HEALTH AND REHABILITATION CENTER,,,,,,,701 MEDICAL COURT EAST,,INVERNESS,,,,,Citrus,34452,FL,,(352) 860-0200,,,www.citrushrc.com,,,,,,,,,,,,,,Nursing Home,,,,701 MEDICAL COURT EAST,,,INVERNESS,Citrus,,FL,,34452,,28.8307053,-82.33822920000001,
CLARIDGE HOUSE NURSING & REHABILITATION CENTER,,,,,,,13900 NE 3RD COURT,,NORTH MIAMI,,,,,Miami-Dade,33161,FL,,(305) 893-2288,,,www.claridgehousemiami.com,,,,,,,,,,,,,,Nursing Home,,,,13900 NE 3RD COURT,,,NORTH MIAMI,Miami-Dade,,FL,,33161,,25.9033389,-80.19312459999999,
CLEARWATER CARE AND REHABILITATION CENTER,,,,,,,2055 PALMETTO ST,,CLEARWATER,,,,,Pinellas,33765,FL,,(727) 461-6613,,,,,,,,,,,,,,,,,Nursing Home,,,,2055 PALMETTO ST,,,CLEARWATER,Pinellas,,FL,,33765,,27.9741786,-82.75199769999999,
CLEARWATER CENTER,,,,,,,1270 TURNER ST,,CLEARWATER,,,,,Pinellas,33756,FL,,(727) 443-7639,,,clearwatercenter.com,,,,,,,,,,,,,,Nursing Home,,,,1270 TURNER ST,,,CLEARWATER,Pinellas,,FL,,33756,,27.9597031,-82.7841411,
CLERMONT HEALTH AND REHABILITATION CENTER,,,,,,,151 E MINNEHAHA AVE,,CLERMONT,,,,,Lake,34711,FL,,(352) 394-2188,,,www.clermonthealthandrehab,,,,,,,,,,,,,,Nursing Home,,,,151 E MINNEHAHA AVE,,,CLERMONT,Lake,,FL,,34711,,28.5464926,-81.7549306,
CLEWISTON NURSING & REHABILITATION,,,,,,,301 SOUTH GLORIA STREET,,CLEWISTON,,,,,Hendry,33440,FL,,(863) 983-5123,,,,,,,,,,,,,,,,,Nursing Home,,,,301 SOUTH GLORIA ST,,,CLEWISTON,Hendry,,FL,,33440,,26.7516949,-80.9428575,
CLIFFORD CHESTER SIMS STATE VETERANS NURSING HOME,,,,,,,4419 TRAM ROAD,,PANAMA CITY,,,,,Bay,32404,FL,,(850) 747-5401,,,www.floridavets.org,,,,,,,,,,,,,,Nursing Home,,,,4419 TRAM ROAD,,,PANAMA CITY,Bay,,FL,,32404,,30.175766,-85.58827099999999,St. Andrews Bay
CLUB HEALTH AND REHABILITATION CENTER AT THE VILLAGES (THE),,,,,,,16529 SE 86TH BELLE MEADE CIRCLE,,THE VILLAGES,,,,,Marion,32162-5885,FL,,(352) 385-8200,,,www.greystonehealth.com,,,,,,,,,,,,,,Nursing Home,,,,16529 SE 86TH BELLE MEADE CIRCLE,,,THE VILLAGES,Marion,,FL,,32162-5885,,28.9805859,-82.0094625,
CLYDE E LASSEN STATE VETERANS NURSING HOME,,,,,,,4650 STATE RD 16,,SAINT AUGUSTINE,,,,,St. Johns,32092,FL,,(904) 940-2193,,,www.floridavets.org,,,,,,,,,,,,,,Nursing Home,,,,4650 STATE RD 16,,,SAINT AUGUSTINE,St. Johns,,FL,,32092,,29.9603853,-81.46762729999999,
COASTAL HEALTH AND REHABILITATION CENTER,,,,,,,820 N  CLYDE MORRIS BLVD,,DAYTONA BEACH,,,,,Volusia,32117,FL,,(386) 274-4575,,,,,,,,,,,,,,,,,Nursing Home,,,,820 N CLYDE MORRIS BLVD,,,DAYTONA BEACH,Volusia,,FL,,32117,,29.2140282,-81.06536559999999,Medical Center
COLONIAL LAKES HEALTH CARE,,,,,,,15204 W COLONIAL DR,,WINTER GARDEN,,,,,Orange,34787-6042,FL,,(407) 877-2394,,,www.consulatehealthcare.com,,,,,,,,,,,,,,Nursing Home,,,,15204 W COLONIAL DR,,,WINTER GARDEN,Orange,,FL,,34787-6042,,28.5502415,-81.6114212,
COMMONS AT ORLANDO LUTHERAN TOWERS,,,,,,,210 LAKE AVENUE,,ORLANDO,,,,,Orange,32801,FL,,(407) 872-7088,,,orlandoseniorhealth.org,,,,,,,,,,,,,,Nursing Home,,,,210 LAKE AVENUE,,,ORLANDO,Orange,,FL,,32801,,28.540081,-81.3729678,Northeast Orlando
COMMUNITY CONVALESCENT CENTER,,,,,,,2202 W OAK AVE,,PLANT CITY,,,,,Hillsborough,33563,FL,,(813) 754-3761,,,http://communitycarehealthandrehab.com,,,,,,,,,,,,,,Nursing Home,,,,2202 W OAK AVE,,,PLANT CITY,Hillsborough,,FL,,33563,,28.01708039999999,-82.1454024,
