name,contact_first_name,contact_last_name,contact_name,email,contact_email,fax,mailing_address_line_1,mailing_address_line_2,mailing_city,mailing_contact_first_name,mailing_contact_last_name,mailing_contact_name,mailing_country,mailing_county,mailing_postalcode,mailing_province,provider_name,primary_phone,secondary_phone,twitter,website,source,contact_occupation,dsgne_first_name,dsgne_last_name,admin_name,co_address_line_1,co_address_line_2,co_company,co_city,co_postalcode,co_province,ombudsman_phone,typeofcare,typeofcare2,low_high_rate,low_rate,high_rate,address_line_1,address_line_2,address_directions,city,municipality,region,province,state_id,postal_code,country,latitude,longitude,neighborhood
10 LEGION DRIVE,,,,,,+1 (207) 582-2457,,,,,,10 LEGION DRIVE,,,,,,+1 (207) 582-8021,,,,,,,,,,,,,,,,,,,,,10 LEGION DR,,,AUGUSTA,KENNEBEC,,ME,,04330-6850,US,44.3371983,-69.62816,
12 A RIVERVIEW STREET,,,,,,+1 (855) 244-8243,,,,,,12 A RIVERVIEW STREET,,,,,,+1 (207) 324-8755,,,,,,,,,,,,,,,,,,,,,12A RIVERVIEW ST,,,SANFORD,YORK,,ME,,04073-2812,US,43.44765409999999,-70.7766096,Sanford
14 GLENRIDGE DRIVE,,,,,,+1 (207) 626-5754,,,,,,14 GLENRIDGE DRIVE,,,,,,+1 (207) 626-5793,,,,,,,,,,,,,,,,,,,,,14 GLENRIDGE DR,,,AUGUSTA,KENNEBEC,,ME,,04330-6606,US,44.3036219,-69.76555669999999,Mayfair
15 BILLABONG WAY,,,,,,+1 (207) 772-3743,,,,,,15 BILLABONG WAY,,,,,,+1 (207) 893-2460,,,,,,,,,,,,,,,,,,,,,15 BILLABONG WAY,,,WINDHAM,CUMBERLAND,,ME,,04062-3358,US,43.7744723,-70.3862195,
16 PLEASANT HILL DRIVE,,,,,,+1 (207) 582-2457,,,,,,16 PLEASANT HILL DRIVE,,,,,,+1 (207) 446-7012,,,,,,,,,,,,,,,,,,,,,16 PLEASANT HILL DR,,,WATERVILLE,KENNEBEC,,ME,,04901-4105,US,44.57721739999999,-69.63468830000001,
1661 MAIN STREET,,,,,,+1 (207) 786-2577,,,,,,1661 MAIN STREET,,,,,,+1 (207) 786-2572,,,,,,,,,,,,,,,,,,,,,1661 MAIN ST,,,LEWISTON,ANDROSCOGGIN,,ME,,04240-2616,US,44.1567985,-70.18490630000001,
1665 MAIN STREET,,,,,,+1 (207) 786-2577,,,,,,1665 MAIN STREET,,,,,,+1 (207) 786-3344,,,,,,,,,,,,,,,,,,,,,1665 MAIN ST,,,LEWISTON,ANDROSCOGGIN,,ME,,04240-2616,US,44.15724219999999,-70.1856573,
18 DEERING ROAD,,,,,,+1 (207) 839-2384,,,,,,18 DEERING ROAD,,,,,,+1 (207) 839-5969,,,,,,,,,,,,,,,,,,,,,18 DEERING RD,,,GORHAM,CUMBERLAND,,ME,,04038-1921,US,43.6362034,-70.44265620000002,
20 COTTAGE STREET,,,,,,+1 (207) 992-4144,,,,,,20 COTTAGE STREET,,,,,,+1 (207) 951-6015,,,,,,,,,,,,,,,,,,,,,20 COTTAGE ST,,,BANGOR,PENOBSCOT,,ME,,04401-3728,US,44.8086574,-68.7840432,
22 GREEN STREET,,,,,,+1 (207) 626-3469,,,,,,22 GREEN STREET,,,,,,+1 (207) 624-0500,,,,,,,,,,,,,,,,,,,,,22 GREEN ST STE 1,,,AUGUSTA,KENNEBEC,,ME,,04330-7473,US,44.3123715,-69.7778592,
222 NORTHERN AVE.,,,,,,+1 (207) 582-2457,,,,,,222 NORTHERN AVE.,,,,,,+1 (207) 588-6617,,,,,,,,,,,,,,,,,,,,,222 NORTHERN AVE,,,FARMINGDALE,KENNEBEC,,ME,,04344-4635,US,44.24133309999999,-69.79104,
247 DINGLEY SPRINGS,,,,,,+1 (207) 772-3743,,,,,,247 DINGLEY SPRINGS,,,,,,+1 (207) 828-0048,,,,,,,,,,,,,,,,,,,,,247 DINGLEY SPRING RD,,,GORHAM,CUMBERLAND,,ME,,04038-2169,US,43.7118777,-70.5322422,
249 LIBBY AVENUE,,,,,,+1 (207) 772-3743,,,,,,249 LIBBY AVENUE,,,,,,+1 (207) 839-6085,,,,,,,,,,,,,,,,,,,,,249 LIBBY AVE,,,GORHAM,CUMBERLAND,,ME,,04038-2617,US,43.6930716,-70.4248879,Gorham
28 PUTNAM DRIVE,,,,,,+1 (207) 582-2457,,,,,,28 PUTNAM DRIVE,,,,,,+1 (207) 582-4692,,,,,,,,,,,,,,,,,,,,,28 PUTNAM DR,,,FARMINGDALE,KENNEBEC,,ME,,04344-2818,US,44.2421447,-69.78653330000002,
286 HIGHLAND AVENUE,,,,,,+1 (207) 582-2457,,,,,,286 HIGHLAND AVENUE,,,,,,+1 (207) 582-8021,,,,,,,,,,,,,,,,,,,,,286 HIGHLAND AVE,,,GARDINER,KENNEBEC,,ME,,04345-6005,US,44.2311145,-69.7933127,
306 PINE STREET GROUP HOME,,,,,,+1 (207) 786-7426,,,,,,306 PINE STREET GROUP HOME,,,,,,+1 (207) 783-4658,,,,,,,,,,,,,,,,,,,,,306 PINE ST,,,LEWISTON,ANDROSCOGGIN,,ME,,04240-6309,US,44.10001159999999,-70.20210879999999,
45 ESSEX STREET,,,,,,+1 (207) 324-6050,,,,,,45 ESSEX STREET,,,,,,+1 (207) 324-2426,,,,,,,,,,,,,,,,,,,,,45 ESSEX ST,,,SANFORD,YORK,,ME,,04073-3229,US,43.431526,-70.7648337,Sanford
47 SUMMER STREET,,,,,,+1 (207) 582-1438,,,,,,47 SUMMER STREET,,,,,,+1 (207) 588-6394,,,,,,,,,,,,,,,,,,,,,47 SUMMER ST,,,GARDINER,KENNEBEC,,ME,,04345-1902,US,44.23120710000001,-69.7760097,
5 COLBY LANE,,,,,,+1 (207) 324-6050,,,,,,5 COLBY LANE,,,,,,+1 (207) 985-0916,,,,,,,,,,,,,,,,,,,,,5 COLBY LN,,,KENNEBUNK,YORK,,ME,,04043-6116,US,43.4099568,-70.5643706,West Kennebunk
55 PALM STREET,,,,,,+1 (207) 945-9997,,,,,,55 PALM STREET,,,,,,+1 (207) 942-5271,,,,,,,,,,,,,,,,,,,,,55 PALM ST,,,BANGOR,PENOBSCOT,,ME,,04401-5403,US,44.8092151,-68.7627213,Tree Streets
56 ELM STREET,,,,,,+1 (866) 531-8540,,,,,,56 ELM STREET,,,,,,+1 (207) 725-1134,,,,,,,,,,,,,,,,,,,,,56 ELM ST,,,TOPSHAM,SAGADAHOC,,ME,,04086-1417,US,43.92617139999999,-69.9535616,Topsham
58 HIGHLAND AVENUE,,,,,,+1 (207) 883-5126,,,,,,58 HIGHLAND AVENUE,,,,,,+1 (207) 883-5126,,,,,,,,,,,,,,,,,,,,,58 HIGHLAND AVE,,,SCARBOROUGH,CUMBERLAND,,ME,,04074-7104,US,43.58616689999999,-70.3130066,
6 ROOSEVELT,,,,,,+1 (888) 460-3866,,,,,,6 ROOSEVELT,,,,,,+1 (207) 460-9303,,,,,,,,,,,,,,,,,,,,,6 ROOSEVELT AVE,,,BREWER,PENOBSCOT,,ME,,04412-2510,US,44.7651989,-68.78291209999999,
66 WINTHROP STREET PROGRAM,,,,,,+1 (207) 213-2068,,,,,,66 WINTHROP STREET PROGRAM,,,,,,+1 (207) 626-3466,,,,,,,,,,,,,,,,,,,,,66 WINTHROP ST,,,AUGUSTA,KENNEBEC,,ME,,04330-5506,US,44.31519629999999,-69.7796074,
7 RIVERVIEW STREET,,,,,,+1 (207) 324-6050,,,,,,7 RIVERVIEW STREET,,,,,,+1 (207) 324-7955,,,,,,,,,,,,,,,,,,,,,7 RIVERVIEW ST,,,SANFORD,YORK,,ME,,04073-2844,US,43.4487299,-70.7769034,Sanford
73 BAILEY AVENUE,,,,,,,,,,,,73 BAILEY AVENUE,,,,,,+1 (207) 689-3424,,,,,,,,,,,,,,,,,,,,,73 BAILEY AVE,,,LEWISTON,ANDROSCOGGIN,,ME,,04240-3304,US,44.1037987,-70.158901,
79 CARRIER COURT,,,,,,+1 (207) 782-1734,,,,,,79 CARRIER COURT,,,,,,+1 (207) 376-4845,,,,,,,,,,,,,,,,,,,,,79 CARRIER CT,,,AUBURN,ANDROSCOGGIN,,ME,,04210-8216,US,44.0616837,-70.2123081,
8 BLANCHETTE STREET,,,,,,+1 (207) 782-1734,,,,,,8 BLANCHETTE STREET,,,,,,+1 (207) 689-3224,,,,,,,,,,,,,,,,,,,,,8 BLANCHETTE ST,,,LEWISTON,ANDROSCOGGIN,,ME,,04240-4730,US,44.1082373,-70.1885681,
93 RIDLEY ROAD,,,,,,+1 (207) 324-6050,,,,,,93 RIDLEY ROAD,,,,,,+1 (207) 590-9128,,,,,,,,,,,,,,,,,,,,,93 RIDLEY RD,,,SANFORD,YORK,,ME,,04073-6215,US,43.46695690000001,-70.77048169999999,
ABBOT HOUSE,,,,,,+1 (207) 876-2945,,,,,,ABBOT HOUSE,,,,,,+1 (207) 876-3703,,,,,,,,,,,,,,,,,,,,,76 WEST RD,,,ABBOT,PISCATAQUIS,,ME,,04406-3022,US,45.1802482,-69.4915228,
ACHIEVEMENT HOUSE,,,,,,+1 (207) 737-2443,,,,,,ACHIEVEMENT HOUSE,,,,,,+1 (207) 725-9330,,,,,,,,,,,,,,,,,,,,,54 BARROWS DR,,,TOPSHAM,SAGADAHOC,,ME,,04086-1324,US,43.9329273,-69.9687138,Topsham
ADDISON HOUSE,,,,,,+1 (207) 483-2817,,,,,,ADDISON HOUSE,,,,,,+1 (207) 483-4341,,,,,,,,,,,,,,,,,,,,,2 RIVERVIEW LANE,,,ADDISON,WASHINGTON,,ME,,4606,US,44.5585331,-67.66724789999999,
ALBANY STREET,,,,,,+1 (207) 699-2155,,,,,,ALBANY STREET,,,,,,+1 (207) 828-9469,,,,,,,,,,,,,,,,,,,,,49 ALBANY STREET EXT,,,SOUTH PORTLAND,CUMBERLAND,,ME,,04106-6007,US,43.61552750000001,-70.3139264,Sunset Park
ALLISON AVENUE,,,,,,+1 (207) 879-1146,,,,,,ALLISON AVENUE,,,,,,+1 (207) 774-7911,,,,,,,,,,,,,,,,,,,,,56 ALLISON AVE,,,PORTLAND,CUMBERLAND,,ME,,04103-1655,US,43.7133221,-70.3017546,North Deering
ALORA STREET,,,,,,+1 (207) 795-6722,,,,,,ALORA STREET,,,,,,+1 (207) 353-8295,,,,,,,,,,,,,,,,,,,,,19 ALORA ST,,,LISBON FALLS,ANDROSCOGGIN,,ME,,04252-1442,US,44.0119862,-70.0668112,Lisbon Falls
ALWAYS ONE,,,,,,+1 (207) 945-9997,,,,,,ALWAYS ONE,,,,,,+1 (207) 945-9998,,,,,,,,,,,,,,,,,,,,,172 GROVE ST,,,BANGOR,PENOBSCOT,,ME,,04401-4008,US,44.81029090000001,-68.76650599999999,
ALZHEIMERS CARE CENTER,,,,,,+1 (207) 626-1814,,,,,,ALZHEIMERS CARE CENTER,,,,,,+1 (207) 626-1770,,,,,,,,,,,,,,,,,,,,,154 DRESDEN AVE,,,GARDINER,KENNEBEC,,ME,,04345-2615,US,44.2223,-69.767917,
ALZHEIMER'S CARE CENTER ADULT DAY SERVICES,,,,,,+1 (207) 626-1814,,,,,,ALZHEIMER'S CARE CENTER ADULT DAY SERVICES,,,,,,+1 (207) 626-1834,,,,,,,,,,,,,,,,,,,,,154 DRESDEN AVE,,,GARDINER,KENNEBEC,,ME,,04345-2615,US,44.2223,-69.767917,
AMHERST HOUSE,,,,,,+1 (866) 249-1047,,,,,,AMHERST HOUSE,,,,,,+1 (207) 622-7566,,,,,,,,,,,,,,,,,,,,,25 AMHERST ST,,,BIDDEFORD,YORK,,ME,,04005-2966,US,43.4868122,-70.4709196,
ANCHOR SENIOR CARE RESIDENCE,,,,,,+1 (207) 324-8849,,,,,,ANCHOR SENIOR CARE RESIDENCE,,,,,,+1 (207) 324-4046,,,,,,,,,,,,,,,,,,,,,25 OAK ST,,,SPRINGVALE,YORK,,ME,,04083-1927,US,43.4638669,-70.7993335,Springvale
ANDERSON LANE WAIVER-ALW,,,,,,+1 (207) 612-0042,,,,,,ANDERSON LANE WAIVER-ALW,,,,,,+1 (207) 612-0024,,,,,,,,,,,,,,,,,,,,,15 ANDERSON LN,,,CANAAN,SOMERSET,,ME,,04924-3720,US,44.72164110000001,-69.52918919999999,
ANDY'S PLACE,,,,,,+1 (207) 364-2143,,,,,,ANDY'S PLACE,,,,,,+1 (207) 364-3549,,,,,,,,,,,,,,,,,,,,,409 MAPLE ST,,,RUMFORD,OXFORD,,ME,,04276-2115,US,44.54973599999999,-70.559135,Rumford
ANGEL HAVEN ASSISTED LIVING,,,,,,+1 (888) 460-3866,,,,,,ANGEL HAVEN ASSISTED LIVING,,,,,,+1 (207) 460-9303,,,,,,,,,,,,,,,,,,,,,532 UNION ST,,,BANGOR,PENOBSCOT,,ME,,04401-3751,US,44.8068731,-68.78952989999999,
ANNETTE OVERLOCK HOME,,,,,,+1 (207) 236-0690,,,,,,ANNETTE OVERLOCK HOME,,,,,,+1 (207) 594-2537,,,,,,,,,,,,,,,,,,,,,22 CANNS BEACH RD,,,OWLS HEAD,KNOX,,ME,,04854-3627,US,44.0507779,-69.0849309,
ANSON STREET,,,,,,+1 (207) 860-4035,,,,,,ANSON STREET,,,,,,+1 (207) 860-4055,,,,,,,,,,,,,,,,,,,,,118 ANSON ST,,,FARMINGTON,FRANKLIN,,ME,,04938-5735,US,44.6727677,-70.1515532,Farmington
APPLE RIDGE,,,,,,+1 (207) 273-3355,,,,,,APPLE RIDGE,,,,,,+1 (207) 666-8130,,,,,,,,,,,,,,,,,,,,,27 STODDARD POND RD,,,BOWDOIN,SAGADAHOC,,ME,,04287-7745,US,44.0262407,-69.94036919999999,
ARBOR TERRACE,,,,,,+1 (844) 445-5254,,,,,,ARBOR TERRACE,,,,,,+1 (207) 582-1878,,,,,,,,,,,,,,,,,,,,,13 PLAISTED ST,,,GARDINER,KENNEBEC,,ME,,04345-1821,US,44.2338111,-69.78174969999999,
ARBOR VIEW,,,,,,+1 (207) 879-1146,,,,,,ARBOR VIEW,,,,,,+1 (207) 883-0381,,,,,,,,,,,,,,,,,,,,,9 ARBOR VIEW LN,,,SCARBOROUGH,CUMBERLAND,,ME,,04074-8389,US,43.5958958,-70.3213181,Scarborough
AROOSTOOK AREA AGENCY ON AGING-ADULT DAY CARE,,,,,,+1 (207) 764-6182,,,,,,AROOSTOOK AREA AGENCY ON AGING-ADULT DAY CARE,,,,,,+1 (207) 764-6185,,,,,,,,,,,,,,,,,,,,,33 DAVIS ST,,,PRESQUE ISLE,AROOSTOOK,,ME,,04769-2218,US,46.6909939,-68.00820550000002,
ARUNDEL A,,,,,,+1 (207) 777-1109,,,,,,ARUNDEL A,,,,,,+1 (207) 282-1930,,,,,,,,,,,,,,,,,,,,,84 S SKILLINGS RD,,,ARUNDEL,YORK,,ME,,04046-8517,US,43.45349819999999,-70.5356508,
ARUNDEL B,,,,,,+1 (207) 777-1109,,,,,,ARUNDEL B,,,,,,+1 (207) 795-0672,,,,,,,,,,,,,,,,,,,,,81 S SKILLINGS RD,,,ARUNDEL,YORK,,ME,,04046-8516,US,43.4527203,-70.5348921,
ASI-FAIRFIELD,,,,,,+1 (207) 453-9845,,,,,,ASI-FAIRFIELD,,,,,,+1 (207) 453-9845,,,,,,,,,,,,,,,,,,,,,24 SUMMIT ST,,,FAIRFIELD,SOMERSET,,ME,,04937-1212,US,44.5874483,-69.6009151,Fairfield
ATHENS HOUSE,,,,,,+1 (207) 654-2204,,,,,,ATHENS HOUSE,,,,,,+1 (207) 654-2204,,,,,,,,,,,,,,,,,,,,,21 NORTH RD,,,ATHENS,SOMERSET,,ME,,04912-4001,US,44.95686440000001,-69.712542,
ATRIA KENNEBUNK,,,,,,+1 (207) 467-9121,,,,,,ATRIA KENNEBUNK,,,,,,+1 (207) 883-3889,,,,,,,,,,,,,,,,,,,,,1 PENNY LN,,,KENNEBUNK,YORK,,ME,,04043-6635,US,43.3904821,-70.5337125,Kennebunk
ATRIA SCARBOROUGH,,,,,,+1 (207) 883-1068,,,,,,ATRIA SCARBOROUGH,,,,,,+1 (207) 883-3889,,,,,,,,,,,,,,,,,,,,,18 BLACK POINT RD,,,SCARBOROUGH,CUMBERLAND,,ME,,04074-9816,US,43.588293,-70.33389249999999,Scarborough
ATWOOD LANE,,,,,,+1 (207) 549-7197,,,,,,ATWOOD LANE,,,,,,+1 (207) 549-3542,,,,,,,,,,,,,,,,,,,,,25 OXBOW LANE,,,WHITEFIELD,LINCOLN,,ME,,4353,US,44.2218671,-69.5993912,
AUBURN,,,,,,+1 (207) 453-9845,,,,,,AUBURN,,,,,,+1 (207) 312-5726,,,,,,,,,,,,,,,,,,,,,30 SACRED HEART PL,,,AUBURN,ANDROSCOGGIN,,ME,,04210-4938,US,44.0886189,-70.23516479999999,
AUBURN GROUP HOME,,,,,,+1 (844) 468-9584,,,,,,AUBURN GROUP HOME,,,,,,+1 (207) 783-8671,,,,,,,,,,,,,,,,,,,,,109 DAVIS AVE,,,AUBURN,ANDROSCOGGIN,,ME,,04210-4767,US,44.1030012,-70.24183110000001,
AUBURN RESIDENTIAL CARE CENTER,,,,,,+1 (207) 784-5685,,,,,,AUBURN RESIDENTIAL CARE CENTER,,,,,,+1 (207) 786-0676,,,,,,,,,,,,,,,,,,,,,185 SUMMER ST,,,AUBURN,ANDROSCOGGIN,,ME,,04210-5125,US,44.10680110000001,-70.23181389999999,
AUGUSTA ONE,,,,,,+1 (207) 621-2913,,,,,,AUGUSTA ONE,,,,,,+1 (207) 423-0531,,,,,,,,,,,,,,,,,,,,,26 CREATIVE WAY,,Intersection 735 Riverside Drive,AUGUSTA,KENNEBEC,,ME,,04330-8329,US,44.5539436,-69.64769849999999,
AUGUSTA TWO,,,,,,+1 (207) 621-9864,,,,,,AUGUSTA TWO,,,,,,+1 (207) 423-0531,,,,,,,,,,,,,,,,,,,,,33 CREATIVE WAY,,,AUGUSTA,KENNEBEC,,ME,,04330-8329,US,44.5539436,-69.64769849999999,
AVITA OF BRUNSWICK,,,,,,+1 (207) 729-0222,,,,,,AVITA OF BRUNSWICK,,,,,,+1 (207) 729-6222,,,,,,,,,,,,,,,,,,,,,89 ADMIRAL FITCH AVE,,,BRUNSWICK,CUMBERLAND,,ME,,04011-2700,US,43.9004613,-69.9216568,Brunswick Station
AVITA OF STROUDWATER,,,,,,+1 (207) 857-9017,,,,,,AVITA OF STROUDWATER,,,,,,+1 (207) 857-9007,,,,,,,,,,,,,,,,,,,,,320 SPRING ST,,,WESTBROOK,CUMBERLAND,,ME,,04092-3915,US,43.66586770000001,-70.3587135,
AVITA OF WELLS,,,,,,+1 (207) 646-5444,,,,,,AVITA OF WELLS,,,,,,+1 (207) 646-3444,,,,,,,,,,,,,,,,,,,,,86 SANFORD RD,,,WELLS,YORK,,ME,,04090-5532,US,43.3224268,-70.581387,
BALSAM HOUSE,,,,,,,,,,,,BALSAM HOUSE,,,,,,+1 (207) 685-3286,,,,,,,,,,,,,,,,,,,,,256 GORDEN RD,,,READFIELD,KENNEBEC,,ME,,04355-3016,US,44.3745374,-69.8872315,
BARRON CENTER ADULT DAY CARE I,,,,,,+1 (207) 774-8622,,,,,,BARRON CENTER ADULT DAY CARE I,,,,,,+1 (207) 541-6620,,,,,,,,,,,,,,,,,,,,,1145 BRIGHTON AVE,,,PORTLAND,CUMBERLAND,,ME,,04102-1025,US,43.676937,-70.3258192,Nasons Corner
BARRON CENTER ADULT DAY CARE II,,,,,,+1 (207) 541-6623,,,,,,BARRON CENTER ADULT DAY CARE II,,,,,,+1 (207) 541-6620,,,,,,,,,,,,,,,,,,,,,1145 BRIGHTON AVE,,,PORTLAND,CUMBERLAND,,ME,,04102-1025,US,43.676937,-70.3258192,Nasons Corner
BARTLETT WOODS,,,,,,+1 (207) 594-1154,,,,,,BARTLETT WOODS,,,,,,+1 (207) 594-1163,,,,,,,,,,,,,,,,,,,,,180 TALBOT AVENUE,,,ROCKLAND,KNOX,,ME,,4841,US,44.10972049999999,-69.12321519999999,
BATH STREET HOME,,,,,,+1 (207) 443-8887,,,,,,BATH STREET HOME,,,,,,+1 (207) 386-5163,,,,,,,,,,,,,,,,,,,,,68 BATH ST,,,BATH,SAGADAHOC,,ME,,04530-1940,US,43.9065239,-69.81926279999999,
BAXTER PLACE AT SEASIDE REHAB,,,,,,+1 (207) 775-2811,,,,,,BAXTER PLACE AT SEASIDE REHAB,,,,,,+1 (207) 774-7878,,,,,,,,,,,,,,,,,,,,,850 BAXTER BLVD,,,PORTLAND,CUMBERLAND,,ME,,04103-4901,US,43.6799045,-70.2624877,East Deering
BAY SQUARE AT YARMOUTH,,,,,,+1 (207) 846-0144,,,,,,BAY SQUARE AT YARMOUTH,,,,,,+1 (207) 846-0044,,,,,,,,,,,,,,,,,,,,,27 FOREST FALLS DR,,,YARMOUTH,CUMBERLAND,,ME,,04096-6972,US,43.805142,-70.184033,
BAY SQUARE AT YARMOUTH ADULT DAY,,,,,,+1 (207) 846-0144,,,,,,BAY SQUARE AT YARMOUTH ADULT DAY,,,,,,+1 (207) 846-0044,,,,,,,,,,,,,,,,,,,,,27 FOREST FALLS DR,,,YARMOUTH,CUMBERLAND,,ME,,04096-6972,US,43.805142,-70.184033,
BAYVIEW MANOR,,,,,,+1 (207) 548-2415,,,,,,BAYVIEW MANOR,,,,,,+1 (207) 548-2415,,,,,,,,,,,,,,,,,,,,,45 WEST MAIN STREET,,,SEARSPORT,WALDO,,ME,,4974,US,44.4393836,-68.9385922,
BEACH STREET HOUSE,,,,,,+1 (207) 373-1160,,,,,,BEACH STREET HOUSE,,,,,,+1 (207) 282-2617,,,,,,,,,,,,,,,,,,,,,255 BEACH ST,,,SACO,YORK,,ME,,04072-2935,US,43.4965917,-70.43022359999999,
BEACHWOOD RESIDENCE,,,,,,+1 (207) 985-4271,,,,,,BEACHWOOD RESIDENCE,,,,,,+1 (207) 985-7959,,,,,,,,,,,,,,,,,,,,,77 BROWN ST,,,KENNEBUNK,YORK,,ME,,04043-7239,US,43.3772485,-70.54322069999999,Kennebunk
BEAL STREET,,,,,,+1 (844) 445-5357,,,,,,BEAL STREET,,,,,,+1 (207) 743-6902,,,,,,,,,,,,,,,,,,,,,7 BEAL ST,,,NORWAY,OXFORD,,ME,,04268-6040,US,44.2147885,-70.5402587,Norway
BEAN'S CORNER WAIVER,,,,,,+1 (207) 938-3069,,,,,,BEAN'S CORNER WAIVER,,,,,,+1 (207) 938-4615,,,,,,,,,,,,,,,,,,,,,723 CANAAN RD,,,PITTSFIELD,SOMERSET,,ME,,04967-5542,US,42.3918249,-73.39000639999999,
BECKET HOUSE AT GORHAM,,,,,,+1 (207) 268-6860,,,,,,BECKET HOUSE AT GORHAM,,,,,,+1 (207) 242-9530,,,,,,,,,,,,,,,,,,,,,237 DINGLEY SPRING RD,,,GORHAM,CUMBERLAND,,ME,,04038-2169,US,43.71285,-70.53229800000001,
BEDSIDE MANOR,,,,,,+1 (207) 465-2280,,,,,,BEDSIDE MANOR,,,,,,+1 (207) 465-2527,,,,,,,,,,,,,,,,,,,,,461 BELGRADE RD,,,OAKLAND,KENNEBEC,,ME,,04963-4401,US,44.5294051,-69.7528892,
BEDSIDE MANOR EAST,,,,,,,,,,,,BEDSIDE MANOR EAST,,,,,,+1 (207) 465-8382,,,,,,,,,,,,,,,,,,,,,210 COUNTRY CLUB RD,,,OAKLAND,KENNEBEC,,ME,,04963-4815,US,44.5330565,-69.70616509999999,
BEECH GROVE AVENUE,,,,,,+1 (207) 564-2404,,,,,,BEECH GROVE AVENUE,,,,,,+1 (207) 564-2464,,,,,,,,,,,,,,,,,,,,,8 BEECH GROVE AVE,,,GLENBURN,PENOBSCOT,,ME,,04401-1432,US,44.9041774,-68.8155495,
BEN AVENUE,,,,,,+1 (207) 283-9442,,,,,,BEN AVENUE,,,,,,+1 (207) 283-9442,,,,,,,,,,,,,,,,,,,,,4 BEN AVE,,,BIDDEFORD,YORK,,ME,,04005-9778,US,43.4679219,-70.4658808,
BERWICK ESTATES,,,,,,+1 (844) 445-5355,,,,,,BERWICK ESTATES,,,,,,+1 (207) 384-2715,,,,,,,,,,,,,,,,,,,,,79 PORTLAND ST,,,SOUTH BERWICK,YORK,,ME,,03908-1223,US,43.2360265,-70.8077208,
BFLI-ARBORETUM,,,,,,+1 (207) 236-2722,,,,,,BFLI-ARBORETUM,,,,,,+1 (207) 354-3592,,,,,,,,,,,,,,,,,,,,,133 ARBORETUM PARK DR,,,WARREN,KNOX,,ME,,04864-4284,US,44.0841334,-69.2167341,
BFLI-HARBORVIEW,,,,,,+1 (207) 236-2722,,,,,,BFLI-HARBORVIEW,,,,,,+1 (207) 594-2631,,,,,,,,,,,,,,,,,,,,,7 TOTE ROAD,,,OWLS HEAD,KNOX,,ME,,4854,US,44.0894692,-69.0565934,
BFLI-WARREN HOUSE,,,,,,+1 (207) 338-0758,,,,,,BFLI-WARREN HOUSE,,,,,,+1 (207) 338-0889,,,,,,,,,,,,,,,,,,,,,1116 MIDDLE RD,,,WARREN,KNOX,,ME,,04864-4425,US,44.16385949999999,-69.2725069,
BIDDEFORD ESTATES,,,,,,+1 (844) 438-5915,,,,,,BIDDEFORD ESTATES,,,,,,+1 (207) 283-0111,,,,,,,,,,,,,,,,,,,,,2 DARTMOUTH ST,,,BIDDEFORD,YORK,,ME,,04005-2958,US,43.4864657,-70.4708758,
BIGELOW HILL HOUSE,,,,,,+1 (207) 858-8629,,,,,,BIGELOW HILL HOUSE,,,,,,+1 (207) 858-8629,,,,,,,,,,,,,,,,,,,,,22 BIGELOW HILL RD,,,SKOWHEGAN,SOMERSET,,ME,,04976-5127,US,44.721172,-69.7288773,
BILLABONG II,,,,,,+1 (207) 773-3743,,,,,,BILLABONG II,,,,,,+1 (207) 893-0204,,,,,,,,,,,,,,,,,,,,,5 BILLABONG WAY,,,WINDHAM,CUMBERLAND,,ME,,04062-3358,US,43.7748423,-70.3871595,
BILLIE'S ARCH,,,,,,+1 (207) 532-6576,,,,,,BILLIE'S ARCH,,,,,,+1 (207) 532-3952,,,,,,,,,,,,,,,,,,,,,8 LEONARD ST,,,HOULTON,AROOSTOOK,,ME,,04730-1708,US,46.122403,-67.8419689,Houlton
BIRCH BAY RETIREMENT VILLAGE,,,,,,+1 (207) 288-8652,,,,,,BIRCH BAY RETIREMENT VILLAGE,,,,,,+1 (207) 288-8014,,,,,,,,,,,,,,,,,,,,,25 VILLAGE INN RD,,,BAR HARBOR,HANCOCK,,ME,,04609-7451,US,44.413022,-68.26079779999999,
BIRCH BAY VILLAGE INN,,,,,,+1 (207) 288-8652,,,,,,BIRCH BAY VILLAGE INN,,,,,,+1 (207) 288-8014,,,,,,,,,,,,,,,,,,,,,25 VILLAGE INN RD,,,BAR HARBOR,HANCOCK,,ME,,04609-7451,US,44.413022,-68.26079779999999,
BIRCH LANE,,,,,,+1 (207) 772-3743,,,,,,BIRCH LANE,,,,,,+1 (207) 934-8570,,,,,,,,,,,,,,,,,,,,,17 BIRCH LN,,,OLD ORCHARD BEACH,YORK,,ME,,04064-1550,US,43.5224596,-70.3835528,
BIRCHWOOD,,,,,,+1 (207) 761-8405,,,,,,BIRCHWOOD,,,,,,+1 (207) 671-3565,,,,,,,,,,,,,,,,,,,,,106 HUSSEY HILL RD,,,OAKLAND,KENNEBEC,,ME,,04963-5117,US,44.56580759999999,-69.71463659999999,
BIRCHWOODS AT CANCO ASSISTED LIVING,,,,,,+1 (207) 772-1380,,,,,,BIRCHWOODS AT CANCO ASSISTED LIVING,,,,,,+1 (207) 772-1080,,,,,,,,,,,,,,,,,,,,,86 HOLIDAY DR,,,PORTLAND,CUMBERLAND,,ME,,04103-4368,US,43.6849256,-70.27952189999999,Back Cove
BISHOP HOUSE,,,,,,+1 (844) 445-5359,,,,,,BISHOP HOUSE,,,,,,+1 (207) 892-1446,,,,,,,,,,,,,,,,,,,,,11 BISHOP DR,,,WINDHAM,CUMBERLAND,,ME,,04062-4649,US,43.7544096,-70.4343466,
BOARDMAN COTTAGE,,,,,,+1 (207) 734-2101,,,,,,BOARDMAN COTTAGE,,,,,,+1 (207) 734-2100,,,,,,,,,,,,,,,,,,,,,131 MAIN RD,,,ISLESBORO,WALDO,,ME,,04848-4556,US,44.2921002,-68.9063123,
BOLSTER HEIGHTS RESIDENTIAL CARE,,,,,,+1 (207) 782-2024,,,,,,BOLSTER HEIGHTS RESIDENTIAL CARE,,,,,,+1 (207) 784-1364,,,,,,,,,,,,,,,,,,,,,26 BOLSTER ST,,,AUBURN,ANDROSCOGGIN,,ME,,04210-5302,US,44.0799262,-70.224981,
BOOTHBAY GREEN,,,,,,+1 (207) 633-2440,,,,,,BOOTHBAY GREEN,,,,,,+1 (207) 633-2440,,,,,,,,,,,,,,,,,,,,,8 COUNTRY CLUB RD,,,BOOTHBAY,LINCOLN,,ME,,04537-4661,US,43.8773807,-69.6309673,
BORDERVIEW REHABILITATION & LIVING CENTER,,,,,,+1 (207) 868-3579,,,,,,BORDERVIEW REHABILITATION & LIVING CENTER,,,,,,+1 (207) 868-5211,,,,,,,,,,,,,,,,,,,,,208 STATE ST,,,VAN BUREN,AROOSTOOK,,ME,,04785-1618,US,47.1497723,-67.9365648,
BOWDOINHAM HOUSE,,,,,,+1 (207) 666-3663,,,,,,BOWDOINHAM HOUSE,,,,,,+1 (207) 666-3663,,,,,,,,,,,,,,,,,,,,,336 FISHER RD,,,BOWDOINHAM,SAGADAHOC,,ME,,04008-4209,US,44.00346589999999,-69.9143784,
BRACKETT STREET HOUSE,,,,,,+1 (207) 767-6483,,,,,,BRACKETT STREET HOUSE,,,,,,+1 (207) 553-2188,,,,,,,,,,,,,,,,,,,,,232 BRACKETT ST,,,PORTLAND,CUMBERLAND,,ME,,04102-3227,US,43.6517276,-70.2696186,
"BRADFORD ON THE COMMON, BRADFORD COURT",,,,,,+1 (207) 985-4049,,,,,,"BRADFORD ON THE COMMON, BRADFORD COURT",,,,,,+1 (207) 985-2810,,,,,,,,,,,,,,,,,,,,,3 HUNTINGTON COMMON DR,,,KENNEBUNK,YORK,,ME,,04043-6571,US,43.403941,-70.53124,Kennebunk
BRADMAN PLACE,,,,,,+1 (207) 782-1734,,,,,,BRADMAN PLACE,,,,,,+1 (207) 782-2726,,,,,,,,,,,,,,,,,,,,,7 BRADMAN PL,,,AUBURN,ANDROSCOGGIN,,ME,,04210-6332,US,44.121317,-70.2230375,
BRAE DRIVE HOME,,,,,,+1 (207) 667-1977,,,,,,BRAE DRIVE HOME,,,,,,+1 (207) 667-3270,,,,,,,,,,,,,,,,,,,,,13 BRAE DR,,,ELLSWORTH,HANCOCK,,ME,,04605-1868,US,44.55279399999999,-68.434422,
BREWER GROUP HOME,,,,,,+1 (207) 945-9997,,,,,,BREWER GROUP HOME,,,,,,+1 (207) 631-5209,,,,,,,,,,,,,,,,,,,,,1104 N MAIN ST,,,BREWER,PENOBSCOT,,ME,,04412-1238,US,44.8179721,-68.7082367,
BRICK HOUSE,,,,,,+1 (844) 445-5360,,,,,,BRICK HOUSE,,,,,,+1 (207) 696-4317,,,,,,,,,,,,,,,,,,,,,642 MAIN ST,,,MADISON,SOMERSET,,ME,,04950-4213,US,44.8020839,-69.8325974,Madison
BRIDGTON RESIDENTIAL CARE,,,,,,+1 (207) 647-3285,,,,,,BRIDGTON RESIDENTIAL CARE,,,,,,+1 (207) 647-8821,,,,,,,,,,,,,,,,,,,,,186 PORTLAND RD,,,BRIDGTON,CUMBERLAND,,ME,,04009-4224,US,44.0418846,-70.6983948,
BROADWAY HOUSE,,,,,,+1 (207) 947-9633,,,,,,BROADWAY HOUSE,,,,,,+1 (207) 947-9630,,,,,,,,,,,,,,,,,,,,,166 BROADWAY,,,BANGOR,PENOBSCOT,,ME,,04401-5208,US,44.80795210000001,-68.7693438,Broadway Historic District
BROOK BEND FARM,,,,,,,,,,,,BROOK BEND FARM,,,,,,+1 (207) 929-4970,,,,,,,,,,,,,,,,,,,,,28 DYER RD,,,DAYTON,YORK,,ME,,04005-7204,US,43.5774514,-70.5703759,
"BURNS ROAD, CLA",,,,,,+1 (207) 777-1605,,,,,,"BURNS ROAD, CLA",,,,,,+1 (207) 622-5688,,,,,,,,,,,,,,,,,,,,,74 BURNS RD,,,AUGUSTA,KENNEBEC,,ME,,04330-7859,US,44.3626309,-69.81549199999999,
"BURR HOME, THE",,,,,,+1 (207) 989-5322,,,,,,THE BURR HOME,,,,,,+1 (207) 989-3663,,,,,,,,,,,,,,,,,,,,,108 STATE ST,,,BREWER,PENOBSCOT,,ME,,04412-1914,US,44.7932238,-68.7582005,
BUTLER HOUSE,,,,,,+1 (207) 282-8383,,,,,,BUTLER HOUSE,,,,,,+1 (207) 282-4173,,,,,,,,,,,,,,,,,,,,,15 NOTT ST,,,SACO,YORK,,ME,,04072-1931,US,43.50435619999999,-70.4452903,
C&C HOMES,,,,,,+1 (207) 989-5790,,,,,,C&C HOMES,,,,,,+1 (207) 989-5790,,,,,,,,,,,,,,,,,,,,,97 SILK ST,,,BREWER,PENOBSCOT,,ME,,04412-1862,US,44.79456699999999,-68.7539683,
CADIGAN LODGE,,,,,,+1 (207) 729-7981,,,,,,CADIGAN LODGE,,,,,,+1 (207) 725-2650,,,,,,,,,,,,,,,,,,,,,54 GOVERNORS WAY,,,TOPSHAM,SAGADAHOC,,ME,,04086-1470,US,43.9298599,-69.95872620000002,Topsham
CALAIS ALTERNATIVE CARE,,,,,,+1 (207) 454-8961,,,,,,CALAIS ALTERNATIVE CARE,,,,,,+1 (207) 454-8960,,,,,,,,,,,,,,,,,,,,,152 SOUTH ST,,,CALAIS,WASHINGTON,,ME,,04619-1324,US,45.16974739999999,-67.2893638,
CALAIS BOARDING HOME,,,,,,+1 (207) 255-6110,,,,,,CALAIS BOARDING HOME,,,,,,+1 (207) 454-0158,,,,,,,,,,,,,,,,,,,,,36 CALAIS AVE,,,CALAIS,WASHINGTON,,ME,,04619-1632,US,45.1845816,-67.2782091,
CAMBRIDGE COMMON CONGREGATE HOUSING,,,,,,+1 (207) 839-8263,,,,,,CAMBRIDGE COMMON CONGREGATE HOUSING,,,,,,+1 (207) 839-5757,,,,,,,,,,,,,,,,,,,,,50 NEW PORTLAND RD,,,GORHAM,CUMBERLAND,,ME,,04038-1542,US,43.6814741,-70.4340649,Gorham
CAMERA RESIDENTIAL HOME,,,,,,,,,,,,CAMERA RESIDENTIAL HOME,,,,,,+1 (207) 453-9152,,,,,,,,,,,,,,,,,,,,,131 OAKLAND RD,,,FAIRFIELD,SOMERSET,,ME,,04937-3229,US,44.6043055,-69.663369,
CANDLEWYCK ADULT FOSTER HOME,,,,,,+1 (207) 797-6398,,,,,,CANDLEWYCK ADULT FOSTER HOME,,,,,,+1 (207) 871-0343,,,,,,,,,,,,,,,,,,,,,10 CANDLEWYCK TER,,,PORTLAND,CUMBERLAND,,ME,,04102-1516,US,43.6796081,-70.3115918,Nasons Corner
CAPE MEMORY CARE,,,,,,+1 (207) 553-9618,,,,,,CAPE MEMORY CARE,,,,,,+1 (207) 553-9616,,,,,,,,,,,,,,,,,,,,,126 SCOTT DYER RD,,,CAPE ELIZABETH,CUMBERLAND,,ME,,04107-2230,US,43.5941611,-70.240471,
CAPITOL CITY MANOR,,,,,,+1 (207) 621-0968,,,,,,CAPITOL CITY MANOR,,,,,,+1 (207) 622-6823,,,,,,,,,,,,,,,,,,,,,313 STATE ST,,,AUGUSTA,KENNEBEC,,ME,,04330-7037,US,44.29952670000001,-69.7826841,
"CAPTAIN LEWIS RESIDENCE, THE",,,,,,+1 (207) 582-3845,,,,,,THE CAPTAIN LEWIS RESIDENCE,,,,,,+1 (207) 582-6674,,,,,,,,,,,,,,,,,,,,,270 MAINE AVE,,,FARMINGDALE,KENNEBEC,,ME,,04344-4514,US,44.23958599999999,-69.7713328,
CARE RIDGE ESTATES 1,,,,,,+1 (207) 738-4664,,,,,,CARE RIDGE ESTATES 1,,,,,,+1 (207) 738-4663,,,,,,,,,,,,,,,,,,,,,35 RIDGE RD,,,LEE,PENOBSCOT,,ME,,04455-4418,US,45.3865707,-68.30707880000001,
CARON STREET HOUSE,,,,,,+1 (207) 797-9117,,,,,,CARON STREET HOUSE,,,,,,+1 (207) 797-8046,,,,,,,,,,,,,,,,,,,,,26 CARON ST,,,PORTLAND,CUMBERLAND,,ME,,04103-2219,US,43.7202515,-70.2912702,North Deering
CASA V,,,,,,+1 (207) 879-7466,,,,,,CASA V,,,,,,+1 (207) 893-0302,,,,,,,,,,,,,,,,,,,,,4 QUAIL DR,,,WINDHAM,CUMBERLAND,,ME,,04062-3336,US,43.75838,-70.3648192,
CASA VII,,,,,,+1 (207) 879-7466,,,,,,CASA VII,,,,,,+1 (207) 893-0302,,,,,,,,,,,,,,,,,,,,,15 QUAIL DR,,,WINDHAM,CUMBERLAND,,ME,,04062-3336,US,43.7578133,-70.36646569999999,
CASCO INN RESIDENTIAL CARE FACILITY,,,,,,+1 (207) 627-6054,,,,,,CASCO INN RESIDENTIAL CARE FACILITY,,,,,,+1 (207) 627-7199,,,,,,,,,,,,,,,,,,,,,434 ROOSEVELT TRL,,,CASCO,CUMBERLAND,,ME,,04015-3515,US,43.930102,-70.540367,
CEDAR STREET GROUP HOME,,,,,,+1 (207) 594-8013,,,,,,CEDAR STREET GROUP HOME,,,,,,+1 (207) 594-5193,,,,,,,,,,,,,,,,,,,,,125 CEDAR ST,,,ROCKLAND,KNOX,,ME,,04841-2304,US,44.1174435,-69.1125744,
CENTRAL STREET HOME,,,,,,+1 (207) 448-2010,,,,,,CENTRAL STREET HOME,,,,,,+1 (207) 448-9019,,,,,,,,,,,,,,,,,,,,,60 CENTRAL ST,,,DANFORTH,WASHINGTON,,ME,,4424,US,45.65804730000001,-67.8666793,
CHAMBERLAIN I,,,,,,+1 (207) 992-4144,,,,,,CHAMBERLAIN I,,,,,,+1 (207) 989-3175,,,,,,,,,,,,,,,,,,,,,292 CHAMBERLAIN ST,,,BREWER,PENOBSCOT,,ME,,04412-1409,US,44.784384,-68.7508118,
CHANDLER STREET HOUSE,,,,,,+1 (207) 622-4667,,,,,,CHANDLER STREET HOUSE,,,,,,+1 (207) 858-8518,,,,,,,,,,,,,,,,,,,,,12 CHANDLER ST,,,SKOWHEGAN,SOMERSET,,ME,,04976-1902,US,44.77523,-69.7230301,Skowhegan
CHANGING TIDES,,,,,,,,,,,,CHANGING TIDES,,,,,,+1 (207) 598-8668,,,,,,,,,,,,,,,,,,,,,57 E MAIN ST,,,HARRINGTON,WASHINGTON,,ME,,04643-3041,US,44.6222852,-67.7965232,
"CHAPMAN HOUSE, THE",,,,,,+1 (207) 777-1702,,,,,,THE CHAPMAN HOUSE,,,,,,+1 (207) 783-0961,,,,,,,,,,,,,,,,,,,,,41 PLEASANT ST,,,AUBURN,ANDROSCOGGIN,,ME,,04210-5936,US,44.0985243,-70.228158,
CHARLOTTE WHITE CENTER-CHURCH ROAD,,,,,,+1 (207) 564-2404,,,,,,CHARLOTTE WHITE CENTER-CHURCH ROAD,,,,,,+1 (207) 990-1510,,,,,,,,,,,,,,,,,,,,,138 CHURCH RD,,,BANGOR,PENOBSCOT,,ME,,04401-2136,US,44.859955,-68.8047833,
CHARLOTTE WHITE CENTER-GARLAND ROAD,,,,,,+1 (207) 564-2404,,,,,,CHARLOTTE WHITE CENTER-GARLAND ROAD,,,,,,+1 (207) 924-7016,,,,,,,,,,,,,,,,,,,,,487 GARLAND RD,,,DEXTER,PENOBSCOT,,ME,,04930-2652,US,45.0094605,-69.26186899999999,
CHARLOTTE WHITE CENTER-MAGGIE DRIVE,,,,,,+1 (207) 564-2404,,,,,,CHARLOTTE WHITE CENTER-MAGGIE DRIVE,,,,,,+1 (207) 343-2384,,,,,,,,,,,,,,,,,,,,,42 MECHANIC ST,,,DOVER FOXCROFT,PISCATAQUIS,,ME,,04426-1036,US,45.1897751,-69.2352926,Dover-Foxcroft
CHASE POINT ASSISTED LIVING FACILITY,,,,,,+1 (207) 563-4222,,,,,,CHASE POINT ASSISTED LIVING FACILITY,,,,,,+1 (207) 563-4200,,,,,,,,,,,,,,,,,,,,,51 SCHOONER ST,,,DAMARISCOTTA,LINCOLN,,ME,,04543-4055,US,44.0268486,-69.5265886,
CHERRYFIELD AVENUE,,,,,,+1 (207) 772-4743,,,,,,CHERRYFIELD AVENUE,,,,,,+1 (207) 282-2195,,,,,,,,,,,,,,,,,,,,,15 CHERRYFIELD AVE,,,SACO,YORK,,ME,,04072-2431,US,43.5126029,-70.4562282,
CHESLEY STREET PROGRAM,,,,,,+1 (207) 857-1516,,,,,,CHESLEY STREET PROGRAM,,,,,,+1 (207) 857-9419,,,,,,,,,,,,,,,,,,,,,2 CHESLEY ST,,,WESTBROOK,CUMBERLAND,,ME,,04092-3317,US,43.67068949999999,-70.36213,
CHESTNUT STREET HOME,,,,,,+1 (866) 225-0856,,,,,,CHESTNUT STREET HOME,,,,,,+1 (207) 351-6245,,,,,,,,,,,,,,,,,,,,,37 CHESTNUT ST,,,OLD ORCHARD BEACH,YORK,,ME,,04064-4140,US,43.54035760000001,-70.398108,
CHRISTINE'S FOSTER HOME,,,,,,+1 (207) 868-3354,,,,,,CHRISTINE'S FOSTER HOME,,,,,,+1 (207) 868-3354,,,,,,,,,,,,,,,,,,,,,110 POPLAR ST,,,VAN BUREN,AROOSTOOK,,ME,,04785-1153,US,47.1577981,-67.9382716,Van Buren
CHURCH ROAD,,,,,,+1 (207) 725-1416,,,,,,CHURCH ROAD,,,,,,+1 (207) 504-5839,,,,,,,,,,,,,,,,,,,,,85 CHURCH RD,,,BRUNSWICK,CUMBERLAND,,ME,,04011-7306,US,43.9074051,-69.9915812,Brunswick
CHURCH STREET,,,,,,+1 (207) 782-4718,,,,,,CHURCH STREET,,,,,,+1 (207) 782-4718,,,,,,,,,,,,,,,,,,,,,20 CHURCH ST,,,LEWISTON,ANDROSCOGGIN,,ME,,04240-3608,US,44.10749,-70.1644562,
CLARK'S TERRACE AT THE PARK DANFORTH,,,,,,+1 (207) 797-3627,,,,,,CLARK'S TERRACE AT THE PARK DANFORTH,,,,,,+1 (207) 797-7710,,,,,,,,,,,,,,,,,,,,,777 STEVENS AVE,,,PORTLAND,CUMBERLAND,,ME,,04103-2675,US,43.6845784,-70.2923845,North Deering
CLOVER LIVING CENTER,,,,,,+1 (207) 782-0780,,,,,,CLOVER LIVING CENTER,,,,,,+1 (207) 784-3573,,,,,,,,,,,,,,,,,,,,,460 MINOT AVE # 480,,,AUBURN,ANDROSCOGGIN,,ME,,04210-4357,US,44.0829331,-70.2454466,
CLOVER RESIDENTIAL CARE,,,,,,,,,,,,CLOVER RESIDENTIAL CARE,,,,,,+1 (207) 784-3573,,,,,,,,,,,,,,,,,,,,,440 MINOT AVE,,,AUBURN,ANDROSCOGGIN,,ME,,04210-4332,US,44.0828301,-70.2447991,
COASTAL LANDING LLC,,,,,,+1 (207) 725-4424,,,,,,COASTAL LANDING LLC,,,,,,+1 (207) 837-6560,,,,,,,,,,,,,,,,,,,,,142 NEPTUNE DR,,,BRUNSWICK,CUMBERLAND,,ME,,04011-2882,US,43.89824040000001,-69.9169606,Brunswick Station
"COASTAL SHORES, INC.",,,,,,+1 (207) 725-1401,,,,,,"COASTAL SHORES, INC.",,,,,,+1 (207) 725-5801,,,,,,,,,,,,,,,,,,,,,142 NEPTUNE DR,,,BRUNSWICK,CUMBERLAND,,ME,,04011-2882,US,43.89824040000001,-69.9169606,Brunswick Station
COLBY LANE HOME,,,,,,+1 (207) 324-6050,,,,,,COLBY LANE HOME,,,,,,+1 (207) 985-1977,,,,,,,,,,,,,,,,,,,,,3 COLBY LN,,,KENNEBUNK,YORK,,ME,,04043-6116,US,43.41008430000001,-70.56400909999999,West Kennebunk
COLLINS FARM,,,,,,+1 (207) 777-1109,,,,,,COLLINS FARM,,,,,,+1 (207) 724-7485,,,,,,,,,,,,,,,,,,,,,144 COLLINS FARM ROAD,,,MANCHESTER,KENNEBEC,,ME,,4351,US,ERROR,ERROR,ERROR
COLONIAL HEALTH CARE,,,,,,,,,,,,COLONIAL HEALTH CARE,,,,,,+1 (207) 794-6534,,,,,,,,,,,,,,,,,,,,,36 WORKMAN TER,,,LINCOLN,PENOBSCOT,,ME,,04457-1162,US,45.3555782,-68.5009237,Lincoln
COLONY LANE,,,,,,+1 (207) 699-2156,,,,,,COLONY LANE,,,,,,+1 (207) 774-0250,,,,,,,,,,,,,,,,,,,,,19 COLONY LANE,,,SOUTH PORTLAND,CUMBERLAND,,ME,,4106,US,43.62877539999999,-70.31352989999999,Thornton Heights
"COMMONS AT TALL PINES, THE",,,,,,,,,,,,THE COMMONS AT TALL PINES,,,,,,+1 (207) 335-4117,,,,,,,,,,,,,,,,,,,,,34 MARTIN LN,,,BELFAST,WALDO,,ME,,04915-6080,US,44.4124679,-69.0006886,
"COMMONSENSE HOUSING, INC. - 12",,,,,,+1 (207) 989-1652,,,,,,"COMMONSENSE HOUSING, INC. - 12",,,,,,+1 (207) 989-3243,,,,,,,,,,,,,,,,,,,,,29 LAMBERT RD,,,EDDINGTON,PENOBSCOT,,ME,,04428-3031,US,44.7889002,-68.7187067,
"COMMONSENSE HOUSING, INC. - 15",,,,,,+1 (207) 989-1652,,,,,,"COMMONSENSE HOUSING, INC. - 15",,,,,,+1 (207) 843-7900,,,,,,,,,,,,,,,,,,,,,627 MAIN RD,,,EDDINGTON,PENOBSCOT,,ME,,04428-3204,US,44.818071,-68.6461379,
"COMMONSENSE HOUSING, INC. - 1513 OHIO STREET",,,,,,+1 (207) 989-1652,,,,,,"COMMONSENSE HOUSING, INC. - 1513 OHIO STREET",,,,,,+1 (207) 945-6232,,,,,,,,,,,,,,,,,,,,,1513 OHIO ST,,,BANGOR,PENOBSCOT,,ME,,04401-2327,US,44.8368443,-68.8248954,Outer Ohio
"COMMONSENSE HOUSING, INC. - 23",,,,,,+1 (207) 989-5301,,,,,,"COMMONSENSE HOUSING, INC. - 23",,,,,,+1 (207) 989-5256,,,,,,,,,,,,,,,,,,,,,55 CLEWLEYVILLE RD,,,EDDINGTON,PENOBSCOT,,ME,,04428-3020,US,44.81858499999999,-68.6938509,
"COMMONSENSE HOUSING, INC. - 3",,,,,,+1 (207) 989-1652,,,,,,"COMMONSENSE HOUSING, INC. - 3",,,,,,+1 (207) 989-1303,,,,,,,,,,,,,,,,,,,,,161 PARKWAY N,,,BREWER,PENOBSCOT,,ME,,04412-1312,US,44.7929902,-68.750451,
"COMMONSENSE HOUSING, INC. - 7",,,,,,+1 (207) 989-1652,,,,,,"COMMONSENSE HOUSING, INC. - 7",,,,,,+1 (207) 989-0730,,,,,,,,,,,,,,,,,,,,,739 N MAIN ST,,,BREWER,PENOBSCOT,,ME,,04412-1260,US,44.8115666,-68.73417429999999,
"COMMONSENSE HOUSING, INC. - 8",,,,,,+1 (207) 989-1652,,,,,,"COMMONSENSE HOUSING, INC. - 8",,,,,,+1 (207) 989-1303,,,,,,,,,,,,,,,,,,,,,1246 N MAIN ST,,,BREWER,PENOBSCOT,,ME,,04412-1237,US,44.8196231,-68.7003074,
"COMMONSENSE HOUSING, INC. - EDDINGTON HOUSE",,,,,,+1 (207) 989-1652,,,,,,"COMMONSENSE HOUSING, INC. - EDDINGTON HOUSE",,,,,,+1 (207) 989-7250,,,,,,,,,,,,,,,,,,,,,15 RIVERSIDE DR,,,EDDINGTON,PENOBSCOT,,ME,,04428-3109,US,44.8240389,-68.6932899,
"COMMONSENSE HOUSING, INC. - KOUNTRY KORNER",,,,,,+1 (207) 989-1652,,,,,,"COMMONSENSE HOUSING, INC. - KOUNTRY KORNER",,,,,,+1 (207) 843-6141,,,,,,,,,,,,,,,,,,,,,1300 MAIN RD,,,EDDINGTON,PENOBSCOT,,ME,,04428-3320,US,44.79690830000001,-68.5925413,
CORLISS STREET,,,,,,+1 (207) 725-1416,,,,,,CORLISS STREET,,,,,,+1 (207) 504-5684,,,,,,,,,,,,,,,,,,,,,32 CORLISS ST,,,BATH,SAGADAHOC,,ME,,04530-1704,US,43.899712,-69.8177314,
"CORNER HOME, THE",,,,,,+1 (207) 532-1359,,,,,,THE CORNER HOME,,,,,,+1 (207) 532-1367,,,,,,,,,,,,,,,,,,,,,37 HIGH ST,,,HOULTON,AROOSTOOK,,ME,,04730-2028,US,46.1213799,-67.8344711,Houlton
CORNISH ASSISTED HOUSING PROGRAM,,,,,,+1 (207) 625-4342,,,,,,CORNISH ASSISTED HOUSING PROGRAM,,,,,,+1 (207) 625-4342,,,,,,,,,,,,,,,,,,,,,7 PUMPKINVILLE RD,,,CORNISH,YORK,,ME,,04020-3507,US,43.80426140000001,-70.8172542,
COTTAGE HILL HOME,,,,,,+1 (866) 570-4701,,,,,,COTTAGE HILL HOME,,,,,,+1 (207) 324-8110,,,,,,,,,,,,,,,,,,,,,243 COTTAGE ST,,,SANFORD,YORK,,ME,,04073-1814,US,43.45445309999999,-70.7651961,
COUNTRY CHARM LANE,,,,,,+1 (207) 926-5256,,,,,,COUNTRY CHARM LANE,,,,,,+1 (207) 926-6081,,,,,,,,,,,,,,,,,,,,,15 COUNTRY CHARM LN,,,NEW GLOUCESTER,CUMBERLAND,,ME,,04260-3436,US,43.99294279999999,-70.2885768,
COUNTRY CLUB,,,,,,+1 (207) 324-6050,,,,,,COUNTRY CLUB,,,,,,+1 (207) 490-5690,,,,,,,,,,,,,,,,,,,,,142 COUNTRY CLUB RD,,,SANFORD,YORK,,ME,,04073-5224,US,43.4018842,-70.7400316,South Sanford
COUNTRY MANOR NURSING HOME,,,,,,,,,,,,COUNTRY MANOR NURSING HOME,,,,,,+1 (207) 549-7471,,,,,,,,,,,,,,,,,,,,,132 MAIN ST,,,COOPERS MILLS,LINCOLN,,ME,,4341,US,44.2595392,-69.5536656,
COUNTRY MEADOWS,,,,,,+1 (844) 468-9585,,,,,,COUNTRY MEADOWS,,,,,,+1 (207) 945-6627,,,,,,,,,,,,,,,,,,,,,1605 ESSEX ST,,,BANGOR,PENOBSCOT,,ME,,04401-2659,US,44.8549088,-68.7744203,
COUNTRY VILLAGE ASSISTED LIVING,,,,,,+1 (207) 627-7505,,,,,,COUNTRY VILLAGE ASSISTED LIVING,,,,,,+1 (207) 627-7111,,,,,,,,,,,,,,,,,,,,,960 MEADOW RD,,,CASCO,CUMBERLAND,,ME,,04015-3316,US,44.00327,-70.524096,
COUNTRY VILLAGE ESTATES,,,,,,+1 (207) 728-4475,,,,,,COUNTRY VILLAGE ESTATES,,,,,,+1 (207) 728-3570,,,,,,,,,,,,,,,,,,,,,260 DUGAL DR,,,MADAWASKA,AROOSTOOK,,ME,,04756-1517,US,47.3448223,-68.3428746,Madawaska
COUNTRY WAY,,,,,,,,,,,,COUNTRY WAY,,,,,,+1 (207) 783-8731,,,,,,,,,,,,,,,,,,,,,1757 POWNAL RD,,,AUBURN,ANDROSCOGGIN,,ME,,04210-9687,US,43.991641,-70.22408899999999,
COUNTRYSIDE ADULT FAMILY CARE HOME,,,,,,+1 (207) 929-8791,,,,,,COUNTRYSIDE ADULT FAMILY CARE HOME,,,,,,+1 (207) 929-5787,,,,,,,,,,,,,,,,,,,,,1334 LONG PLAINS RD,,,BUXTON,YORK,,ME,,04093-6052,US,43.63666569999999,-70.5067418,
COURT STREET,,,,,,+1 (207) 786-8061,,,,,,COURT STREET,,,,,,+1 (207) 783-3446,,,,,,,,,,,,,,,,,,,,,470 COURT ST,,,AUBURN,ANDROSCOGGIN,,ME,,04210-4383,US,44.0946575,-70.2433282,
COURTLAND REHAB & L C,,,,,,,,,,,,COURTLAND REHAB & L C,,,,,,+1 (207) 667-9036,,,,,,,,,,,,,,,,,,,,,42 BUCKSPORT RD,,,ELLSWORTH,HANCOCK,,ME,,04605-2230,US,44.5384316,-68.4313556,
"COURTYARD, THE",,,,,,+1 (207) 230-6110,,,,,,THE COURTYARD,,,,,,+1 (207) 230-6100,,,,,,,,,,,,,,,,,,,,,30 COMMUNITY DR,,,CAMDEN,KNOX,,ME,,04843-2061,US,44.1994033,-69.0739933,Camden
COVE STREET HOME,,,,,,+1 (855) 221-9883,,,,,,COVE STREET HOME,,,,,,+1 (207) 490-0903,,,,,,,,,,,,,,,,,,,,,1 COVE ST,,,SANFORD,YORK,,ME,,04073-2801,US,43.4477398,-70.77684169999999,Sanford
CRAWFORD COMMONS,,,,,,+1 (207) 785-4410,,,,,,CRAWFORD COMMONS,,,,,,+1 (207) 785-4419,,,,,,,,,,,,,,,,,,,,,132 MIDDLE RD,,,UNION,KNOX,,ME,,04862-4018,US,44.1957573,-69.2640315,
CRESCENT PLACE GROUP HOME,,,,,,+1 (207) 286-1112,,,,,,CRESCENT PLACE GROUP HOME,,,,,,+1 (207) 282-4962,,,,,,,,,,,,,,,,,,,,,15 CRESCENT ST,,,BIDDEFORD,YORK,,ME,,04005-2519,US,43.4922682,-70.4580756,
CREST VIEW MANOR,,,,,,+1 (207) 532-4173,,,,,,CREST VIEW MANOR,,,,,,+1 (207) 532-3498,,,,,,,,,,,,,,,,,,,,,361 COURT ST,,,HOULTON,AROOSTOOK,,ME,,04730-1957,US,46.10007299999999,-67.8406415,Houlton
CROSSWINDS RESIDENTIAL CARE,,,,,,+1 (207) 834-2895,,,,,,CROSSWINDS RESIDENTIAL CARE,,,,,,+1 (207) 834-3701,,,,,,,,,,,,,,,,,,,,,40 VILLAGE RD,,,FORT KENT,AROOSTOOK,,ME,,04743-1031,US,47.2428278,-68.6067016,
CROWE'S RESIDENTIAL CARE,,,,,,,,,,,,CROWE'S RESIDENTIAL CARE,,,,,,+1 (207) 623-5355,,,,,,,,,,,,,,,,,,,,,604 LEIGHTON RD,,,AUGUSTA,KENNEBEC,,ME,,04330-7808,US,44.3515111,-69.8018633,
CUMMINGS HEALTH CARE FACILITY,,,,,,+1 (207) 732-5133,,,,,,CUMMINGS HEALTH CARE FACILITY,,,,,,+1 (207) 732-4648,,,,,,,,,,,,,,,,,,,,,5 CROCKER STREET,,,HOWLAND,PENOBSCOT,,ME,,4448,US,45.250882,-68.6662592,Howland
CURLEWIS LANE,,,,,,+1 (207) 563-3561,,,,,,CURLEWIS LANE,,,,,,+1 (207) 586-5026,,,,,,,,,,,,,,,,,,,,,25 CURLEWIS LN,,,NEWCASTLE,LINCOLN,,ME,,04553-3242,US,44.0751654,-69.5816756,
DAVID STREET HOME,,,,,,+1 (207) 463-2156,,,,,,DAVID STREET HOME,,,,,,+1 (207) 463-3414,,,,,,,,,,,,,,,,,,,,,10 BURLEIGH STREET,,,ISLAND FALLS,AROOSTOOK,,ME,,4747,US,46.0099756,-68.2688158,
DAVIS ROAD GROUP HOME,,,,,,+1 (207) 860-4003,,,,,,DAVIS ROAD GROUP HOME,,,,,,+1 (207) 778-5086,,,,,,,,,,,,,,,,,,,,,125 DAVIS RD,,,FARMINGTON,FRANKLIN,,ME,,04938-6507,US,44.6542574,-70.124754,
DAY STREET HOME,,,,,,+1 (866) 597-1401,,,,,,DAY STREET HOME,,,,,,+1 (207) 467-9060,,,,,,,,,,,,,,,,,,,,,2 DAY ST,,,KENNEBUNK,YORK,,ME,,04043-7115,US,43.3822753,-70.545278,Kennebunk
DEAN HOUSE,,,,,,+1 (207) 945-9997,,,,,,DEAN HOUSE,,,,,,+1 (207) 249-0730,,,,,,,,,,,,,,,,,,,,,272 ESSEX ST,,,BANGOR,PENOBSCOT,,ME,,04401-4050,US,44.8105035,-68.7675909,
DEAN ROAD WAIVER,,,,,,+1 (207) 426-2806,,,,,,DEAN ROAD WAIVER,,,,,,+1 (207) 426-2806,,,,,,,,,,,,,,,,,,,,,21 DEAN RD,,,CLINTON,KENNEBEC,,ME,,04927-3400,US,44.699017,-69.5296413,
DEBORAH LINCOLN HOUSE,,,,,,+1 (207) 930-8105,,,,,,DEBORAH LINCOLN HOUSE,,,,,,+1 (207) 338-1554,,,,,,,,,,,,,,,,,,,,,60 CEDAR ST,,,BELFAST,WALDO,,ME,,04915-6302,US,44.4223841,-69.00625339999999,
DIONNE COMMONS,,,,,,+1 (207) 725-1363,,,,,,DIONNE COMMONS,,,,,,+1 (207) 725-4379,,,,,,,,,,,,,,,,,,,,,24 MAURICE DR,,,BRUNSWICK,CUMBERLAND,,ME,,04011-3270,US,43.89741559999999,-69.98030340000001,Brunswick
DIRIGO PINES INN,,,,,,+1 (207) 866-3400,,,,,,DIRIGO PINES INN,,,,,,+1 (207) 866-3400,,,,,,,,,,,,,,,,,,,,,9 ALUMNI DR,,,ORONO,PENOBSCOT,,ME,,04473-3479,US,44.86904750000001,-68.6896718,Orono
DOLLEY FARM RCF,,,,,,+1 (207) 854-0938,,,,,,DOLLEY FARM RCF,,,,,,+1 (207) 854-4207,,,,,,,,,,,,,,,,,,,,,98 E BRIDGE ST,,,WESTBROOK,CUMBERLAND,,ME,,04092-3109,US,43.6953851,-70.35259119999999,
DON AND BETH STRAUS THERAPEUTIC DAY PROGRAM,,,,,,+1 (207) 288-8652,,,,,,DON AND BETH STRAUS THERAPEUTIC DAY PROGRAM,,,,,,+1 (207) 288-8014,,,,,,,,,,,,,,,,,,,,,25 VILLAGE INN RD,,,BAR HARBOR,HANCOCK,,ME,,04609-7451,US,44.413022,-68.26079779999999,
DR. EUNICE NELSON-BAUMANN HOME,,,,,,+1 (207) 827-4016,,,,,,DR. EUNICE NELSON-BAUMANN HOME,,,,,,+1 (207) 827-0968,,,,,,,,,,,,,,,,,,,,,2 SARAHS SPRING LN,,,INDIAN ISLAND,PENOBSCOT,,ME,,04468-1270,US,44.9494833,-68.64763049999999,
DRAKE'S EAST RIDGE RESIDENTIAL HOME,,,,,,+1 (207) 474-0779,,,,,,DRAKE'S EAST RIDGE RESIDENTIAL HOME,,,,,,+1 (207) 474-0776,,,,,,,,,,,,,,,,,,,,,1309 E RIDGE RD,,,CORNVILLE,SOMERSET,,ME,,04976-6509,US,44.86387550000001,-69.652945,
DUBOIS DRIVE,,,,,,+1 (207) 324-6050,,,,,,DUBOIS DRIVE,,,,,,+1 (207) 490-5701,,,,,,,,,,,,,,,,,,,,,4 DUBOIS DR,,,SANFORD,YORK,,ME,,04073-6134,US,43.44737780000001,-70.748735,
DURANLEAU HOUSE,,,,,,+1 (207) 899-1985,,,,,,DURANLEAU HOUSE,,,,,,+1 (207) 899-1985,,,,,,,,,,,,,,,,,,,,,81 ROWE AVE,,,PORTLAND,CUMBERLAND,,ME,,04102-1421,US,43.6711588,-70.31951699999999,Nasons Corner
EAST POINT,,,,,,+1 (207) 255-0689,,,,,,EAST POINT,,,,,,+1 (207) 255-6611,,,,,,,,,,,,,,,,,,,,,96 STACKPOLE DR,,,MACHIAS,WASHINGTON,,ME,,04654-7001,US,44.70930749999999,-67.45027750000001,
EAST POND HOME,,,,,,+1 (207) 566-5250,,,,,,EAST POND HOME,,,,,,+1 (207) 566-5766,,,,,,,,,,,,,,,,,,,,,1239 E POND RD,,,SMITHFIELD,SOMERSET,,ME,,04978-3214,US,44.6630249,-69.8073055,
EAST SIDE HOME,,,,,,+1 (207) 532-1359,,,,,,EAST SIDE HOME,,,,,,+1 (207) 532-9446,,,,,,,,,,,,,,,,,,,,,1 JOSEPH ST,,,HOULTON,AROOSTOOK,,ME,,04730-2359,US,46.1165155,-67.83117469999999,Houlton
EASTPORT RESIDENTIAL CARE FACILITY,,,,,,+1 (207) 853-4766,,,,,,EASTPORT RESIDENTIAL CARE FACILITY,,,,,,+1 (207) 853-4540,,,,,,,,,,,,,,,,,,,,,4 CLARK ST,,,EASTPORT,WASHINGTON,,ME,,04631-1036,US,44.91241540000001,-66.9994791,
EASTSIDE MANOR,,,,,,+1 (207) 422-0029,,,,,,EASTSIDE MANOR,,,,,,+1 (207) 442-0029,,,,,,,,,,,,,,,,,,,,,51 EASTSIDE RD,,,HANCOCK,HANCOCK,,ME,,04640-3958,US,44.5220534,-68.23355540000001,
EDGECOMB GREEN,,,,,,+1 (207) 882-1164,,,,,,EDGECOMB GREEN,,,,,,+1 (207) 687-2164,,,,,,,,,,,,,,,,,,,,,31 CROSS POINT RD,,,EDGECOMB,LINCOLN,,ME,,04556-3247,US,43.985159,-69.645757,
EDGEWOOD REHABILITATION & L C,,,,,,+1 (207) 778-5869,,,,,,EDGEWOOD REHABILITATION & L C,,,,,,+1 (207) 778-3386,,,,,,,,,,,,,,,,,,,,,221 FAIRBANKS RD,,,FARMINGTON,FRANKLIN,,ME,,04938-5723,US,44.6909985,-70.1570218,Farmington
EIGHT HUNDRED EIGHT HIGH STREET,,,,,,+1 (207) 443-8887,,,,,,EIGHT HUNDRED EIGHT HIGH STREET,,,,,,+1 (207) 443-1133,,,,,,,,,,,,,,,,,,,,,808 HIGH ST,,,BATH,SAGADAHOC,,ME,,04530-2474,US,43.91341810000001,-69.8198443,
ELLSWORTH GROUP HOME,,,,,,+1 (207) 945-4465,,,,,,ELLSWORTH GROUP HOME,,,,,,+1 (207) 667-7216,,,,,,,,,,,,,,,,,,,,,849 RED BRIDGE RD,,,ELLSWORTH,HANCOCK,,ME,,04605-3228,US,44.5915016,-68.5091351,
ELM STREET,,,,,,+1 (207) 786-8061,,,,,,ELM STREET,,,,,,+1 (207) 241-0574,,,,,,,,,,,,,,,,,,,,,101 ELM ST,,,LEWISTON,ANDROSCOGGIN,,ME,,04240-6715,US,44.1034178,-70.20972499999999,
ELM STREET BOARDING HOME,,,,,,+1 (207) 324-6050,,,,,,ELM STREET BOARDING HOME,,,,,,+1 (207) 324-3535,,,,,,,,,,,,,,,,,,,,,9 ELM ST,,,SANFORD,YORK,,ME,,04073-3001,US,43.4362773,-70.7722553,Sanford
ELM STREET HOUSE,,,,,,+1 (207) 621-6379,,,,,,ELM STREET HOUSE,,,,,,+1 (207) 626-3475,,,,,,,,,,,,,,,,,,,,,14 ELM ST,,,AUGUSTA,KENNEBEC,,ME,,04330-5110,US,44.31659870000001,-69.780106,
EMBDEN I,,,,,,+1 (844) 451-5678,,,,,,EMBDEN I,,,,,,+1 (207) 643-2230,,,,,,,,,,,,,,,,,,,,,46 MOULTON HILL ROAD,,,EMBDEN,SOMERSET,,ME,,4958,US,44.95950920000001,-69.8965243,
EMBDEN II,,,,,,+1 (844) 451-5679,,,,,,EMBDEN II,,,,,,+1 (207) 643-3019,,,,,,,,,,,,,,,,,,,,,46 MOULTON HILL ROAD,,,EMBDEN,SOMERSET,,ME,,4958,US,44.95950920000001,-69.8965243,
"EMILIO ESTATES, INC.",,,,,,+1 (207) 285-3119,,,,,,"EMILIO ESTATES, INC.",,,,,,+1 (207) 285-7798,,,,,,,,,,,,,,,,,,,,,465 W CORINTH RD,,,CORINTH,PENOBSCOT,,ME,,04427-3144,US,44.97268500000001,-69.02076559999999,
ENGEL PLACE,,,,,,+1 (207) 947-1135,,,,,,ENGEL PLACE,,,,,,+1 (207) 945-5532,,,,,,,,,,,,,,,,,,,,,758 BROADWAY,,,BANGOR,PENOBSCOT,,ME,,04401-3224,US,44.82574200000001,-68.78329800000002,
F.A.R.E. HOUSE,,,,,,+1 (207) 225-5853,,,,,,F.A.R.E. HOUSE,,,,,,+1 (207) 225-5851,,,,,,,,,,,,,,,,,,,,,659 LOWER ST,,,TURNER,ANDROSCOGGIN,,ME,,04282-3909,US,44.259973,-70.23120999999999,
FALLBROOK WOODS,,,,,,+1 (207) 878-7734,,,,,,FALLBROOK WOODS,,,,,,+1 (207) 878-0788,,,,,,,,,,,,,,,,,,,,,60 MERRYMEETING DR,,,PORTLAND,CUMBERLAND,,ME,,04103-3960,US,43.7012371,-70.2816076,North Deering
FALMOUTH HOUSE OPERATING COMPANY LLC,,,,,,+1 (207) 781-4052,,,,,,FALMOUTH HOUSE OPERATING COMPANY LLC,,,,,,+1 (207) 781-4621,,,,,,,,,,,,,,,,,,,,,32 BLUEBERRY LN,,,FALMOUTH,CUMBERLAND,,ME,,04105-2807,US,43.722024,-70.250635,
FARMINGTON CONGREGATE ASSOCIATES,,,,,,+1 (207) 778-5859,,,,,,FARMINGTON CONGREGATE ASSOCIATES,,,,,,+1 (207) 778-4416,,,,,,,,,,,,,,,,,,,,,136 NORTH ST,,,FARMINGTON,FRANKLIN,,ME,,04938-5935,US,44.67458209999999,-70.1467026,Farmington
FENDERSON ROAD,,,,,,+1 (207) 282-8388,,,,,,FENDERSON ROAD,,,,,,+1 (207) 282-8387,,,,,,,,,,,,,,,,,,,,,15 FENDERSON RD,,,SACO,YORK,,ME,,04072-9628,US,43.56727559999999,-70.4341651,
FERN COTTAGE,,,,,,+1 (207) 514-7659,,,,,,FERN COTTAGE,,,,,,+1 (207) 933-1105,,,,,,,,,,,,,,,,,,,,,597 QUAKER RIDGE RD,,,LEEDS,ANDROSCOGGIN,,ME,,04263-3606,US,44.2457905,-70.1309167,
FIELD STONE MANOR 1,,,,,,+1 (888) 460-3866,,,,,,FIELD STONE MANOR 1,,,,,,+1 (207) 460-9303,,,,,,,,,,,,,,,,,,,,,489 S MAIN ST,,,BREWER,PENOBSCOT,,ME,,04412-2428,US,44.77338129999999,-68.7802284,
FIELDSTONE DRIVE GROUP HOME,,,,,,+1 (207) 945-4465,,,,,,FIELDSTONE DRIVE GROUP HOME,,,,,,+1 (207) 990-0459,,,,,,,,,,,,,,,,,,,,,87 FIELDSTONE DR,,,BANGOR,PENOBSCOT,,ME,,04401-3279,US,44.82593960000001,-68.7872146,
FIFTEEN WOODMONT STREET,,,,,,+1 (207) 856-2259,,,,,,FIFTEEN WOODMONT STREET,,,,,,+1 (207) 854-8442,,,,,,,,,,,,,,,,,,,,,15 WOODMONT ST,,,WESTBROOK,CUMBERLAND,,ME,,04092-3047,US,43.6859832,-70.3594461,Frenchtown
FIFTY EIGHT SARGENT AVENUE,,,,,,+1 (207) 782-1734,,,,,,FIFTY EIGHT SARGENT AVENUE,,,,,,+1 (207) 795-1088,,,,,,,,,,,,,,,,,,,,,58 SARGEANT ST,,,LEWISTON,ANDROSCOGGIN,,ME,,04240-3461,US,44.09654189999999,-70.1603733,
FINSON ROAD,,,,,,+1 (207) 990-5948,,,,,,FINSON ROAD,,,,,,+1 (207) 945-3099,,,,,,,,,,,,,,,,,,,,,726 FINSON RD,,,BANGOR,PENOBSCOT,,ME,,04401-2414,US,44.8418819,-68.814262,
FLOYD POWELL WAIVER HOME,,,,,,+1 (207) 444-6099,,,,,,FLOYD POWELL WAIVER HOME,,,,,,+1 (207) 444-6224,,,,,,,,,,,,,,,,,,,,,38 CARTER STREET,,,EAGLE LAKE,AROOSTOOK,,ME,,4739,US,47.03545,-68.59512,
FOGG AVENUE,,,,,,+1 (207) 282-8388,,,,,,FOGG AVENUE,,,,,,+1 (207) 284-6977,,,,,,,,,,,,,,,,,,,,,4 FOGG AVE,,,BIDDEFORD,YORK,,ME,,04005-3106,US,43.48644829999999,-70.4658185,
FOGG ROAD,,,,,,+1 (207) 772-3743,,,,,,FOGG ROAD,,,,,,+1 (207) 727-6783,,,,,,,,,,,,,,,,,,,,,61 FOGG RD,,,BUXTON,YORK,,ME,,04093-3614,US,43.68409209999999,-70.5488187,
FONTBONNE,,,,,,+1 (207) 861-5575,,,,,,FONTBONNE,,,,,,+1 (207) 873-0705,,,,,,,,,,,,,,,,,,,,,7 HIGHWOOD ST,,,WATERVILLE,KENNEBEC,,ME,,04901-5739,US,44.5697378,-69.6225661,
FORBES LANE,,,,,,+1 (207) 772-3743,,,,,,FORBES LANE,,,,,,+1 (207) 892-0214,,,,,,,,,,,,,,,,,,,,,109 FORBES LN,,,WINDHAM,CUMBERLAND,,ME,,04062-6114,US,43.8322542,-70.41648239999999,North Windham
FORESIDE HARBOR,,,,,,+1 (207) 781-9061,,,,,,FORESIDE HARBOR,,,,,,+1 (207) 781-8201,,,,,,,,,,,,,,,,,,,,,191 FORESIDE RD,,,FALMOUTH,CUMBERLAND,,ME,,04105-1768,US,43.7270382,-70.213233,Falmouth Foreside
FOREST AVENUE HOME,,,,,,+1 (207) 667-1977,,,,,,FOREST AVENUE HOME,,,,,,+1 (207) 667-6065,,,,,,,,,,,,,,,,,,,,,5 FOREST AVENUE,,,ELLSWORTH,HANCOCK,,ME,,4605,US,44.5526164,-68.4312013,
FOREST STREET,,,,,,+1 (207) 282-3101,,,,,,FOREST STREET,,,,,,+1 (207) 450-0306,,,,,,,,,,,,,,,,,,,,,77 FOREST ST,,,SACO,YORK,,ME,,04072-3110,US,43.5055012,-70.4570962,
FORTY SEVEN WOOD STREET,,,,,,+1 (207) 784-2398,,,,,,FORTY SEVEN WOOD STREET,,,,,,+1 (207) 784-6996,,,,,,,,,,,,,,,,,,,,,47 WOOD ST,,,LEWISTON,ANDROSCOGGIN,,ME,,04240-6844,US,44.10144529999999,-70.20924630000002,
FOSTER STREET HOME,,,,,,+1 (207) 667-1977,,,,,,FOSTER STREET HOME,,,,,,+1 (207) 667-7464,,,,,,,,,,,,,,,,,,,,,24 FOSTER STREET,,,ELLSWORTH,HANCOCK,,ME,,4605,US,44.5333382,-68.4176193,
FOUR O EIGHT-B BRIGHTON AVENUE,,,,,,+1 (207) 854-1787,,,,,,FOUR O EIGHT-B BRIGHTON AVENUE,,,,,,+1 (207) 899-2245,,,,,,,,,,,,,,,,,,,,,408 BRIGHTON AVE,,,PORTLAND,CUMBERLAND,,ME,,04102-2328,US,43.66636109999999,-70.2949022,Rosemont
FOURTH STREET HOME,,,,,,+1 (207) 369-0141,,,,,,FOURTH STREET HOME,,,,,,+1 (207) 369-0678,,,,,,,,,,,,,,,,,,,,,22 FOURTH ST,,,MEXICO,OXFORD,,ME,,04257-1738,US,44.5506831,-70.529243,Mexico
FRANCISCAN HOME,,,,,,+1 (207) 444-6099,,,,,,FRANCISCAN HOME,,,,,,+1 (207) 444-5152,,,,,,,,,,,,,,,,,,,,,3400 AROOSTOOK RD,,,EAGLE LAKE,AROOSTOOK,,ME,,4739,US,47.035568,-68.595827,
FRANKLIN HEIGHTS,,,,,,+1 (207) 778-0484,,,,,,FRANKLIN HEIGHTS,,,,,,+1 (207) 778-0484,,,,,,,,,,,,,,,,,,,,,125 BELCHER RD,,,FARMINGTON,FRANKLIN,,ME,,04938-5713,US,44.675522,-70.1493308,Farmington
FRANKLIN HOME,,,,,,+1 (207) 667-1977,,,,,,FRANKLIN HOME,,,,,,+1 (207) 667-0254,,,,,,,,,,,,,,,,,,,,,53 UNION ST,,,ELLSWORTH,HANCOCK,,ME,,04605-1552,US,44.5475605,-68.41476,
"FRANKLIN HOUSE, THE",,,,,,,,,,,,THE FRANKLIN HOUSE,,,,,,+1 (207) 565-8991,,,,,,,,,,,,,,,,,,,,,80 MAIN ST,,,FRANKLIN,HANCOCK,,ME,,04634-3114,US,41.120542,-74.586106,
FRANKLIN-GOLDEN ACRES,,,,,,+1 (207) 565-2352,,,,,,FRANKLIN-GOLDEN ACRES,,,,,,+1 (207) 565-2352,,,,,,,,,,,,,,,,,,,,,80 MAIN ST,,,FRANKLIN,HANCOCK,,ME,,04634-3114,US,41.120542,-74.586106,
FREDERICK AVENUE FOSTER HOME,,,,,,+1 (207) 743-0556,,,,,,FREDERICK AVENUE FOSTER HOME,,,,,,+1 (207) 743-0556,,,,,,,,,,,,,,,,,,,,,3 FREDERICK AVE,,,SOUTH PARIS,OXFORD,,ME,,04281-1402,US,44.2182086,-70.5210728,South Paris
FREEPORT PLACE,,,,,,+1 (207) 865-6681,,,,,,FREEPORT PLACE,,,,,,+1 (207) 865-3500,,,,,,,,,,,,,,,,,,,,,4 OLD COUNTY RD,,,FREEPORT,CUMBERLAND,,ME,,04032-6231,US,43.8319158,-70.13475489999999,
FREESE'S ASSISTED LIVING PROGRAM,,,,,,+1 (207) 973-3699,,,,,,FREESE'S ASSISTED LIVING PROGRAM,,,,,,+1 (207) 973-3571,,,,,,,,,,,,,,,,,,,,,10 WATER ST STE 1,,,BANGOR,PENOBSCOT,,ME,,04401-6394,US,44.7992133,-68.7719541,
FRIENDSHIP COTTAGE,,,,,,+1 (207) 374-5023,,,,,,FRIENDSHIP COTTAGE,,,,,,+1 (207) 374-5612,,,,,,,,,,,,,,,,,,,,,118 ELLSWORTH ROAD,,,BLUE HILL,HANCOCK,,ME,,4614,US,44.4232974,-68.5797676,
FRIENDSHIP COVE,,,,,,+1 (207) 725-9349,,,,,,FRIENDSHIP COVE,,,,,,+1 (207) 725-2650,,,,,,,,,,,,,,,,,,,,,30 GOVERNORS WAY,,,TOPSHAM,SAGADAHOC,,ME,,04086-1680,US,43.9288102,-69.9584783,Topsham
FRIENDSHIP HOUSE,,,,,,+1 (844) 468-9586,,,,,,FRIENDSHIP HOUSE,,,,,,+1 (207) 469-6090,,,,,,,,,,,,,,,,,,,,,75 FRANKLIN ST,,,BUCKSPORT,HANCOCK,,ME,,04416-4033,US,44.5739186,-68.7933061,
FRUIT STREET,,,,,,+1 (207) 945-9997,,,,,,FRUIT STREET,,,,,,+1 (207) 215-4810,,,,,,,,,,,,,,,,,,,,,155 FRUIT ST,,,BANGOR,PENOBSCOT,,ME,,04401-4141,US,44.8128385,-68.75731619999999,
FRYEBURG RESIDENTIAL CARE CENTER,,,,,,+1 (207) 935-3226,,,,,,FRYEBURG RESIDENTIAL CARE CENTER,,,,,,+1 (207) 935-3351,,,,,,,,,,,,,,,,,,,,,70 FAIRVIEW DR,,,FRYEBURG,OXFORD,,ME,,04037-1524,US,44.0270354,-70.9663766,
FULLER CORNER WAIVER,,,,,,+1 (207) 938-3865,,,,,,FULLER CORNER WAIVER,,,,,,+1 (207) 938-4615,,,,,,,,,,,,,,,,,,,,,471 FULLER CORNER RD,,,HARTLAND,SOMERSET,,ME,,04943-3605,US,44.8448855,-69.46827379999999,
GAGE STREET ASSISTED HOUSING PROGRAM,,,,,,+1 (207) 647-8168,,,,,,GAGE STREET ASSISTED HOUSING PROGRAM,,,,,,+1 (207) 647-8168,,,,,,,,,,,,,,,,,,,,,8 GAGE ST,,,BRIDGTON,CUMBERLAND,,ME,,04009-1108,US,44.0534775,-70.71347840000001,
GALLAGHER COTTAGE WAIVER,,,,,,+1 (207) 938-2693,,,,,,GALLAGHER COTTAGE WAIVER,,,,,,+1 (207) 453-7329,,,,,,,,,,,,,,,,,,,,,9 PRATT ROAD,,,HINCKLEY,SOMERSET,,ME,,4944,US,44.675614,-69.6332633,
"GARDEN, THE",,,,,,,,,,,,THE GARDEN,,,,,,+1 (207) 373-3646,,,,,,,,,,,,,,,,,,,,,58 BARIBEAU DR,,,BRUNSWICK,CUMBERLAND,,ME,,04011-3218,US,43.8986737,-69.97988339999999,Brunswick
GARDINER HEALTH CARE FACILITY,,,,,,+1 (207) 532-2744,,,,,,GARDINER HEALTH CARE FACILITY,,,,,,+1 (207) 532-3323,,,,,,,,,,,,,,,,,,,,,8 HOLLAND ST,,,HOULTON,AROOSTOOK,,ME,,04730-1706,US,46.1218376,-67.8421537,Houlton
GARDNER STREET HOME,,,,,,+1 (207) 463-2125,,,,,,GARDNER STREET HOME,,,,,,+1 (207) 463-2156,,,,,,,,,,,,,,,,,,,,,13 GARDNER ST,,,PATTEN,PENOBSCOT,,ME,,04765-3078,US,45.9960975,-68.445495,
"GATHERING PLACE SOCIAL ADULT DAY CENTER, THE",,,,,,,,,,,,THE GATHERING PLACE SOCIAL ADULT DAY CENTER,,,,,,+1 (207) 439-6111,,,,,,,,,,,,,,,,,,,,,518 US ROUTE 1,,,KITTERY,YORK,,ME,,03904-2500,US,43.1307016,-70.7028199,
GEORGE ROBISHAW HOME,,,,,,+1 (207) 236-0690,,,,,,GEORGE ROBISHAW HOME,,,,,,+1 (207) 594-0855,,,,,,,,,,,,,,,,,,,,,170A RANKIN ST,,,ROCKLAND,KNOX,,ME,,04841-2318,US,44.1134144,-69.1219638,
GEORGIA STREET RESIDENCE,,,,,,+1 (207) 761-8460,,,,,,GEORGIA STREET RESIDENCE,,,,,,+1 (207) 797-9502,,,,,,,,,,,,,,,,,,,,,28 GEORGIA ST,,,PORTLAND,CUMBERLAND,,ME,,04103-6016,US,43.7162098,-70.2935954,North Deering
GETCHELL FOSTER HOMES,,,,,,+1 (207) 843-0612,,,,,,GETCHELL FOSTER HOMES,,,,,,+1 (207) 478-6759,,,,,,,,,,,,,,,,,,,,,219 BRUCKOFF RD,,,CLIFTON,PENOBSCOT,,ME,,04428-6038,US,44.8017765,-68.56028959999999,
GETCHELL GROUP HOME B,,,,,,+1 (207) 945-6973,,,,,,GETCHELL GROUP HOME B,,,,,,+1 (207) 945-0730,,,,,,,,,,,,,,,,,,,,,785 MOUNT HOPE AVE,,,BANGOR,PENOBSCOT,,ME,,04401-5621,US,44.825015,-68.7288654,
GODIN HOUSE,,,,,,+1 (207) 282-6810,,,,,,GODIN HOUSE,,,,,,+1 (207) 284-7456,,,,,,,,,,,,,,,,,,,,,445 MAIN ST STE A,,,BIDDEFORD,YORK,,ME,,04005-2142,US,43.4965693,-70.4670091,
"GOLDEN YEARS ADULT DAY SERVICES, THE",,,,,,+1 (207) 850-1184,,,,,,THE GOLDEN YEARS ADULT DAY SERVICES,,,,,,+1 (207) 850-4793,,,,,,,,,,,,,,,,,,,,,24 HOYT ST,,,SPRINGVALE,YORK,,ME,,04083-1710,US,43.4547148,-70.7869797,Springvale
GOLDENEYE RESIDENCE,,,,,,+1 (207) 725-1416,,,,,,GOLDENEYE RESIDENCE,,,,,,+1 (207) 725-4371,,,,,,,,,,,,,,,,,,,,,29 GOLDENEYE DR,,,TOPSHAM,SAGADAHOC,,ME,,04086-1530,US,43.9299579,-69.92683339999999,Topsham
GORDON GREEN,,,,,,+1 (207) 767-2513,,,,,,GORDON GREEN,,,,,,+1 (207) 767-2238,,,,,,,,,,,,,,,,,,,,,23 THIRD ST,,,SOUTH PORTLAND,CUMBERLAND,,ME,,04106-2070,US,43.64106779999999,-70.2443208,Ferry Village
GORHAM HOUSE,,,,,,+1 (207) 839-8263,,,,,,GORHAM HOUSE,,,,,,+1 (207) 839-5757,,,,,,,,,,,,,,,,,,,,,50 NEW PORTLAND RD,,,GORHAM,CUMBERLAND,,ME,,04038-1542,US,43.6814741,-70.4340649,Gorham
"GRACE HOME 2, THE",,,,,,+1 (207) 565-2352,,,,,,THE GRACE HOME 2,,,,,,+1 (207) 460-3825,,,,,,,,,,,,,,,,,,,,,95 WILLEY DISTRICT RD,,,HARRINGTON,WASHINGTON,,ME,,04643-3228,US,44.6077887,-67.9208361,
GRACE STREET,,,,,,+1 (207) 594-8960,,,,,,GRACE STREET,,,,,,+1 (207) 594-8960,,,,,,,,,,,,,,,,,,,,,47 GRACE ST,,,ROCKLAND,KNOX,,ME,,04841-2834,US,44.10287760000001,-69.11437699999999,
GRAFTON STREET,,,,,,+1 (207) 879-7466,,,,,,GRAFTON STREET,,,,,,+1 (207) 775-2868,,,,,,,,,,,,,,,,,,,,,42 GRAFTON ST,,,PORTLAND,CUMBERLAND,,ME,,04103-5008,US,43.688974,-70.264022,East Deering
GRANGE WAIVER,,,,,,+1 (207) 238-9261,,,,,,GRANGE WAIVER,,,,,,+1 (207) 238-9260,,,,,,,,,,,,,,,,,,,,,13 PRATT ROAD,,,HINCKLEY,SOMERSET,,ME,,4944,US,44.675614,-69.6332633,
GRANT MANOR,,,,,,+1 (888) 460-3866,,,,,,GRANT MANOR,,,,,,+1 (207) 460-9303,,,,,,,,,,,,,,,,,,,,,19 MILL ST,,,BREWER,PENOBSCOT,,ME,,04412-2508,US,44.7653416,-68.7793709,
GRAY MANOR,,,,,,+1 (207) 657-4950,,,,,,GRAY MANOR,,,,,,+1 (207) 657-4949,,,,,,,,,,,,,,,,,,,,,9 LEWISTON RD,,,GRAY,CUMBERLAND,,ME,,04039-9534,US,43.8905936,-70.3280933,
GREENE HOME,,,,,,+1 (207) 777-1605,,,,,,GREENE HOME,,,,,,+1 (207) 946-3269,,,,,,,,,,,,,,,,,,,,,119 MEADOW HILL RD,,,GREENE,ANDROSCOGGIN,,ME,,04236-3949,US,44.1867601,-70.170574,
GREENHILL RESIDENCE,,,,,,+1 (207) 282-0802,,,,,,GREENHILL RESIDENCE,,,,,,+1 (207) 282-3741,,,,,,,,,,,,,,,,,,,,,1 GREEN ST,,,BIDDEFORD,YORK,,ME,,04005-2402,US,43.4933856,-70.45961919999999,
GROVE STREET GROUP HOME,,,,,,+1 (207) 945-4465,,,,,,GROVE STREET GROUP HOME,,,,,,+1 (207) 942-7669,,,,,,,,,,,,,,,,,,,,,120 GROVE ST,,,BANGOR,PENOBSCOT,,ME,,04401-5312,US,44.8086542,-68.766046,
GUINEA ROAD,,,,,,+1 (207) 282-8383,,,,,,GUINEA ROAD,,,,,,+1 (207) 282-2666,,,,,,,,,,,,,,,,,,,,,3 AJAC WAY,,,BIDDEFORD,YORK,,ME,,04005-9121,US,43.4780887,-70.4205343,
GUY STREET,,,,,,+1 (207) 532-1359,,,,,,GUY STREET,,,,,,+1 (207) 532-7150,,,,,,,,,,,,,,,,,,,,,41 GUY STREET,,,HOULTON,AROOSTOOK,,ME,,4730,US,46.1301019,-67.8188326,Houlton
H.E.L.P. ADULT RESPITE CARE,,,,,,+1 (207) 864-9062,,,,,,H.E.L.P. ADULT RESPITE CARE,,,,,,+1 (207) 864-4397 x4,,,,,,,,,,,,,,,,,,,,,42 DALLAS HILL RD,,,RANGELEY,FRANKLIN,,ME,,04970-4032,US,44.95281199999999,-70.63658199999999,
HALL-DALE MANOR,,,,,,+1 (207) 512-2037,,,,,,HALL-DALE MANOR,,,,,,+1 (207) 622-7082,,,,,,,,,,,,,,,,,,,,,647 MAINE AVE,,,FARMINGDALE,KENNEBEC,,ME,,04344-1526,US,44.2625389,-69.7813815,
HALLOWELL ROAD,,,,,,+1 (207) 725-1416,,,,,,HALLOWELL ROAD,,,,,,+1 (207) 504-5639,,,,,,,,,,,,,,,,,,,,,1241 HALLOWELL RD,,,DURHAM,ANDROSCOGGIN,,ME,,04222-5238,US,43.9446703,-70.1504148,
HAMPDEN MEADOWS,,,,,,+1 (844) 468-9588,,,,,,HAMPDEN MEADOWS,,,,,,+1 (207) 862-4684,,,,,,,,,,,,,,,,,,,,,1282 KENNEBEC RD,,,HAMPDEN,PENOBSCOT,,ME,,04444-3118,US,44.69761949999999,-68.9488144,
HAMPDEN WOODS MANOR,,,,,,,,,,,,HAMPDEN WOODS MANOR,,,,,,+1 (207) 951-6800,,,,,,,,,,,,,,,,,,,,,60 CARMEL RD S,,,HAMPDEN,PENOBSCOT,,ME,,04444-3122,US,44.6945881,-68.9420427,
HANCOCK GOLDEN ACRES,,,,,,+1 (207) 422-2500,,,,,,HANCOCK GOLDEN ACRES,,,,,,+1 (207) 460-3825,,,,,,,,,,,,,,,,,,,,,1421 US HIGHWAY 1,,,HANCOCK,HANCOCK,,ME,,4640,US,44.5286783,-68.2546541,
"HANCOCK HOME 1, THE",,,,,,+1 (207) 422-9112,,,,,,THE HANCOCK HOME 1,,,,,,+1 (207) 422-3777,,,,,,,,,,,,,,,,,,,,,203 EASTSIDE RD,,,HANCOCK,HANCOCK,,ME,,04640-3906,US,44.516384,-68.22819559999999,
"HANCOCK HOUSE, THE",,,,,,+1 (207) 425-2522,,,,,,THE HANCOCK HOUSE,,,,,,+1 (207) 425-2522,,,,,,,,,,,,,,,,,,,,,1421 US HIGHWAY 1,,,HANCOCK,HANCOCK,,ME,,4640,US,44.5286783,-68.2546541,
HANCOCK HOUSE-DEHI,,,,,,+1 (207) 667-1977,,,,,,HANCOCK HOUSE-DEHI,,,,,,+1 (207) 667-0320,,,,,,,,,,,,,,,,,,,,,493 US ROUTE 1,,,HANCOCK,HANCOCK,,ME,,4840,US,44.53711999999999,-68.3417899,
HANNAH DRIVE,,,,,,,,,,,,HANNAH DRIVE,,,,,,+1 (207) 828-0048,,,,,,,,,,,,,,,,,,,,,15 HANNAH DR,,,GORHAM,CUMBERLAND,,ME,,04038-5863,US,43.7317949,-70.4291685,Little Falls
HARBOR HILL CENTER,,,,,,+1 (207) 338-5079,,,,,,HARBOR HILL CENTER,,,,,,+1 (207) 338-1129,,,,,,,,,,,,,,,,,,,,,2 FOOTBRIDGE RD,,,BELFAST,WALDO,,ME,,04915-7206,US,44.4335026,-69.0058658,
HARBOR VIEW COTTAGE,,,,,,+1 (207) 563-3308,,,,,,HARBOR VIEW COTTAGE,,,,,,+1 (207) 563-3305,,,,,,,,,,,,,,,,,,,,,34 MAIN ST,,,NEWCASTLE,LINCOLN,,ME,,04553-3819,US,44.0337308,-69.539007,
HARMONY LANE,,,,,,+1 (207) 879-1146,,,,,,HARMONY LANE,,,,,,+1 (207) 284-5156,,,,,,,,,,,,,,,,,,,,,1 HARMONY LN,,,BIDDEFORD,YORK,,ME,,04005-9389,US,43.4913886,-70.4865915,
"HARRINGTON HOUSE, THE",,,,,,+1 (207) 483-2247,,,,,,THE HARRINGTON HOUSE,,,,,,+1 (207) 483-2247,,,,,,,,,,,,,,,,,,,,,95 WILLEY DISTRICT RD,,,HARRINGTON,WASHINGTON,,ME,,04643-3228,US,44.6077887,-67.9208361,
HARRIS ROAD,,,,,,+1 (207) 345-3220,,,,,,HARRIS ROAD,,,,,,+1 (207) 345-0956,,,,,,,,,,,,,,,,,,,,,10 HARRIS RD,,,MINOT,ANDROSCOGGIN,,ME,,04258-4240,US,44.15708069999999,-70.3492365,
HARRISON HOUSE,,,,,,+1 (207) 564-2404,,,,,,HARRISON HOUSE,,,,,,+1 (207) 564-8149,,,,,,,,,,,,,,,,,,,,,33 SPRING ST,,,DOVER FOXCROFT,PISCATAQUIS,,ME,,04426-1115,US,45.1891884,-69.23006459999999,Dover-Foxcroft
HARTLAND RD WAIVER,,,,,,+1 (207) 938-3069,,,,,,HARTLAND RD WAIVER,,,,,,+1 (207) 938-7050,,,,,,,,,,,,,,,,,,,,,362 ESTES AVE,,,PALMYRA,SOMERSET,,ME,,04965-3837,US,44.8346288,-69.4181845,
HASKELL STREET ASSISTED LIVING FACILITY,,,,,,+1 (207) 797-6398,,,,,,HASKELL STREET ASSISTED LIVING FACILITY,,,,,,+1 (207) 854-9367,,,,,,,,,,,,,,,,,,,,,99 HASKELL ST,,,WESTBROOK,CUMBERLAND,,ME,,04092-4217,US,43.6766757,-70.3508968,
HEATH HOUSE,,,,,,+1 (207) 286-1300,,,,,,HEATH HOUSE,,,,,,+1 (207) 286-3481,,,,,,,,,,,,,,,,,,,,,45 HEATH RD,,,SACO,YORK,,ME,,04072-9335,US,43.559255,-70.48898,
HELEN'S FAMILY HOME,,,,,,+1 (207) 527-2760,,,,,,HELEN'S FAMILY HOME,,,,,,+1 (207) 527-2760,,,,,,,,,,,,,,,,,,,,,516 GREENWOOD RD,,,NORWAY,OXFORD,,ME,,04268-4412,US,44.251877,-70.618223,
HELMS WAY,,,,,,+1 (207) 839-7002,,,,,,HELMS WAY,,,,,,+1 (207) 839-7002,,,,,,,,,,,,,,,,,,,,,43 HELMS WAY,,,GORHAM,CUMBERLAND,,ME,,04038-1892,US,43.66391280000001,-70.43165909999999,Gorham
HERITAGE REHABILITATION AND LIVING CENTER,,,,,,+1 (207) 377-6267,,,,,,HERITAGE REHABILITATION AND LIVING CENTER,,,,,,+1 (207) 377-9965,,,,,,,,,,,,,,,,,,,,,457 OLD LEWISTON RD,,,WINTHROP,KENNEBEC,,ME,,04364-4111,US,44.2888339,-70.0035966,
HIGH STREET FOSTER HOME,,,,,,+1 (207) 532-1359,,,,,,HIGH STREET FOSTER HOME,,,,,,+1 (207) 532-9001,,,,,,,,,,,,,,,,,,,,,89 HIGH ST,,,HOULTON,AROOSTOOK,,ME,,04730-1941,US,46.1147003,-67.8343938,Houlton
HIGHLAND AVENUE,,,,,,+1 (207) 282-8388,,,,,,HIGHLAND AVENUE,,,,,,+1 (207) 883-4696,,,,,,,,,,,,,,,,,,,,,56 HIGHLAND AVE,,,SCARBOROUGH,CUMBERLAND,,ME,,04074-9346,US,43.58587989999999,-70.313356,
HILLCREST GARDENS,,,,,,+1 (207) 490-7642,,,,,,HILLCREST GARDENS,,,,,,+1 (207) 490-7601,,,,,,,,,,,,,,,,,,,,,35 JULY ST,,,SANFORD,YORK,,ME,,04073-1909,US,43.4479534,-70.76568209999999,Sanford
"HILLHOUSE, INC.",,,,,,+1 (207) 443-3977,,,,,,"HILLHOUSE, INC.",,,,,,+1 (207) 443-6301,,,,,,,,,,,,,,,,,,,,,166 WHISKEAG RD,,,BATH,SAGADAHOC,,ME,,04530-4135,US,43.9342622,-69.8346957,
"HILLSIDE TERRACE OF HALLOWELL, LLC",,,,,,+1 (207) 872-8990,,,,,,"HILLSIDE TERRACE OF HALLOWELL, LLC",,,,,,+1 (207) 622-5644,,,,,,,,,,,,,,,,,,,,,21 WARREN ST,,,HALLOWELL,KENNEBEC,,ME,,04347-1247,US,44.28620919999999,-69.7957687,
HILLTOP HOME,,,,,,+1 (207) 667-1977,,,,,,HILLTOP HOME,,,,,,+1 (207) 667-0344,,,,,,,,,,,,,,,,,,,,,47 BEALS AVE,,,ELLSWORTH,HANCOCK,,ME,,04605-1701,US,44.5416964,-68.4166296,
HILLTOP MANOR,,,,,,+1 (207) 564-2019,,,,,,HILLTOP MANOR,,,,,,+1 (207) 564-3049,,,,,,,,,,,,,,,,,,,,,462 ESSEX ST,,,DOVER FOXCROFT,PISCATAQUIS,,ME,,04426-1311,US,45.1855583,-69.21614009999999,Dover-Foxcroft
HODGDON GREEN BOARDING HOME,,,,,,+1 (207) 563-8572,,,,,,HODGDON GREEN BOARDING HOME,,,,,,+1 (207) 563-2148,,,,,,,,,,,,,,,,,,,,,6 HODGDON ST,,,DAMARISCOTTA,LINCOLN,,ME,,04543-4638,US,44.03322379999999,-69.5265787,
HOLBROOK ASSISTED LIVING AT PIPER SHORES,,,,,,,,,,,,HOLBROOK ASSISTED LIVING AT PIPER SHORES,,,,,,+1 (207) 883-8700,,,,,,,,,,,,,,,,,,,,,15 PIPER RD,,,SCARBOROUGH,CUMBERLAND,,ME,,04074-9473,US,43.5617508,-70.2896133,
HOLMES HOUSE,,,,,,+1 (207) 563-2474,,,,,,HOLMES HOUSE,,,,,,+1 (207) 563-3511,,,,,,,,,,,,,,,,,,,,,55 TIMBER LN,,,NEWCASTLE,LINCOLN,,ME,,04553-3320,US,44.0491501,-69.5390989,
HOLY CROSS FOSTER HOME,,,,,,+1 (207) 868-5742,,,,,,HOLY CROSS FOSTER HOME,,,,,,+1 (207) 868-5742,,,,,,,,,,,,,,,,,,,,,113 CHAMPLAIN ST,,,VAN BUREN,AROOSTOOK,,ME,,04785-1387,US,47.169774,-67.94583899999999,Van Buren
HOMEPORT AT ISLAND NURSING HOME,,,,,,+1 (207) 348-6154,,,,,,HOMEPORT AT ISLAND NURSING HOME,,,,,,+1 (207) 348-2351,,,,,,,,,,,,,,,,,,,,,587 N DEER ISLE RD,,,DEER ISLE,HANCOCK,,ME,,04627-3438,US,44.26086099999999,-68.67368480000002,
HOPE SPRINGS HAVEN,,,,,,,,,,,,HOPE SPRINGS HAVEN,,,,,,+1 (207) 234-7727,,,,,,,,,,,,,,,,,,,,,195 MILES RD,,,NEWBURGH,PENOBSCOT,,ME,,04444-4733,US,44.7139549,-69.06635279999999,
HORIZONS UNLIMITED,,,,,,+1 (207) 369-0141,,,,,,HORIZONS UNLIMITED,,,,,,+1 (207) 364-8842,,,,,,,,,,,,,,,,,,,,,319 SWAIN RD,,,RUMFORD,OXFORD,,ME,,04276-3803,US,44.5486571,-70.56187539999999,Rumford
HOTEL ROAD,,,,,,+1 (207) 782-1734,,,,,,HOTEL ROAD,,,,,,+1 (207) 784-3951,,,,,,,,,,,,,,,,,,,,,1092 HOTEL RD,,,AUBURN,ANDROSCOGGIN,,ME,,04210-8980,US,44.0950685,-70.2640318,
HOUGHTON HOUSE,,,,,,+1 (844) 451-5680,,,,,,HOUGHTON HOUSE,,,,,,+1 (207) 696-8529,,,,,,,,,,,,,,,,,,,,,3 E HOUGHTON ST,,,MADISON,SOMERSET,,ME,,04950-1304,US,44.8026344,-69.8783385,Madison
HOUSE IN SHAWMUT,,,,,,+1 (207) 877-7718,,,,,,HOUSE IN SHAWMUT,,,,,,+1 (207) 453-7638,,,,,,,,,,,,,,,,,,,,,81 BRAY AVENUE,,,SHAWMUT,SOMERSET,,ME,,4975,US,44.62495219999999,-69.5861722,Shawmut
HUNTINGTON COMMON,,,,,,+1 (866) 377-5289,,,,,,HUNTINGTON COMMON,,,,,,+1 (207) 985-2810,,,,,,,,,,,,,,,,,,,,,1 HUNTINGTON COMMON DR,,,KENNEBUNK,YORK,,ME,,04043-6558,US,43.4029645,-70.5300559,Kennebunk
HUNTINGTON HILL,,,,,,+1 (207) 777-1109,,,,,,HUNTINGTON HILL,,,,,,+1 (207) 268-3824,,,,,,,,,,,,,,,,,,,,,70 HUNTINGTON HILL RD,,,LITCHFIELD,KENNEBEC,,ME,,04350-3721,US,44.1804677,-69.9551609,
HUSSON HOLLOW GROUP HOME,,,,,,+1 (207) 945-4465,,,,,,HUSSON HOLLOW GROUP HOME,,,,,,+1 (207) 941-8552,,,,,,,,,,,,,,,,,,,,,107 HUSSON AVE,,,BANGOR,PENOBSCOT,,ME,,04401-3286,US,44.82401369999999,-68.7914356,
IDA W. LOCKHART RESIDENCE,,,,,,+1 (207) 667-3566,,,,,,IDA W. LOCKHART RESIDENCE,,,,,,+1 (207) 667-6129,,,,,,,,,,,,,,,,,,,,,76 PARK ST,,,ELLSWORTH,HANCOCK,,ME,,04605-1631,US,44.5473955,-68.41958819999999,
INDEPENDENCE HOUSE 1,,,,,,+1 (207) 725-1416,,,,,,INDEPENDENCE HOUSE 1,,,,,,+1 (207) 865-3318,,,,,,,,,,,,,,,,,,,,,31 SCHOOL ST,,,FREEPORT,CUMBERLAND,,ME,,04032-1326,US,43.8573937,-70.0991454,Freeport
INDUSTRY ROAD,,,,,,+1 (207) 778-6070,,,,,,INDUSTRY ROAD,,,,,,+1 (207) 893-6083,,,,,,,,,,,,,,,,,,,,,777 INDUSTRY RD,,,NEW SHARON,FRANKLIN,,ME,,04955-3038,US,44.69308119999999,-70.0279324,
INGRAHAM HOUSE,,,,,,+1 (207) 761-8460,,,,,,INGRAHAM HOUSE,,,,,,+1 (207) 761-8450,,,,,,,,,,,,,,,,,,,,,79 HIGH ST,,,PORTLAND,CUMBERLAND,,ME,,04101-3844,US,43.6527552,-70.2606399,Downtown
"INN AT ATLANTIC HEIGHTS, THE",,,,,,+1 (207) 874-2706,,,,,,THE INN AT ATLANTIC HEIGHTS,,,,,,+1 (207) 283-3022,,,,,,,,,,,,,,,,,,,,,100 HARBOR DR,,,SACO,YORK,,ME,,04072-2173,US,43.4954196,-70.4220469,
"INN AT ATLANTIC HEIGHTS-RCF, THE",,,,,,+1 (207) 571-3013,,,,,,THE INN AT ATLANTIC HEIGHTS-RCF,,,,,,+1 (207) 283-3022,,,,,,,,,,,,,,,,,,,,,100 HARBOR DR,,,SACO,YORK,,ME,,04072-2173,US,43.4954196,-70.4220469,
"INN AT CITY HALL, THE",,,,,,+1 (207) 623-6265,,,,,,THE INN AT CITY HALL,,,,,,+1 (207) 623-0840,,,,,,,,,,,,,,,,,,,,,1 CONY ST,,,AUGUSTA,KENNEBEC,,ME,,04330-5243,US,44.31669959999999,-69.77070859999999,
"INN AT DIRIGO PINES, THE",,,,,,+1 (207) 866-4441,,,,,,THE INN AT DIRIGO PINES,,,,,,+1 (207) 866-3400,,,,,,,,,,,,,,,,,,,,,9 ALUMNI DR,,,ORONO,PENOBSCOT,,ME,,04473-3479,US,44.86904750000001,-68.6896718,Orono
"INN AT SEAPORT VILLAGE, THE",,,,,,,,,,,,THE INN AT SEAPORT VILLAGE,,,,,,+1 (207) 667-9336,,,,,,,,,,,,,,,,,,,,,11 GENERAL MOORE WAY,,,ELLSWORTH,HANCOCK,,ME,,04605-1860,US,44.547195,-68.424977,
INN AT VILLAGE SQUARE,,,,,,+1 (207) 839-6008,,,,,,INN AT VILLAGE SQUARE,,,,,,+1 (207) 839-5101,,,,,,,,,,,,,,,,,,,,,123 SCHOOL ST,,,GORHAM,CUMBERLAND,,ME,,04038-1084,US,43.6848256,-70.44162589999999,Gorham
INN OF ST. ANDREWS VILLAGE,,,,,,+1 (207) 633-1211,,,,,,INN OF ST. ANDREWS VILLAGE,,,,,,+1 (207) 633-0920,,,,,,,,,,,,,,,,,,,,,145 EMERY LN,,,BOOTHBAY HARBOR,LINCOLN,,ME,,04538-1963,US,43.8645217,-69.635258,
IRIS PARK APARTMENTS,,,,,,+1 (207) 774-0679,,,,,,IRIS PARK APARTMENTS,,,,,,+1 (207) 774-6273,,,,,,,,,,,,,,,,,,,,,201 PARK AVE,,,PORTLAND,CUMBERLAND,,ME,,04102-2938,US,43.65634769999999,-70.27575519999999,Valley Street
ISLAND COMMONS RESOURCE CENTER,,,,,,+1 (207) 846-9706,,,,,,ISLAND COMMONS RESOURCE CENTER,,,,,,+1 (207) 846-5610,,,,,,,,,,,,,,,,,,,,,132 LITTLEFIELD RD,,,CHEBEAGUE ISLAND,CUMBERLAND,,ME,,04017-3316,US,43.72977600000001,-70.117659,
IVAN CALDERWOOD HOME,,,,,,+1 (207) 863-9986,,,,,,IVAN CALDERWOOD HOME,,,,,,+1 (207) 863-4600,,,,,,,,,,,,,,,,,,,,,18 BEAVER DAM RD,,,VINALHAVEN,KNOX,,ME,,04863-3915,US,44.0501425,-68.8250008,
"JACOB'S RESIDENTIAL CARE CENTER, INC.",,,,,,+1 (207) 696-3434,,,,,,"JACOB'S RESIDENTIAL CARE CENTER, INC.",,,,,,+1 (207) 696-4466,,,,,,,,,,,,,,,,,,,,,7 CHURCH ST,,,ANSON,SOMERSET,,ME,,04911-3382,US,44.8005194,-69.89193709999999,Anson
JED PROUTY RESIDENTIAL CARE HOME-FIRST FLOOR,,,,,,+1 (207) 902-1230,,,,,,JED PROUTY RESIDENTIAL CARE HOME-FIRST FLOOR,,,,,,+1 (207) 952-0240,,,,,,,,,,,,,,,,,,,,,57 MAIN STREET,,,BUCKSPORT,HANCOCK,,ME,,4416,US,44.5718097,-68.7930035,
JED PROUTY RESIDENTIAL CARE HOME-SECOND FL.,,,,,,,,,,,,JED PROUTY RESIDENTIAL CARE HOME-SECOND FL.,,,,,,+1 (207) 952-0240,,,,,,,,,,,,,,,,,,,,,57 MAIN STREET,,,BUCKSPORT,HANCOCK,,ME,,4416,US,44.5718097,-68.7930035,
JEFFERSON GREEN,,,,,,+1 (207) 549-3540,,,,,,JEFFERSON GREEN,,,,,,+1 (207) 549-3540,,,,,,,,,,,,,,,,,,,,,77 WALDOBORO RD,,,JEFFERSON,LINCOLN,,ME,,04348-3875,US,44.2034047,-69.4680121,
JO-ANN'S FOSTER HOME,,,,,,+1 (207) 465-2080,,,,,,JO-ANN'S FOSTER HOME,,,,,,+1 (207) 465-2080,,,,,,,,,,,,,,,,,,,,,130 HORN HILL RD,,,FAIRFIELD,SOMERSET,,ME,,04937-3029,US,44.6120224,-69.7347975,
JOSEPH STREET FOSTER HOME,,,,,,+1 (207) 532-1359,,,,,,JOSEPH STREET FOSTER HOME,,,,,,+1 (207) 532-1358,,,,,,,,,,,,,,,,,,,,,6 JOSEPH ST,,,HOULTON,AROOSTOOK,,ME,,04730-2358,US,46.11544229999999,-67.8311852,Houlton
KARLA JACOBSON GROUP HOME,,,,,,+1 (207) 743-7585,,,,,,KARLA JACOBSON GROUP HOME,,,,,,+1 (207) 743-7585,,,,,,,,,,,,,,,,,,,,,21 PARIS HILL RD,,,SOUTH PARIS,OXFORD,,ME,,04281-1200,US,44.231224,-70.51154300000002,South Paris
KATAHDIN HOUSE,,,,,,+1 (207) 563-7206,,,,,,KATAHDIN HOUSE,,,,,,+1 (207) 563-2895,,,,,,,,,,,,,,,,,,,,,55 TIMBER LN # 1,,,NEWCASTLE,LINCOLN,,ME,,04553-3320,US,44.0491501,-69.5390989,
KATAHDIN STREET HOME,,,,,,+1 (207) 463-2151,,,,,,KATAHDIN STREET HOME,,,,,,+1 (207) 528-2929,,,,,,,,,,,,,,,,,,,,,15A KATAHDIN STREET,,,PATTEN,PENOBSCOT,,ME,,4765,US,45.99662319999999,-68.4454624,
KELLY A,,,,,,+1 (207) 523-5189,,,,,,KELLY A,,,,,,+1 (207) 899-2565,,,,,,,,,,,,,,,,,,,,,50 WESTMINSTER AVE,,,PORTLAND,CUMBERLAND,,ME,,04103-2431,US,43.6711213,-70.3025281,Deering Center
KELLY DRIVE HOME,,,,,,+1 (207) 375-8924,,,,,,KELLY DRIVE HOME,,,,,,+1 (207) 375-8920,,,,,,,,,,,,,,,,,,,,,46 KELLY DR,,,SABATTUS,ANDROSCOGGIN,,ME,,04280-4320,US,44.1207269,-70.0568792,
KENDALL LANE,,,,,,+1 (207) 761-8405,,,,,,KENDALL LANE,,,,,,+1 (207) 671-3565,,,,,,,,,,,,,,,,,,,,,4 KENDALL LN,,,FREEPORT,CUMBERLAND,,ME,,04032-1414,US,43.867286,-70.10391849999999,Freeport
KENNEBAGO DRIVE,,,,,,+1 (207) 289-1099,,,,,,KENNEBAGO DRIVE,,,,,,+1 (207) 883-0097,,,,,,,,,,,,,,,,,,,,,16 KENNEBAGO DR,,,SCARBOROUGH,CUMBERLAND,,ME,,04074-9303,US,43.6065471,-70.3863105,
KENNEDY FOSTER HOME,,,,,,+1 (207) 444-6099,,,,,,KENNEDY FOSTER HOME,,,,,,+1 (207) 444-5434,,,,,,,,,,,,,,,,,,,,,31 DEVOE BROOK RD,,,EAGLE LAKE,AROOSTOOK,,ME,,4739,US,47.0437269,-68.5997568,
KENNISON FAMILY FOSTER HOME,,,,,,+1 (207) 527-2405,,,,,,KENNISON FAMILY FOSTER HOME,,,,,,+1 (207) 527-2405,,,,,,,,,,,,,,,,,,,,,353 GREENWOOD RD,,,NORWAY,OXFORD,,ME,,04268-4402,US,44.24386,-70.60923199999999,
KEYSTONE,,,,,,+1 (207) 861-5575,,,,,,KEYSTONE,,,,,,+1 (207) 873-0705,,,,,,,,,,,,,,,,,,,,,7 HIGHWOOD ST,,,WATERVILLE,KENNEBEC,,ME,,04901-5739,US,44.5697378,-69.6225661,
KIMBALL AVENUE,,,,,,+1 (207) 369-0141,,,,,,KIMBALL AVENUE,,,,,,+1 (207) 364-2439,,,,,,,,,,,,,,,,,,,,,34 KIMBALL AVE,,,MEXICO,OXFORD,,ME,,04257-1237,US,44.5623484,-70.54793529999999,Mexico
KINDRED LIVING - AT MONARCH,,,,,,+1 (207) 284-0909,,,,,,KINDRED LIVING - AT MONARCH,,,,,,+1 (207) 284-0900,,,,,,,,,,,,,,,,,,,,,392 MAIN ST,,,SACO,YORK,,ME,,04072-1521,US,43.5031496,-70.4426075,
KINDRED LIVING - AT VILLAGE CROSSINGS,,,,,,+1 (207) 799-7334,,,,,,KINDRED LIVING - AT VILLAGE CROSSINGS,,,,,,+1 (207) 799-7332,,,,,,,,,,,,,,,,,,,,,78 SCOTT DYER RD,,,CAPE ELIZABETH,CUMBERLAND,,ME,,04107-2200,US,43.59326,-70.237763,
KINDRED LIVING-SENIOR DAY PROGRAM,,,,,,+1 (207) 284-0909,,,,,,KINDRED LIVING-SENIOR DAY PROGRAM,,,,,,+1 (207) 284-0900,,,,,,,,,,,,,,,,,,,,,392 MAIN ST,,,SACO,YORK,,ME,,04072-1521,US,43.5031496,-70.4426075,
KINGSBURY ROAD FOSTER HOME,,,,,,+1 (207) 564-2404,,,,,,KINGSBURY ROAD FOSTER HOME,,,,,,+1 (207) 876-4708,,,,,,,,,,,,,,,,,,,,,76 WEST RD,,,ABBOT,PISCATAQUIS,,ME,,04406-3022,US,45.1802482,-69.4915228,
KNOX ROAD HOUSE,,,,,,+1 (207) 667-1977,,,,,,KNOX ROAD HOUSE,,,,,,+1 (207) 288-9737,,,,,,,,,,,,,,,,,,,,,276 KNOX RD,,,BAR HARBOR,HANCOCK,,ME,,04609-7730,US,44.41684899999999,-68.335824,
LACOURSE COUNTRY ESTATE,,,,,,+1 (207) 247-5682,,,,,,LACOURSE COUNTRY ESTATE,,,,,,+1 (207) 247-5682,,,,,,,,,,,,,,,,,,,,,300 OLD ALFRED RD,,,EAST WATERBORO,YORK,,ME,,04030-5114,US,43.56771680000001,-70.7033694,East Waterboro
LAKEVIEW ADULT FAMILY CARE HOME,,,,,,+1 (207) 794-2896,,,,,,LAKEVIEW ADULT FAMILY CARE HOME,,,,,,+1 (207) 794-2896,,,,,,,,,,,,,,,,,,,,,10 E BROADWAY,,,LINCOLN,PENOBSCOT,,ME,,04457-1416,US,45.363977,-68.5002738,Lincoln
LAKEVIEW DRIVE HOUSE,,,,,,+1 (207) 622-4667,,,,,,LAKEVIEW DRIVE HOUSE,,,,,,+1 (207) 445-8082,,,,,,,,,,,,,,,,,,,,,176 LAKEVIEW DR,,,SOUTH CHINA,KENNEBEC,,ME,,04358-5627,US,44.40791299999999,-69.564922,South China
LAKEVIEW TERRACE RESIDENTIAL CARE FACILITY,,,,,,+1 (207) 403-1462,,,,,,LAKEVIEW TERRACE RESIDENTIAL CARE FACILITY,,,,,,+1 (207) 794-6086,,,,,,,,,,,,,,,,,,,,,74 TAYLOR ST,,,LINCOLN,PENOBSCOT,,ME,,04457-1145,US,45.3548801,-68.49629589999999,Lincoln
LAMBS MILL ROAD HOME,,,,,,,,,,,,LAMBS MILL ROAD HOME,,,,,,+1 (207) 693-4543,,,,,,,,,,,,,,,,,,,,,31 LAMBS MILL RD,,,NAPLES,CUMBERLAND,,ME,,04055-3222,US,43.9709416,-70.6131884,
"LAMP MEMORY CARE CENTER, THE",,,,,,+1 (207) 353-8704,,,,,,THE LAMP MEMORY CARE CENTER,,,,,,+1 (207) 353-4318,,,,,,,,,,,,,,,,,,,,,64 LISBON ST,,,LISBON,ANDROSCOGGIN,,ME,,04250-6017,US,44.0478896,-70.1198414,
LAMSON ROAD,,,,,,+1 (207) 582-2457,,,,,,LAMSON ROAD,,,,,,+1 (207) 623-0838,,,,,,,,,,,,,,,,,,,,,1170 LAMSON RD,,,AUGUSTA,KENNEBEC,,ME,,04330-8562,US,44.3523945,-69.6333559,
LAWN AVENUE,,,,,,+1 (207) 282-8388,,,,,,LAWN AVENUE,,,,,,+1 (207) 284-4627,,,,,,,,,,,,,,,,,,,,,18 LAWN AVE,,,SACO,YORK,,ME,,04072-2950,US,43.4994245,-70.42962279999999,
LAWRENCE ACRES,,,,,,+1 (207) 938-3069,,,,,,LAWRENCE ACRES,,,,,,+1 (207) 938-4614,,,,,,,,,,,,,,,,,,,,,471 HARTLAND RD,,,SAINT ALBANS,SOMERSET,,ME,,04971-7436,US,44.89169620000001,-69.4316867,
LEAP'S OUR HOUSE 1,,,,,,+1 (207) 778-2001,,,,,,LEAP'S OUR HOUSE 1,,,,,,+1 (207) 778-9651,,,,,,,,,,,,,,,,,,,,,148 WHITTIER RD,,,FARMINGTON,FRANKLIN,,ME,,04938-6323,US,44.64545200000001,-70.1418745,
"LEDGEVIEW ASSISTED LIVING, LLC",,,,,,+1 (207) 781-5618,,,,,,"LEDGEVIEW ASSISTED LIVING, LLC",,,,,,+1 (207) 781-2408,,,,,,,,,,,,,,,,,,,,,92 US ROUTE 1,,,CUMBERLAND FORESIDE,CUMBERLAND,,ME,,04110-1315,US,43.758678,-70.208587,Cumberland Foreside
LEDGEVIEW LIVING CENTER,,,,,,+1 (207) 674-3101,,,,,,LEDGEVIEW LIVING CENTER,,,,,,+1 (207) 674-2250,,,,,,,,,,,,,,,,,,,,,141 BETHEL RD,,,WEST PARIS,OXFORD,,ME,,04289-5227,US,44.324713,-70.5483355,
LEGACY MEMORY CARE,,,,,,+1 (207) 781-2786,,,,,,LEGACY MEMORY CARE,,,,,,+1 (207) 781-4428,,,,,,,,,,,,,,,,,,,,,4 SCHOOL HOUSE DR,,,FALMOUTH,CUMBERLAND,,ME,,04105-1994,US,43.7289068,-70.1288527,
LEIGHTON MANOR,,,,,,+1 (888) 460-3866,,,,,,LEIGHTON MANOR,,,,,,+1 (207) 460-9303,,,,,,,,,,,,,,,,,,,,,110 HIGHLAND AVE,,,BANGOR,PENOBSCOT,,ME,,04401-4659,US,44.8063872,-68.7846351,
LENOX STREET HOME,,,,,,+1 (207) 324-6050,,,,,,LENOX STREET HOME,,,,,,+1 (207) 324-2423,,,,,,,,,,,,,,,,,,,,,45 LENOX ST,,,SANFORD,YORK,,ME,,04073-3209,US,43.4327246,-70.7654618,Sanford
LEWIS FOSTER HOME,,,,,,,,,,,,LEWIS FOSTER HOME,,,,,,+1 (207) 942-4186,,,,,,,,,,,,,,,,,,,,,223 SILVER RD,,,BANGOR,PENOBSCOT,,ME,,04401-5831,US,44.7940772,-68.7939105,Fairmount
LEWISTON RIDGE,,,,,,+1 (207) 786-5260,,,,,,LEWISTON RIDGE,,,,,,+1 (207) 786-5248,,,,,,,,,,,,,,,,,,,,,26 OLD LISBON RD,,,LEWISTON,ANDROSCOGGIN,,ME,,04240-1500,US,44.07613249999999,-70.1623852,
LIMERICK RESIDENTIAL CARE FACILITY,,,,,,+1 (207) 797-6398,,,,,,LIMERICK RESIDENTIAL CARE FACILITY,,,,,,+1 (207) 793-2221,,,,,,,,,,,,,,,,,,,,,319 B FOSS ROAD,,,LIMERICK,YORK,,ME,,4048,US,43.6545438,-70.7961092,
"LINCOLN HOME, THE",,,,,,+1 (207) 563-8190,,,,,,THE LINCOLN HOME,,,,,,+1 (207) 563-3350,,,,,,,,,,,,,,,,,,,,,22 RIVER RD,,,NEWCASTLE,LINCOLN,,ME,,04553-3851,US,44.02558930000001,-69.5486701,
LINCOLN STREET GROUP HOME,,,,,,+1 (207) 772-1373,,,,,,LINCOLN STREET GROUP HOME,,,,,,+1 (207) 774-2552,,,,,,,,,,,,,,,,,,,,,18 LINCOLN ST,,,PORTLAND,CUMBERLAND,,ME,,04103-4408,US,43.669138,-70.283255,Back Cove
LINTON STREET FACILITY,,,,,,+1 (207) 879-1146,,,,,,LINTON STREET FACILITY,,,,,,+1 (207) 772-7255,,,,,,,,,,,,,,,,,,,,,66 LINTON ST,,,SOUTH PORTLAND,CUMBERLAND,,ME,,04106-3319,US,43.63193450000001,-70.3049154,Thornton Heights
LIVING WELL ADULT DAY HEALTH BRUNSWICK,,,,,,+1 (207) 729-0222,,,,,,LIVING WELL ADULT DAY HEALTH BRUNSWICK,,,,,,+1 (207) 729-6222,,,,,,,,,,,,,,,,,,,,,89 ADMIRAL FITCH AVE,,,BRUNSWICK,CUMBERLAND,,ME,,04011-2700,US,43.9004613,-69.9216568,Brunswick Station
LIVING WELL ADULT DAY HEALTH STROUDWATER,,,,,,+1 (207) 857-9017,,,,,,LIVING WELL ADULT DAY HEALTH STROUDWATER,,,,,,+1 (207) 857-9007,,,,,,,,,,,,,,,,,,,,,113 LANDING RD,,,WESTBROOK,CUMBERLAND,,ME,,04092-4094,US,43.6662046,-70.3474699,
LIVING WELL ADULT DAY HEALTH WELLS,,,,,,+1 (207) 646-5444,,,,,,LIVING WELL ADULT DAY HEALTH WELLS,,,,,,+1 (207) 646-3444,,,,,,,,,,,,,,,,,,,,,86 SANFORD RD,,,WELLS,YORK,,ME,,04090-5532,US,43.3224268,-70.581387,
LIZABETH HOUSE II,,,,,,+1 (207) 924-3818,,,,,,LIZABETH HOUSE II,,,,,,+1 (207) 924-3818,,,,,,,,,,,,,,,,,,,,,218 FERN RD,,,DEXTER,PENOBSCOT,,ME,,04930-2609,US,45.0089148,-69.26913069999999,
LODGES CARE CENTER,,,,,,+1 (207) 594-4974,,,,,,LODGES CARE CENTER,,,,,,+1 (207) 324-4757,,,,,,,,,,,,,,,,,,,,,51 MAIN ST,,,SPRINGVALE,YORK,,ME,,04083-1843,US,43.4581463,-70.7916704,Springvale
LOMBARD STREET WAIVER HOME,,,,,,+1 (207) 554-4535,,,,,,LOMBARD STREET WAIVER HOME,,,,,,+1 (207) 764-7127,,,,,,,,,,,,,,,,,,,,,112 LOMBARD ST,,,PRESQUE ISLE,AROOSTOOK,,ME,,04769-2448,US,46.687923,-67.99678,
LOTHROP FOSTER HOME,,,,,,+1 (207) 563-2727,,,,,,LOTHROP FOSTER HOME,,,,,,+1 (207) 563-2727,,,,,,,,,,,,,,,,,,,,,62 HOPKINS HILL RD,,,NEWCASTLE,LINCOLN,,ME,,04553-3600,US,44.0334414,-69.5447997,
LUCETTE'S BOARDING HOME,,,,,,+1 (207) 354-6317,,,,,,LUCETTE'S BOARDING HOME,,,,,,+1 (207) 354-6746,,,,,,,,,,,,,,,,,,,,,61 MAIN ST,,,THOMASTON,KNOX,,ME,,04861-3650,US,44.079627,-69.17945209999999,
MAC-AUTUMN HOUSE,,,,,,+1 (207) 566-5260,,,,,,MAC-AUTUMN HOUSE,,,,,,+1 (207) 566-5766,,,,,,,,,,,,,,,,,,,,,443 MAIN ST,,,MADISON,SOMERSET,,ME,,04950-4203,US,44.7999453,-69.8529926,Madison
MAC-HARVEST HILL HOME,,,,,,+1 (207) 566-5260,,,,,,MAC-HARVEST HILL HOME,,,,,,+1 (207) 566-5766,,,,,,,,,,,,,,,,,,,,,60A DUNBAR HILL RD,,,EMBDEN,SOMERSET,,ME,,4958,US,44.9420935,-69.9196614,
MACHIAS BOARDING HOME,,,,,,+1 (207) 255-5078,,,,,,MACHIAS BOARDING HOME,,,,,,+1 (207) 255-8596,,,,,,,,,,,,,,,,,,,,,2 NORTH ST,,,MACHIAS,WASHINGTON,,ME,,04654-1193,US,44.7185964,-67.4562969,
MAC-HOUSE,,,,,,+1 (207) 566-5260,,,,,,MAC-HOUSE,,,,,,+1 (207) 566-5766,,,,,,,,,,,,,,,,,,,,,60B DUNBAR HILL RD,,,EMBDEN,SOMERSET,,ME,,4958,US,44.92883500000001,-69.917335,
MACSULLIVAN HOME,,,,,,+1 (207) 786-3270,,,,,,MACSULLIVAN HOME,,,,,,+1 (207) 786-3270,,,,,,,,,,,,,,,,,,,,,1 MACSULLIVAN ST,,,LEWISTON,ANDROSCOGGIN,,ME,,04240-4022,US,44.1130401,-70.18516,
MADAWASKA GROUP HOME,,,,,,+1 (207) 728-7679,,,,,,MADAWASKA GROUP HOME,,,,,,+1 (207) 728-6727,,,,,,,,,,,,,,,,,,,,,704 MAIN ST,,,MADAWASKA,AROOSTOOK,,ME,,04756-3043,US,47.35111459999999,-68.2893869,
MADIGAN ESTATES ADULT DAY PROGRAM,,,,,,+1 (207) 532-4456,,,,,,MADIGAN ESTATES ADULT DAY PROGRAM,,,,,,+1 (207) 532-6593,,,,,,,,,,,,,,,,,,,,,93 MILITARY ST,,,HOULTON,AROOSTOOK,,ME,,04730-2421,US,46.1241111,-67.83032159999999,Houlton
MADIGAN HOUSE,,,,,,+1 (207) 532-4456,,,,,,MADIGAN HOUSE,,,,,,+1 (207) 532-6593,,,,,,,,,,,,,,,,,,,,,93 MILITARY ST,,,HOULTON,AROOSTOOK,,ME,,04730-2421,US,46.1241111,-67.83032159999999,Houlton
MADISON AVENUE,,,,,,+1 (844) 451-5681,,,,,,MADISON AVENUE,,,,,,+1 (207) 696-0807,,,,,,,,,,,,,,,,,,,,,92 WHITE SCHOOL HOUSE RD,,,MADISON,SOMERSET,,ME,,04950-4007,US,44.8059109,-69.8219943,
MAE LANE,,,,,,+1 (207) 725-1416,,,,,,MAE LANE,,,,,,+1 (207) 725-4371,,,,,,,,,,,,,,,,,,,,,38 MAE LN,,,TOPSHAM,SAGADAHOC,,ME,,04086-6089,US,43.9693108,-70.0158946,
MAIN STREET WEST,,,,,,+1 (207) 564-8484,,,,,,MAIN STREET WEST,,,,,,+1 (207) 564-8129,,,,,,,,,,,,,,,,,,,,,1037 W MAIN ST,,,DOVER FOXCROFT,PISCATAQUIS,,ME,,04426-3752,US,45.18294119999999,-69.25351119999999,
"MAINE FAMILY SERVICES, LLC",,,,,,,,,,,,"MAINE FAMILY SERVICES, LLC",,,,,,+1 (207) 272-2723,,,,,,,,,,,,,,,,,,,,,14B CARRIAGE LN,,,PORTLAND,CUMBERLAND,,ME,,04103-2317,US,43.6935004,-70.2959861,Riverton
MAINE VETERANS' HOME - AUGUSTA,,,,,,+1 (207) 626-2957,,,,,,MAINE VETERANS' HOME - AUGUSTA,,,,,,+1 (207) 622-2454,,,,,,,,,,,,,,,,,,,,,310 CONY RD,,,AUGUSTA,KENNEBEC,,ME,,04330-0513,US,44.2976702,-69.7462463,
MAINE VETERANS' HOME - BANGOR,,,,,,+1 (207) 942-4810,,,,,,MAINE VETERANS' HOME - BANGOR,,,,,,+1 (207) 942-2333,,,,,,,,,,,,,,,,,,,,,44 HOGAN RD,,,BANGOR,PENOBSCOT,,ME,,04401-5602,US,44.8158646,-68.7386921,
MAINE VETERANS' HOME - CARIBOU,,,,,,+1 (207) 498-3037,,,,,,MAINE VETERANS' HOME - CARIBOU,,,,,,+1 (207) 498-6074,,,,,,,,,,,,,,,,,,,,,163 VAN BUREN RD STE 2,,,CARIBOU,AROOSTOOK,,ME,,04736-3567,US,46.8796554,-68.0082896,
MAINE VETERANS' HOME - MACHIAS,,,,,,+1 (207) 255-6349,,,,,,MAINE VETERANS' HOME - MACHIAS,,,,,,+1 (207) 255-0162,,,,,,,,,,,,,,,,,,,,,32 VETERANS WAY,,,MACHIAS,WASHINGTON,,ME,,04654-3324,US,44.7129504,-67.4741165,
MAINE VETERANS' HOME - SCARBOROUGH,,,,,,+1 (207) 883-7852,,,,,,MAINE VETERANS' HOME - SCARBOROUGH,,,,,,+1 (207) 883-7184,,,,,,,,,,,,,,,,,,,,,290 US ROUTE 1,,,SCARBOROUGH,CUMBERLAND,,ME,,04074-8370,US,43.5873924,-70.3425558,Scarborough
MAINE VETERANS' HOME - SOUTH PARIS,,,,,,+1 (207) 743-7595,,,,,,MAINE VETERANS' HOME - SOUTH PARIS,,,,,,+1 (207) 743-6300,,,,,,,,,,,,,,,,,,,,,477 HIGH ST,,,SOUTH PARIS,OXFORD,,ME,,04281-6507,US,44.25267520000001,-70.5278652,South Paris
MAMIE POWELL WAIVER HOME,,,,,,+1 (207) 444-6099,,,,,,MAMIE POWELL WAIVER HOME,,,,,,+1 (207) 444-6225,,,,,,,,,,,,,,,,,,,,,38 CARTER ST,,,EAGLE LAKE,AROOSTOOK,,ME,,4739,US,47.03545,-68.59512,
MAPLE STREET GROUP HOME,,,,,,+1 (207) 782-1734,,,,,,MAPLE STREET GROUP HOME,,,,,,+1 (207) 345-3538,,,,,,,,,,,,,,,,,,,,,75 MAPLE ST,,,MECHANIC FALLS,ANDROSCOGGIN,,ME,,04256-6110,US,44.1114522,-70.39496129999999,Mechanic Falls
MAPLECREST REHAB AND LIVING CTR ADC PROGRAM,,,,,,+1 (207) 696-8507,,,,,,MAPLECREST REHAB AND LIVING CTR ADC PROGRAM,,,,,,+1 (207) 696-8225,,,,,,,,,,,,,,,,,,,,,174 MAIN ST,,,MADISON,SOMERSET,,ME,,04950-1523,US,44.7984397,-69.876716,Madison
MAPLETON WAIVER HOME,,,,,,,,,,,,MAPLETON WAIVER HOME,,,,,,+1 (207) 764-1836,,,,,,,,,,,,,,,,,,,,,46 FORDS LN,,,MAPLETON,AROOSTOOK,,ME,,04757-4324,US,46.68695,-68.152057,
MARCOUX WAIVER HOME,,,,,,+1 (207) 444-6099,,,,,,MARCOUX WAIVER HOME,,,,,,+1 (207) 444-6223,,,,,,,,,,,,,,,,,,,,,36 MAKAYLA DRIVE,,,EAGLE LAKE,AROOSTOOK,,ME,,4739,US,ERROR,ERROR,ERROR
"MARKET SQUARE HEALTH CARE CENTER, LLC",,,,,,+1 (207) 743-2395,,,,,,"MARKET SQUARE HEALTH CARE CENTER, LLC",,,,,,+1 (207) 743-7086,,,,,,,,,,,,,,,,,,,,,3 MARKET SQ,,,SOUTH PARIS,OXFORD,,ME,,04281-1114,US,44.2239793,-70.5123115,South Paris
MARLU STREET,,,,,,+1 (207) 879-1146,,,,,,MARLU STREET,,,,,,+1 (207) 879-1140,,,,,,,,,,,,,,,,,,,,,26 MARLU ST,,,WESTBROOK,CUMBERLAND,,ME,,04092-4649,US,43.7004211,-70.3340299,
MARSTON STREET HOME,,,,,,+1 (844) 468-9589,,,,,,MARSTON STREET HOME,,,,,,+1 (207) 743-2171,,,,,,,,,,,,,,,,,,,,,16 MARSTON ST,,,NORWAY,OXFORD,,ME,,04268-5776,US,44.2130049,-70.5363598,Norway
MARTHA BALLARD ASSISTED LIVING,,,,,,+1 (207) 626-7762,,,,,,MARTHA BALLARD ASSISTED LIVING,,,,,,+1 (207) 626-7786,,,,,,,,,,,,,,,,,,,,,60 BALSAM DR,,,HALLOWELL,KENNEBEC,,ME,,04347-3008,US,44.3123778,-69.82287509999999,
MARTIN DRIVE,,,,,,+1 (207) 786-8061,,,,,,MARTIN DRIVE,,,,,,+1 (207) 376-4809,,,,,,,,,,,,,,,,,,,,,30 MARTIN DR # 32,,,LEWISTON,ANDROSCOGGIN,,ME,,04240-5041,US,44.0766153,-70.1936185,
MARY LANE,,,,,,+1 (207) 465-2475,,,,,,MARY LANE,,,,,,+1 (207) 465-7201,,,,,,,,,,,,,,,,,,,,,84 MARY LN,,,OAKLAND,KENNEBEC,,ME,,04963-5124,US,44.56467929999999,-69.7275884,
MAST LANDING RESIDENCE,,,,,,+1 (207) 443-8887,,,,,,MAST LANDING RESIDENCE,,,,,,+1 (207) 386-5160,,,,,,,,,,,,,,,,,,,,,4 DIKES LANDING RD,,,BATH,SAGADAHOC,,ME,,04530-2867,US,43.9276178,-69.8173465,
MAYFLOWER PLACE,,,,,,+1 (207) 490-7642,,,,,,MAYFLOWER PLACE,,,,,,+1 (207) 490-7601,,,,,,,,,,,,,,,,,,,,,27 MAYFLOWER ST,,,SANFORD,YORK,,ME,,04073-3645,US,43.417881,-70.7500276,South Sanford
MEADOW ROAD HOME ASSISTED HOUSING PROGRAM,,,,,,+1 (207) 647-9385,,,,,,MEADOW ROAD HOME ASSISTED HOUSING PROGRAM,,,,,,+1 (207) 647-9385,,,,,,,,,,,,,,,,,,,,,113 SANDY CREEK RD,,,BRIDGTON,CUMBERLAND,,ME,,04009-4135,US,44.0274058,-70.7023695,
"MEADOWS HOME, THE",,,,,,+1 (207) 747-5463,,,,,,THE MEADOWS HOME,,,,,,+1 (207) 747-5463,,,,,,,,,,,,,,,,,,,,,244 RAY ST,,,PORTLAND,CUMBERLAND,,ME,,04103-4305,US,43.6981871,-70.2775824,North Deering
"MEADOWS, THE",,,,,,+1 (207) 827-2397,,,,,,THE MEADOWS,,,,,,+1 (207) 827-0547,,,,,,,,,,,,,,,,,,,,,110 PERKINS AVE,,,OLD TOWN,PENOBSCOT,,ME,,04468-1763,US,44.9288056,-68.6516025,
MEADOWVIEW GROUP HOME,,,,,,+1 (207) 866-5909,,,,,,MEADOWVIEW GROUP HOME,,,,,,+1 (207) 866-4214,,,,,,,,,,,,,,,,,,,,,90 PARK ST,,,ORONO,PENOBSCOT,,ME,,04473-4408,US,44.8915729,-68.66406719999999,Orono
MERCY HOME,,,,,,+1 (207) 444-6099,,,,,,MERCY HOME,,,,,,+1 (207) 444-5152,,,,,,,,,,,,,,,,,,,,,3402 AROOSTOOK RD,,,EAGLE LAKE,AROOSTOOK,,ME,,4739,US,47.0353248,-68.5954759,
MERRY GARDENS ESTATES,,,,,,+1 (207) 973-3699,,,,,,MERRY GARDENS ESTATES,,,,,,+1 (207) 973-3571,,,,,,,,,,,,,,,,,,,,,87 JOHN ST,,,CAMDEN,KNOX,,ME,,04843-1953,US,44.20621979999999,-69.08388819999999,Camden
MID COAST SENIOR HEALTH CENTER-THORNTON HALL,,,,,,+1 (207) 373-3640,,,,,,MID COAST SENIOR HEALTH CENTER-THORNTON HALL,,,,,,+1 (207) 373-3646,,,,,,,,,,,,,,,,,,,,,56 BARIBEAU DR,,,BRUNSWICK,CUMBERLAND,,ME,,04011-3251,US,43.900198,-69.979351,Brunswick
MIDDLE STREET HOUSE,,,,,,+1 (207) 626-3469,,,,,,MIDDLE STREET HOUSE,,,,,,+1 (207) 626-3484,,,,,,,,,,,,,,,,,,,,,45 MIDDLE ST,,,AUGUSTA,KENNEBEC,,ME,,04330-5728,US,44.31180579999999,-69.76648399999999,
MILBRIDGE RESIDENCE,,,,,,+1 (207) 255-6110,,,,,,MILBRIDGE RESIDENCE,,,,,,+1 (207) 546-5015,,,,,,,,,,,,,,,,,,,,,4 HARBOR LN,,,MILBRIDGE,WASHINGTON,,ME,,04658-3550,US,44.53607239999999,-67.8799676,
MILLER TERRACES,,,,,,+1 (207) 942-9077,,,,,,MILLER TERRACES,,,,,,+1 (207) 942-8603,,,,,,,,,,,,,,,,,,,,,60 OHIO ST,,,BANGOR,PENOBSCOT,,ME,,04401-4732,US,44.8023961,-68.7777145,
MILLIE MORRILL HOUSE,,,,,,+1 (207) 854-1787,,,,,,MILLIE MORRILL HOUSE,,,,,,+1 (207) 420-3281,,,,,,,,,,,,,,,,,,,,,205 LUDLOW ST,,,PORTLAND,CUMBERLAND,,ME,,04102-1807,US,43.6743319,-70.3024081,Deering Center
MINUTEMAN DRIVE,,,,,,+1 (207) 879-1146,,,,,,MINUTEMAN DRIVE,,,,,,+1 (207) 885-0831,,,,,,,,,,,,,,,,,,,,,1 MINUTEMAN DR,,,SCARBOROUGH,CUMBERLAND,,ME,,04074-8716,US,43.5843074,-70.29274579999999,
MONMOUTH ACRES,,,,,,+1 (207) 761-8405,,,,,,MONMOUTH ACRES,,,,,,+1 (207) 671-3565,,,,,,,,,,,,,,,,,,,,,89 ROUTE 135,,,MONMOUTH,KENNEBEC,,ME,,04259-6513,US,44.23883539999999,-70.0346807,
MONROE HOME,,,,,,+1 (207) 797-6398,,,,,,MONROE HOME,,,,,,+1 (207) 854-9521,,,,,,,,,,,,,,,,,,,,,20 MONROE AVE,,,WESTBROOK,CUMBERLAND,,ME,,04092-4017,US,43.6747208,-70.3581914,
MONTELLO COMMONS,,,,,,+1 (207) 782-0184,,,,,,MONTELLO COMMONS,,,,,,+1 (207) 783-6244,,,,,,,,,,,,,,,,,,,,,540 COLLEGE ST,,,LEWISTON,ANDROSCOGGIN,,ME,,04240-5228,US,44.119954,-70.19431399999999,
MONTELLO HEIGHTS RETIREMENT COMMUNITY,,,,,,+1 (207) 786-0968,,,,,,MONTELLO HEIGHTS RETIREMENT COMMUNITY,,,,,,+1 (207) 786-7149,,,,,,,,,,,,,,,,,,,,,550 COLLEGE ST,,,LEWISTON,ANDROSCOGGIN,,ME,,04240-2464,US,44.12187,-70.192801,
MOODY'S FOSTER HOME,,,,,,+1 (207) 582-0016,,,,,,MOODY'S FOSTER HOME,,,,,,+1 (207) 582-0016,,,,,,,,,,,,,,,,,,,,,198 BIRMINGHAM RD,,,CHELSEA,KENNEBEC,,ME,,04330-1189,US,44.2465217,-69.74514649999999,
"MOORING ON FORESIDE, THE",,,,,,+1 (207) 221-1828,,,,,,"MOORING ON FORESIDE, THE",,,,,,+1 (207) 272-2797,,,,,,,,,,,,,,,,,,,,,301 US ROUTE 1,,,CUMBERLAND FORESIDE,CUMBERLAND,,ME,,04110-1356,US,43.79096699999999,-70.1886907,Yarmouth
MORGAN BROOK,,,,,,+1 (207) 782-1734,,,,,,MORGAN BROOK,,,,,,+1 (207) 345-0982,,,,,,,,,,,,,,,,,,,,,222 WOODMAN HILL RD,,,MINOT,ANDROSCOGGIN,,ME,,04258-4637,US,44.1026126,-70.32834369999999,
MORRELLS MILL HOME,,,,,,+1 (207) 324-6050,,,,,,MORRELLS MILL HOME,,,,,,+1 (207) 676-8535,,,,,,,,,,,,,,,,,,,,,104 MORRILLS MILL RD,,,NORTH BERWICK,YORK,,ME,,03906-6129,US,43.3506236,-70.7345838,
MOUNTAIN ROAD WAIVER,,,,,,+1 (207) 938-3069,,,,,,MOUNTAIN ROAD WAIVER,,,,,,+1 (207) 938-3201,,,,,,,,,,,,,,,,,,,,,177 MOUNTAIN RD,,,SAINT ALBANS,SOMERSET,,ME,,04971-7401,US,44.8962134,-69.4507876,
MOUNTAIN VISTA MANOR,,,,,,+1 (207) 565-3804,,,,,,MOUNTAIN VISTA MANOR,,,,,,+1 (207) 565-3804,,,,,,,,,,,,,,,,,,,,,44 S BAY RD,,,FRANKLIN,HANCOCK,,ME,,04634-3140,US,44.5680328,-68.1941442,
MUNROE HOUSE I,,,,,,+1 (207) 772-3743,,,,,,MUNROE HOUSE I,,,,,,+1 (207) 772-1304,,,,,,,,,,,,,,,,,,,,,72 EMERY ST,,,PORTLAND,CUMBERLAND,,ME,,04102-3707,US,43.64715270000001,-70.2686509,West End
MUNROE HOUSE II,,,,,,+1 (207) 772-3743,,,,,,MUNROE HOUSE II,,,,,,+1 (207) 775-3731,,,,,,,,,,,,,,,,,,,,,70 EMERY ST,,,PORTLAND,CUMBERLAND,,ME,,04102-3707,US,43.6470709,-70.268717,West End
MURPHY'S MANOR,,,,,,,,,,,,MURPHY'S MANOR,,,,,,+1 (401) 255-7712,,,,,,,,,,,,,,,,,,,,,340 STATE ST,,,BANGOR,PENOBSCOT,,ME,,04401-5531,US,44.8075266,-68.7564311,
MUSKIE CENTER ADULT DAY SERVICES,,,,,,+1 (207) 622-7857,,,,,,MUSKIE CENTER ADULT DAY SERVICES,,,,,,+1 (207) 622-9212,,,,,,,,,,,,,,,,,,,,,38 GOLD ST,,,WATERVILLE,KENNEBEC,,ME,,04901-5919,US,44.5437982,-69.638893,
MY FRIEND'S PLACE,,,,,,+1 (207) 945-9312,,,,,,MY FRIEND'S PLACE,,,,,,+1 (207) 945-0122,,,,,,,,,,,,,,,,,,,,,703 ESSEX ST,,,BANGOR,PENOBSCOT,,ME,,04401-3509,US,44.8249194,-68.7691479,
NARRAGUAGUS BAY HEALTH CENTER,,,,,,+1 (207) 546-2145,,,,,,NARRAGUAGUS BAY HEALTH CENTER,,,,,,+1 (207) 546-2371,,,,,,,,,,,,,,,,,,,,,3 MAIN ST,,,MILBRIDGE,WASHINGTON,,ME,,04658-3500,US,44.5385713,-67.8832056,
"NEIGHBORHOOD RESIDENTIAL, INC.",,,,,,+1 (207) 259-1165,,,,,,"NEIGHBORHOOD RESIDENTIAL, INC.",,,,,,+1 (207) 263-4783,,,,,,,,,,,,,,,,,,,,,36 HADLEY LAKE RD,,,MARSHFIELD,WASHINGTON,,ME,,04654-5108,US,44.74164269999999,-67.3954578,
NEURORESTORATIVE KENNEBUNK 1,,,,,,+1 (207) 934-0523,,,,,,NEURORESTORATIVE KENNEBUNK 1,,,,,,+1 (207) 229-0547,,,,,,,,,,,,,,,,,,,,,9 POTVIN LN,,,KENNEBUNK,YORK,,ME,,04043-6176,US,ERROR,ERROR,ERROR
NEURORESTORATIVE OLD ORCHARD,,,,,,+1 (207) 934-0523,,,,,,NEURORESTORATIVE OLD ORCHARD,,,,,,+1 (207) 229-0547,,,,,,,,,,,,,,,,,,,,,35 POPLAR ST,,,OLD ORCHARD BEACH,YORK,,ME,,04064-1169,US,43.53829650000001,-70.3957745,
NEURORESTORATIVE OLD ORCHARD BEACH 2,,,,,,+1 (207) 934-0523,,,,,,NEURORESTORATIVE OLD ORCHARD BEACH 2,,,,,,+1 (207) 229-0547,,,,,,,,,,,,,,,,,,,,,37 POPLAR ST,,,OLD ORCHARD BEACH,YORK,,ME,,04064-1169,US,43.5385132,-70.3955737,
NEURORESTORATIVE OLD ORCHARD BEACH 3,,,,,,+1 (207) 934-0523,,,,,,NEURORESTORATIVE OLD ORCHARD BEACH 3,,,,,,+1 (207) 229-0547,,,,,,,,,,,,,,,,,,,,,14 POND VIEW RD,,,OLD ORCHARD BEACH,YORK,,ME,,04064-4149,US,43.5351945,-70.4041794,
NEURORESTORATIVE SEBAGO HOUSE,,,,,,+1 (207) 787-2246,,,,,,NEURORESTORATIVE SEBAGO HOUSE,,,,,,+1 (207) 787-2162,,,,,,,,,,,,,,,,,,,,,986 SEBAGO RD,,,SEBAGO,CUMBERLAND,,ME,,04029-3814,US,43.9008809,-70.6265871,
NEURORESTORATIVE SEBAGO LODGE,,,,,,+1 (207) 934-0523,,,,,,NEURORESTORATIVE SEBAGO LODGE,,,,,,+1 (207) 229-0547,,,,,,,,,,,,,,,,,,,,,1014 SEBAGO RD,,,SEBAGO,CUMBERLAND,,ME,,04029-3816,US,43.9027603,-70.6258165,
NEURORESTORATIVE SEBAGO RANCH,,,,,,+1 (207) 642-1270,,,,,,NEURORESTORATIVE SEBAGO RANCH,,,,,,+1 (207) 229-0547,,,,,,,,,,,,,,,,,,,,,988 SEBAGO RD,,,SEBAGO,CUMBERLAND,,ME,,04029-3814,US,43.9009612,-70.6261269,
NEW BEGINNINGS RESIDENTIAL CARE LLC,,,,,,+1 (207) 943-2009,,,,,,NEW BEGINNINGS RESIDENTIAL CARE LLC,,,,,,+1 (207) 943-6082,,,,,,,,,,,,,,,,,,,,,90 PARK ST,,,MILO,PISCATAQUIS,,ME,,04463-1738,US,45.2613612,-68.98944019999999,
NEW HOPE HOME,,,,,,+1 (207) 369-0141,,,,,,NEW HOPE HOME,,,,,,+1 (207) 369-0019,,,,,,,,,,,,,,,,,,,,,91 HIGHLAND TER,,,MEXICO,OXFORD,,ME,,04257-1721,US,44.5543147,-70.52526519999999,
NEW HORIZONS AFCH,,,,,,+1 (207) 454-1141,,,,,,NEW HORIZONS AFCH,,,,,,+1 (207) 454-1141,,,,,,,,,,,,,,,,,,,,,526 SOUTH ST,,,CALAIS,WASHINGTON,,ME,,04619-1118,US,45.175992,-67.274956,
NEWTON STREET RESIDENCE,,,,,,+1 (207) 761-8405,,,,,,NEWTON STREET RESIDENCE,,,,,,+1 (207) 671-3565,,,,,,,,,,,,,,,,,,,,,137 NEWTON ST,,,PORTLAND,CUMBERLAND,,ME,,04103-1534,US,43.70048329999999,-70.3026675,Riverton
NORTH POND HOMESTEAD,,,,,,+1 (207) 273-3050,,,,,,NORTH POND HOMESTEAD,,,,,,+1 (207) 273-3005,,,,,,,,,,,,,,,,,,,,,349 N POND RD,,,WARREN,KNOX,,ME,,04864-4428,US,44.1270448,-69.2915844,
NORTH SCHOOL STREET HOUSE,,,,,,+1 (207) 858-8515,,,,,,NORTH SCHOOL STREET HOUSE,,,,,,+1 (207) 622-2291,,,,,,,,,,,,,,,,,,,,,27 N SCHOOL ST,,,SKOWHEGAN,SOMERSET,,ME,,04976-2319,US,44.77496279999999,-69.7162134,Skowhegan
NORTH STREET BRIDGE HOME,,,,,,+1 (207) 454-3378,,,,,,NORTH STREET BRIDGE HOME,,,,,,+1 (207) 952-0240,,,,,,,,,,,,,,,,,,,,,241 NORTH ST,,,CALAIS,WASHINGTON,,ME,,04619-1619,US,45.1711746,-67.289571,
NORTHERN AVENUE,,,,,,+1 (207) 782-1734,,,,,,NORTHERN AVENUE,,,,,,+1 (207) 777-3110,,,,,,,,,,,,,,,,,,,,,124 NORTHERN AVE,,,AUBURN,ANDROSCOGGIN,,ME,,04210-6200,US,44.113681,-70.221372,
NORTHWOOD MANOR,,,,,,+1 (207) 435-3007,,,,,,NORTHWOOD MANOR,,,,,,+1 (207) 435-3700,,,,,,,,,,,,,,,,,,,,,35 WALKER ST,,,ASHLAND,AROOSTOOK,,ME,,04732-3429,US,46.6289752,-68.3914745,
"NORWAY CENTER FOR HEALTH & REHABILITATION, LLC",,,,,,+1 (207) 743-9269,,,,,,"NORWAY CENTER FOR HEALTH & REHABILITATION, LLC",,,,,,+1 (207) 743-7075,,,,,,,,,,,,,,,,,,,,,29 MARION AVE,,,NORWAY,OXFORD,,ME,,04268-5601,US,44.204564,-70.535533,Norway
OAKWOOD DRIVE,,,,,,+1 (207) 539-8618,,,,,,OAKWOOD DRIVE,,,,,,+1 (207) 539-8618,,,,,,,,,,,,,,,,,,,,,10 OAKWOOD DR,,,OXFORD,OXFORD,,ME,,04270-3587,US,44.1560195,-70.49867429999999,Oxford
OASIS,,,,,,+1 (207) 564-2404,,,,,,OASIS,,,,,,+1 (207) 564-9061,,,,,,,,,,,,,,,,,,,,,10 LOOKOUT AVE,,,DOVER FOXCROFT,PISCATAQUIS,,ME,,04426-3622,US,45.1788799,-69.24243150000001,Dover-Foxcroft
OCEAN PARK ROAD,,,,,,+1 (207) 897-1146,,,,,,OCEAN PARK ROAD,,,,,,+1 (207) 282-7306,,,,,,,,,,,,,,,,,,,,,36 OCEAN PARK RD,,,SACO,YORK,,ME,,04072-1620,US,43.50928399999999,-70.42706009999999,
OCEANVIEW MANOR,,,,,,+1 (207) 934-2158,,,,,,OCEANVIEW MANOR,,,,,,+1 (207) 934-2157,,,,,,,,,,,,,,,,,,,,,10 MANOR ST,,,OCEAN PARK,YORK,,ME,,04063-3000,US,43.50320900000001,-70.39618899999999,
OCR-26 OLD COUNTY ROAD,,,,,,+1 (207) 878-2259,,,,,,OCR-26 OLD COUNTY ROAD,,,,,,+1 (207) 878-4686,,,,,,,,,,,,,,,,,,,,,26 OLD COUNTY RD,,,SCARBOROUGH,CUMBERLAND,,ME,,04074-9005,US,43.5795609,-70.335183,
ODD FELLOWS & REBEKAHS' HOME OF MAINE,,,,,,+1 (207) 786-4064,,,,,,ODD FELLOWS & REBEKAHS' HOME OF MAINE,,,,,,+1 (207) 786-4616,,,,,,,,,,,,,,,,,,,,,85 CARON LN,,,AUBURN,ANDROSCOGGIN,,ME,,04210-4288,US,44.08180400000001,-70.23799300000002,
OHI-113 LINCOLN STREET ASSISTED LIVING FACILITY,,,,,,+1 (207) 848-7978,,,,,,OHI-113 LINCOLN STREET ASSISTED LIVING FACILITY,,,,,,+1 (207) 848-5804,,,,,,,,,,,,,,,,,,,,,113 LINCOLN ST,,,BANGOR,PENOBSCOT,,ME,,04401-6220,US,44.791906,-68.78084950000002,
OHI-17 CHURCH ROAD,,,,,,+1 (207) 848-7978,,,,,,OHI-17 CHURCH ROAD,,,,,,+1 (207) 989-7725,,,,,,,,,,,,,,,,,,,,,17 CHURCH RD,,,HOLDEN,PENOBSCOT,,ME,,04429-7150,US,44.7533188,-68.6792384,
OHI-175 MOOSEHEAD BLVD.,,,,,,+1 (207) 848-7978,,,,,,OHI-175 MOOSEHEAD BLVD.,,,,,,+1 (207) 990-4215,,,,,,,,,,,,,,,,,,,,,175 MOOSEHEAD BLVD,,,BANGOR,PENOBSCOT,,ME,,04401-2324,US,44.83774159999999,-68.8241082,Outer Ohio
OHI-18 GROVE STREET,,,,,,+1 (207) 848-7978,,,,,,OHI-18 GROVE STREET,,,,,,+1 (207) 989-8928,,,,,,,,,,,,,,,,,,,,,18 GROVE ST,,,BREWER,PENOBSCOT,,ME,,04412-2304,US,44.7802896,-68.7738644,
OHI-19 SOUDER STATION LANE,,,,,,+1 (207) 989-4050,,,,,,OHI-19 SOUDER STATION LANE,,,,,,+1 (207) 848-5804,,,,,,,,,,,,,,,,,,,,,19 SOUDER STATION LN,,,WINTERPORT,WALDO,,ME,,04496-3438,US,44.6736511,-68.848111,
OHI-2 MILL CREEK,,,,,,+1 (207) 848-7978,,,,,,OHI-2 MILL CREEK,,,,,,+1 (207) 848-5804,,,,,,,,,,,,,,,,,,,,,2 MILL CREEK RD,,,ORRINGTON,PENOBSCOT,,ME,,04474-3648,US,44.6933044,-68.8178441,
OHI-200 CLEWLEYVILLE ROAD,,,,,,+1 (207) 848-7978,,,,,,OHI-200 CLEWLEYVILLE ROAD,,,,,,+1 (207) 989-6424,,,,,,,,,,,,,,,,,,,,,200 CLEWLEYVILLE RD,,,EDDINGTON,PENOBSCOT,,ME,,04428-3027,US,44.812455,-68.6898496,
OHI-22 GEORGE STREET,,,,,,+1 (207) 848-7978,,,,,,OHI-22 GEORGE STREET,,,,,,+1 (207) 945-3526,,,,,,,,,,,,,,,,,,,,,22 GEORGE ST,,,BANGOR,PENOBSCOT,,ME,,04401-4616,US,44.8032716,-68.78026559999999,
OHI-247 BIRCH STREET,,,,,,+1 (207) 848-7978,,,,,,OHI-247 BIRCH STREET,,,,,,+1 (207) 941-6565,,,,,,,,,,,,,,,,,,,,,247 BIRCH ST,,,BANGOR,PENOBSCOT,,ME,,04401-4023,US,44.81288949999999,-68.760266,Tree Streets
OHI-296 MT. HOPE AVENUE,,,,,,+1 (207) 990-0360,,,,,,OHI-296 MT. HOPE AVENUE,,,,,,+1 (207) 990-0360,,,,,,,,,,,,,,,,,,,,,296 MOUNT HOPE AVE,,,BANGOR,PENOBSCOT,,ME,,04401-4209,US,44.8166747,-68.75370029999999,
OHI-321 NORTH MAIN STREET,,,,,,+1 (207) 848-7978,,,,,,OHI-321 NORTH MAIN STREET,,,,,,+1 (207) 989-6930,,,,,,,,,,,,,,,,,,,,,321 N MAIN ST,,,BREWER,PENOBSCOT,,ME,,04412-2616,US,44.7982951,-68.7595334,
OHI-34 LONGMEADOW DRIVE,,,,,,+1 (207) 848-7978,,,,,,OHI-34 LONGMEADOW DRIVE,,,,,,+1 (207) 989-7328,,,,,,,,,,,,,,,,,,,,,34 LONGMEADOW DR,,,BREWER,PENOBSCOT,,ME,,04412-1309,US,44.7943427,-68.746524,
OHI-35 GEORGE STREET,,,,,,+1 (207) 848-7978,,,,,,OHI-35 GEORGE STREET,,,,,,+1 (207) 862-4497,,,,,,,,,,,,,,,,,,,,,35 GEORGE ST,,,HAMPDEN,PENOBSCOT,,ME,,04444-1605,US,44.7549226,-68.8285884,Hampden
OHI-52 DIVISION STREET,,,,,,+1 (207) 848-7978,,,,,,OHI-52 DIVISION STREET,,,,,,+1 (207) 942-1603,,,,,,,,,,,,,,,,,,,,,52 DIVISION ST,,,BANGOR,PENOBSCOT,,ME,,04401-4835,US,44.8091659,-68.77459809999999,
OHI-546 PINE TREE ROAD,,,,,,+1 (207) 848-5003,,,,,,OHI-546 PINE TREE ROAD,,,,,,+1 (207) 848-5003,,,,,,,,,,,,,,,,,,,,,546 PINETREE RD,,,HERMON,PENOBSCOT,,ME,,04401-0124,US,44.83528699999999,-68.9662725,
OHI-FERN STREET,,,,,,+1 (207) 848-7978,,,,,,OHI-FERN STREET,,,,,,+1 (207) 848-5804,,,,,,,,,,,,,,,,,,,,,38 FERN ST,,,BANGOR,PENOBSCOT,,ME,,04401-5504,US,44.80806649999999,-68.75827919999999,Tree Streets
OHI-RANDOLPH DRIVE,,,,,,+1 (207) 848-7978,,,,,,OHI-RANDOLPH DRIVE,,,,,,+1 (207) 942-3073,,,,,,,,,,,,,,,,,,,,,180 RANDOLPH DR,,,BANGOR,PENOBSCOT,,ME,,04401-2832,US,44.8237805,-68.81672590000001,
OHI-THREE HUDSON STREET,,,,,,+1 (207) 848-7978,,,,,,OHI-THREE HUDSON STREET,,,,,,+1 (207) 947-0202,,,,,,,,,,,,,,,,,,,,,3 HUDSON ST,,,BANGOR,PENOBSCOT,,ME,,04401-4617,US,44.8027473,-68.77835739999999,
OHI-WHITNEY COURT,,,,,,+1 (207) 848-7978,,,,,,OHI-WHITNEY COURT,,,,,,+1 (207) 989-3132,,,,,,,,,,,,,,,,,,,,,42 WHITNEY CT,,,BREWER,PENOBSCOT,,ME,,04412-1352,US,44.7882426,-68.7406917,
OLD DANVILLE ROAD,,,,,,+1 (207) 782-1734,,,,,,OLD DANVILLE ROAD,,,,,,+1 (207) 782-6264,,,,,,,,,,,,,,,,,,,,,501 OLD DANVILLE RD,,,AUBURN,ANDROSCOGGIN,,ME,,04210-8107,US,44.039647,-70.250963,
OLD FOSS FARM,,,,,,+1 (207) 793-9626,,,,,,OLD FOSS FARM,,,,,,+1 (207) 793-2554,,,,,,,,,,,,,,,,,,,,,301 FOSS RD,,,LIMERICK,YORK,,ME,,04048-4306,US,43.6501076,-70.8068278,
OLD WINDSOR ROAD,,,,,,+1 (207) 582-6181,,,,,,OLD WINDSOR ROAD,,,,,,+1 (207) 582-6181,,,,,,,,,,,,,,,,,,,,,47 WINDSOR RD,,,CHELSEA,KENNEBEC,,ME,,04330-1283,US,44.24950279999999,-69.7128066,
OLIVER HOUSE,,,,,,+1 (207) 778-5621,,,,,,OLIVER HOUSE,,,,,,+1 (207) 778-0584,,,,,,,,,,,,,,,,,,,,,482 FARMINGTON FALLS RD,,,FARMINGTON,FRANKLIN,,ME,,04938-6438,US,44.64866060000001,-70.1191597,
ONE HUNDRED TWELVE OHIO STREET,,,,,,+1 (207) 942-5353,,,,,,ONE HUNDRED TWELVE OHIO STREET,,,,,,+1 (207) 942-5353,,,,,,,,,,,,,,,,,,,,,112 OHIO ST,,,BANGOR,PENOBSCOT,,ME,,04401-4737,US,44.80355239999999,-68.7796791,
ONE SEVENTY MAIN STREET,,,,,,+1 (207) 764-3359,,,,,,ONE SEVENTY MAIN STREET,,,,,,+1 (207) 764-0019,,,,,,,,,,,,,,,,,,,,,170 MAIN ST,,,PRESQUE ISLE,AROOSTOOK,,ME,,04769-2817,US,46.67156869999999,-68.01410059999999,
ONE SIXTY EIGHT OLD LISBON ROAD,,,,,,,,,,,,ONE SIXTY EIGHT OLD LISBON ROAD,,,,,,+1 (207) 241-2826,,,,,,,,,,,,,,,,,,,,,168 OLD LISBON RD,,,LEWISTON,ANDROSCOGGIN,,ME,,04240-1509,US,44.0682409,-70.155862,
ONE TWENTY FIVE FRANKLIN STREET,,,,,,+1 (207) 364-5852,,,,,,ONE TWENTY FIVE FRANKLIN STREET,,,,,,+1 (207) 364-5851,,,,,,,,,,,,,,,,,,,,,125 FRANKLIN ST,,,RUMFORD,OXFORD,,ME,,04276-2201,US,44.5471823,-70.5519609,Rumford
ONE WILLOW MANOR,,,,,,+1 (207) 767-1659,,,,,,ONE WILLOW MANOR,,,,,,+1 (207) 799-2615,,,,,,,,,,,,,,,,,,,,,97 SCHOOL ST,,,SOUTH PORTLAND,CUMBERLAND,,ME,,04106-1545,US,43.6477647,-70.2401473,Ferry Village
ORONO COMMONS,,,,,,+1 (207) 866-3821,,,,,,ORONO COMMONS,,,,,,+1 (207) 866-4914,,,,,,,,,,,,,,,,,,,,,117 BENNOCH RD,,,ORONO,PENOBSCOT,,ME,,04473-3620,US,44.8940944,-68.6797003,Orono
OSHER INN AT THE CEDARS,,,,,,+1 (207) 772-6038,,,,,,OSHER INN AT THE CEDARS,,,,,,+1 (207) 221-7171,,,,,,,,,,,,,,,,,,,,,620 OCEAN AVE,,,PORTLAND,CUMBERLAND,,ME,,04103-2861,US,43.6884388,-70.2679986,North Deering
OWLS HEAD GROUP HOME,,,,,,+1 (207) 594-9507,,,,,,OWLS HEAD GROUP HOME,,,,,,+1 (207) 594-9507,,,,,,,,,,,,,,,,,,,,,38 WESKEG RD,,,OWLS HEAD,KNOX,,ME,,04854-3417,US,44.0753727,-69.10435369999999,
OXHORN ROAD,,,,,,+1 (207) 563-3561,,,,,,OXHORN ROAD,,,,,,+1 (207) 563-3511 x306,,,,,,,,,,,,,,,,,,,,,60 OXHORN RD,,,WISCASSET,LINCOLN,,ME,,04578-4697,US,43.9731014,-69.704675,
PARENT WAIVER HOME,,,,,,+1 (207) 868-9708,,,,,,PARENT WAIVER HOME,,,,,,+1 (207) 868-9708,,,,,,,,,,,,,,,,,,,,,118 WRIGHT ST,,,VAN BUREN,AROOSTOOK,,ME,,04785-1352,US,47.17591050000001,-67.9499119,Van Buren
PARIS HOME ASSISTED HOUSING PROGRAM,,,,,,+1 (207) 743-6354,,,,,,PARIS HOME ASSISTED HOUSING PROGRAM,,,,,,+1 (207) 743-6354,,,,,,,,,,,,,,,,,,,,,14 PARIS PROMENADE,,,SOUTH PARIS,OXFORD,,ME,,04281-1126,US,44.2325093,-70.5171103,South Paris
"PARISH HOUSE, THE",,,,,,+1 (207) 373-1160,,,,,,"PARISH HOUSE, THE",,,,,,+1 (207) 373-1140,,,,,,,,,,,,,,,,,,,,,27 KENNEBEC STREET,,,BAR HARBOR,HANCOCK,,ME,,4609,US,44.3879491,-68.2068438,Bar Harbor
PARK RESIDENCES,,,,,,+1 (207) 660-4750,,,,,,PARK RESIDENCES,,,,,,+1 (207) 861-5685,,,,,,,,,,,,,,,,,,,,,141 W RIVER RD,,,WATERVILLE,KENNEBEC,,ME,,04901-5098,US,44.5282185,-69.6649791,
